[
  {
    "id": "55",
    "name": "Bearpaw River Brewing Co",
    "brewery_type": "micro",
    "street": "4605 E Palmer Wasilla Hwy",
    "city": "Wasilla",
    "state": "Alaska",
    "postal_code": "99654-7679",
    "website_url": "http://bearpawriverbrewing.com",
    "phone": "",
    "created_at": "2018-07-24 01:32:47.967298",
    "updated_at": "2018-08-23 23:20:40.743241",
    "country": "United States",
    "longitude": "-149.4127103",
    "latitude": "61.5752695"
  },
  {
    "id": "76",
    "name": "King Street Brewing Co",
    "brewery_type": "micro",
    "street": "9050 King Street",
    "city": "Anchorage",
    "state": "Alaska",
    "postal_code": "99515",
    "website_url": "http://www.kingstreetbrewing.com",
    "phone": "9073365464",
    "created_at": "2018-07-24 01:32:48.301213",
    "updated_at": "2018-08-23 23:20:57.179365",
    "country": "United States",
    "longitude": "-149.879076042937",
    "latitude": "61.1384893547315"
  },
  {
    "id": "54",
    "name": "Barnaby Brewing Company",
    "brewery_type": "micro",
    "street": "206 N Franklin St",
    "city": "Juneau",
    "state": "Alaska",
    "postal_code": "99801-1225",
    "website_url": "http://www.barnabybrew.com",
    "phone": "9074190916",
    "created_at": "2018-07-24 01:32:47.953677",
    "updated_at": "2018-08-23 23:20:39.859861",
    "country": "United States",
    "longitude": "-134.407726539973",
    "latitude": "58.3017758843016"
  },
  {
    "id": "55",
    "name": "Bearpaw River Brewing Co",
    "brewery_type": "micro",
    "street": "4605 E Palmer Wasilla Hwy",
    "city": "Wasilla",
    "state": "Alaska",
    "postal_code": "99654-7679",
    "website_url": "http://bearpawriverbrewing.com",
    "phone": "",
    "created_at": "2018-07-24 01:32:47.967298",
    "updated_at": "2018-08-23 23:20:40.743241",
    "country": "United States",
    "longitude": "-149.4127103",
    "latitude": "61.5752695"
  },
  {
    "id": "76",
    "name": "King Street Brewing Co",
    "brewery_type": "micro",
    "street": "9050 King Street",
    "city": "Anchorage",
    "state": "Alaska",
    "postal_code": "99515",
    "website_url": "http://www.kingstreetbrewing.com",
    "phone": "9073365464",
    "created_at": "2018-07-24 01:32:48.301213",
    "updated_at": "2018-08-23 23:20:57.179365",
    "country": "United States",
    "longitude": "-149.879076042937",
    "latitude": "61.1384893547315"
  },
  {
    "id": "54",
    "name": "Barnaby Brewing Company",
    "brewery_type": "micro",
    "street": "206 N Franklin St",
    "city": "Juneau",
    "state": "Alaska",
    "postal_code": "99801-1225",
    "website_url": "http://www.barnabybrew.com",
    "phone": "9074190916",
    "created_at": "2018-07-24 01:32:47.953677",
    "updated_at": "2018-08-23 23:20:39.859861",
    "country": "United States",
    "longitude": "-134.407726539973",
    "latitude": "58.3017758843016"
  },
  {
    "id": "47",
    "name": "49th State Brewing Co",
    "brewery_type": "brewpub",
    "street": "248 Parks Hwy 5 Mile",
    "city": "Healy",
    "state": "Alaska",
    "postal_code": "99743",
    "website_url": "",
    "phone": "",
    "created_at": "2018-07-24 01:32:47.858678",
    "updated_at": "2018-08-11 21:35:44.679447",
    "country": "United States",
    "longitude": "",
    "latitude": ""
  },
  {
    "id": "51",
    "name": "Arkose Brewery",
    "brewery_type": "micro",
    "street": "650 E Steel Loop",
    "city": "Palmer",
    "state": "Alaska",
    "postal_code": "99645-6689",
    "website_url": "http://www.arkosebrewery.com",
    "phone": "9077462337",
    "created_at": "2018-07-24 01:32:47.91104",
    "updated_at": "2018-08-11 21:35:44.816259",
    "country": "United States",
    "longitude": "",
    "latitude": ""
  },
  {
    "id": "53",
    "name": "Baranof Island Brewing Co",
    "brewery_type": "micro",
    "street": "1209 Sawmill Creek Rd Ste A",
    "city": "Sitka",
    "state": "Alaska",
    "postal_code": "99835-9759",
    "website_url": "http://www.baranofislandbrewing.com",
    "phone": "9077472739",
    "created_at": "2018-07-24 01:32:47.938574",
    "updated_at": "2018-08-11 21:35:44.879829",
    "country": "United States",
    "longitude": "",
    "latitude": ""
  },
  {
    "id": "59",
    "name": "Cynosure Brewing",
    "brewery_type": "micro",
    "street": "144 E Potter Dr Unit E",
    "city": "Anchorage",
    "state": "Alaska",
    "postal_code": "99518-1363",
    "website_url": "",
    "phone": "9075632966",
    "created_at": "2018-07-24 01:32:48.054935",
    "updated_at": "2018-08-11 21:35:45.165973",
    "country": "United States",
    "longitude": "",
    "latitude": ""
  },
  {
    "id": "60",
    "name": "Denali Brewing Company",
    "brewery_type": "micro",
    "street": "37083 Talkeetna Spur Rd",
    "city": "Talkeetna",
    "state": "Alaska",
    "postal_code": "99676",
    "website_url": "http://www.denalibrewing.com",
    "phone": "9077332536",
    "created_at": "2018-07-24 01:32:48.068937",
    "updated_at": "2018-08-11 21:35:45.194717",
    "country": "United States",
    "longitude": "",
    "latitude": ""
  },
  {
    "id": "63",
    "name": "Gakona Brewing Company",
    "brewery_type": "micro",
    "street": "Mile 0.5 Tok Cutoff Hwy",
    "city": "Gakona",
    "state": "Alaska",
    "postal_code": "99586-0336",
    "website_url": "",
    "phone": "",
    "created_at": "2018-07-24 01:32:48.121514",
    "updated_at": "2018-08-11 21:35:45.288255",
    "country": "United States",
    "longitude": "",
    "latitude": ""
  },
  {
    "id": "65",
    "name": "Glacier Brewhouse",
    "brewery_type": "brewpub",
    "street": "737 W 5th Ave Ste 110",
    "city": "Anchorage",
    "state": "Alaska",
    "postal_code": "99501-2129",
    "website_url": "http://www.glacierbrewhouse.com",
    "phone": "9072742739",
    "created_at": "2018-07-24 01:32:48.152378",
    "updated_at": "2018-08-11 21:35:45.348124",
    "country": "United States",
    "longitude": "",
    "latitude": ""
  },
  {
    "id": "66",
    "name": "Grace Ridge Brewing, Inc.",
    "brewery_type": "micro",
    "street": "3388 B St Suite 2",
    "city": "Homer",
    "state": "Alaska",
    "postal_code": "99603-7905",
    "website_url": "",
    "phone": "",
    "created_at": "2018-07-24 01:32:48.168751",
    "updated_at": "2018-08-11 21:35:45.387544",
    "country": "United States",
    "longitude": "",
    "latitude": ""
  },
  {
    "id": "69",
    "name": "Homer Brewing Co",
    "brewery_type": "micro",
    "street": "1411 Lake Shore Dr",
    "city": "Homer",
    "state": "Alaska",
    "postal_code": "99603-7945",
    "website_url": "",
    "phone": "",
    "created_at": "2018-07-24 01:32:48.209057",
    "updated_at": "2018-08-11 21:35:45.514526",
    "country": "United States",
    "longitude": "",
    "latitude": ""
  },
  {
    "id": "74",
    "name": "Kassik's Brewery",
    "brewery_type": "micro",
    "street": "47160 Spruce Haven St",
    "city": "Kenai",
    "state": "Alaska",
    "postal_code": "99611-9677",
    "website_url": "",
    "phone": "",
    "created_at": "2018-07-24 01:32:48.272729",
    "updated_at": "2018-08-11 21:35:45.692031",
    "country": "United States",
    "longitude": "",
    "latitude": ""
  },
  {
    "id": "82",
    "name": "Odd Man Rush",
    "brewery_type": "micro",
    "street": "10930 Mausel St Ste A1",
    "city": "Eagle River",
    "state": "Alaska",
    "postal_code": "99577-8095",
    "website_url": "http://www.oddmanrushbrewing.com",
    "phone": "9076962337",
    "created_at": "2018-07-24 01:32:48.376563",
    "updated_at": "2018-08-11 21:35:45.962203",
    "country": "United States",
    "longitude": "",
    "latitude": ""
  },
  {
    "id": "86",
    "name": "RoughWoods Inn",
    "brewery_type": "brewpub",
    "street": "623 North A St",
    "city": "Nenana",
    "state": "Alaska",
    "postal_code": "99760-9999",
    "website_url": "http://www.roughwoodsinn.biz",
    "phone": "9078325299",
    "created_at": "2018-07-24 01:32:48.439849",
    "updated_at": "2018-08-11 21:35:46.096716",
    "country": "United States",
    "longitude": "",
    "latitude": ""
  },
  {
    "id": "87",
    "name": "Seward Brewing",
    "brewery_type": "brewpub",
    "street": "139 4th Ave",
    "city": "Seward",
    "state": "Alaska",
    "postal_code": "99664",
    "website_url": "http://www.sewardbrewingcompany.com",
    "phone": "9074220337",
    "created_at": "2018-07-24 01:32:48.453956",
    "updated_at": "2018-08-11 21:35:46.13765",
    "country": "United States",
    "longitude": "",
    "latitude": ""
  },
  {
    "id": "89",
    "name": "Skagway Brewing Co",
    "brewery_type": "brewpub",
    "street": "641 Broadway St Ste 946",
    "city": "Skagway",
    "state": "Alaska",
    "postal_code": "99840-9800",
    "website_url": "http://www.skagwaybrewing.com",
    "phone": "9079832759",
    "created_at": "2018-07-24 01:32:48.483537",
    "updated_at": "2018-08-11 21:35:46.203003",
    "country": "United States",
    "longitude": "",
    "latitude": ""
  },
  {
    "id": "48",
    "name": "49th State Brewing Co - Anchorage",
    "brewery_type": "brewpub",
    "street": "717 W 3rd Ave",
    "city": "Anchorage",
    "state": "Alaska",
    "postal_code": "99501-2104",
    "website_url": "http://www.49statebrewing.com/",
    "phone": "9076832739",
    "created_at": "2018-07-24 01:32:47.871195",
    "updated_at": "2018-08-23 23:20:34.89855",
    "country": "United States",
    "longitude": "-149.895819630259",
    "latitude": "61.2197366"
  },
  {
    "id": "49",
    "name": "Alaskan Brewing Co.",
    "brewery_type": "regional",
    "street": "5429 Shaune Dr",
    "city": "Juneau",
    "state": "Alaska",
    "postal_code": "99801-9540",
    "website_url": "http://www.alaskanbeer.com",
    "phone": "9077805866",
    "created_at": "2018-07-24 01:32:47.883923",
    "updated_at": "2018-08-23 23:20:35.752739",
    "country": "United States",
    "longitude": "-134.491876286925",
    "latitude": "58.3568123068526"
  },
  {
    "id": "50",
    "name": "Anchorage Brewing Co",
    "brewery_type": "micro",
    "street": "148 W 91st Ave",
    "city": "Anchorage",
    "state": "Alaska",
    "postal_code": "99515-1901",
    "website_url": "http://www.anchoragebrewingcompany.com",
    "phone": "9073605104",
    "created_at": "2018-07-24 01:32:47.898122",
    "updated_at": "2018-08-23 23:20:36.630307",
    "country": "United States",
    "longitude": "-149.8893581",
    "latitude": "61.1385311"
  },
  {
    "id": "57",
    "name": "Broken Tooth Brewing Co",
    "brewery_type": "brewpub",
    "street": "2021 Spar Ave",
    "city": "Anchorage",
    "state": "Alaska",
    "postal_code": "99501-1815",
    "website_url": "",
    "phone": "9072784999",
    "created_at": "2018-07-24 01:32:47.992339",
    "updated_at": "2018-08-23 23:20:42.576392",
    "country": "United States",
    "longitude": "-149.843763795249",
    "latitude": "61.2225517048454"
  },
  {
    "id": "58",
    "name": "Cooper Landing Brewing Company, LLC.",
    "brewery_type": "micro",
    "street": "",
    "city": "Cooper Landing",
    "state": "Alaska",
    "postal_code": "99572",
    "website_url": "http://www.cooperlandingbrewing.com",
    "phone": "9072236101",
    "created_at": "2018-07-24 01:32:48.04007",
    "updated_at": "2018-08-23 23:20:42.968597",
    "country": "United States",
    "longitude": "-149.847849500835",
    "latitude": "60.4952185"
  },
  {
    "id": "61",
    "name": "Devil's Club Brewing",
    "brewery_type": "brewpub",
    "street": "100 N Franklin St",
    "city": "Juneau",
    "state": "Alaska",
    "postal_code": "99801-1223",
    "website_url": "http://www.devilsclubbrewing.com",
    "phone": "9077232337",
    "created_at": "2018-07-24 01:32:48.08654",
    "updated_at": "2018-08-23 23:20:45.517708",
    "country": "United States",
    "longitude": "-134.406956",
    "latitude": "58.301309"
  },
  {
    "id": "62",
    "name": "Faults Brewing",
    "brewery_type": "planning",
    "street": "",
    "city": "Anchorage",
    "state": "Alaska",
    "postal_code": "99509-0312",
    "website_url": "",
    "phone": "9073019922",
    "created_at": "2018-07-24 01:32:48.105979",
    "updated_at": "2018-08-23 23:20:45.951501",
    "country": "United States",
    "longitude": "-149.8948523",
    "latitude": "61.2163129"
  },
  {
    "id": "64",
    "name": "Girdwood Brewing Company",
    "brewery_type": "micro",
    "street": "2700 Alyeska Highway",
    "city": "Girdwood",
    "state": "Alaska",
    "postal_code": "99587-0058",
    "website_url": "http://www.girdwoodbrewing.com",
    "phone": "907783",
    "created_at": "2018-07-24 01:32:48.135524",
    "updated_at": "2018-08-23 23:20:47.669601",
    "country": "United States",
    "longitude": "-149.1540907",
    "latitude": "60.9578421"
  },
  {
    "id": "67",
    "name": "Growler Bay Brewing Co",
    "brewery_type": "planning",
    "street": "",
    "city": "Valdez",
    "state": "Alaska",
    "postal_code": "99686-3716",
    "website_url": "",
    "phone": "9072555191",
    "created_at": "2018-07-24 01:32:48.182257",
    "updated_at": "2018-08-23 23:20:49.912963",
    "country": "United States",
    "longitude": "-146.3493638",
    "latitude": "61.1299396"
  },
  {
    "id": "68",
    "name": "Haines Brewing Co",
    "brewery_type": "micro",
    "street": "327 Main St",
    "city": "Haines",
    "state": "Alaska",
    "postal_code": "99827",
    "website_url": "http://www.hainesbrewing.com",
    "phone": "9077663823",
    "created_at": "2018-07-24 01:32:48.19664",
    "updated_at": "2018-08-23 23:20:50.75503",
    "country": "United States",
    "longitude": "-135.4551927",
    "latitude": "59.2357624"
  },
  {
    "id": "70",
    "name": "HooDoo Brewing Co",
    "brewery_type": "micro",
    "street": "1951 Fox Ave",
    "city": "Fairbanks",
    "state": "Alaska",
    "postal_code": "99701-2701",
    "website_url": "http://www.hoodoobrew.com",
    "phone": "9074592337",
    "created_at": "2018-07-24 01:32:48.221957",
    "updated_at": "2018-08-23 23:20:52.424551",
    "country": "United States",
    "longitude": "-147.759819939718",
    "latitude": "64.8485550111944"
  },
  {
    "id": "71",
    "name": "Humpy's Great Alaskan Alehouse",
    "brewery_type": "contract",
    "street": "610 W 6th Ave",
    "city": "Anchorage",
    "state": "Alaska",
    "postal_code": "99501-2225",
    "website_url": "http://www.humpysalaska.com",
    "phone": "9072762337",
    "created_at": "2018-07-24 01:32:48.234705",
    "updated_at": "2018-08-23 23:20:53.300787",
    "country": "United States",
    "longitude": "-149.893892836775",
    "latitude": "61.2165020023101"
  },
  {
    "id": "72",
    "name": "Icy Strait Brewery",
    "brewery_type": "micro",
    "street": "286 Front St",
    "city": "Hoonah",
    "state": "Alaska",
    "postal_code": "99829",
    "website_url": "",
    "phone": "9079576260",
    "created_at": "2018-07-24 01:32:48.248297",
    "updated_at": "2018-08-23 23:20:54.19168",
    "country": "United States",
    "longitude": "-135.446488673469",
    "latitude": "58.110318744898"
  },
  {
    "id": "73",
    "name": "Inside Passage Brewing Company, LLC",
    "brewery_type": "planning",
    "street": "",
    "city": "Ketchikan",
    "state": "Alaska",
    "postal_code": "99901-6502",
    "website_url": "",
    "phone": "5133240762",
    "created_at": "2018-07-24 01:32:48.261071",
    "updated_at": "2018-08-23 23:20:54.588344",
    "country": "United States",
    "longitude": "-131.6466819",
    "latitude": "55.3430696"
  },
  {
    "id": "75",
    "name": "Kenai River Brewing Co",
    "brewery_type": "brewpub",
    "street": "308 Homestead Ln",
    "city": "Soldotna",
    "state": "Alaska",
    "postal_code": "99669-8010",
    "website_url": "http://www.kenairiverbrewing.com",
    "phone": "9072622337",
    "created_at": "2018-07-24 01:32:48.287046",
    "updated_at": "2018-08-23 23:20:56.247856",
    "country": "United States",
    "longitude": "-151.0561141",
    "latitude": "60.4850753"
  },
  {
    "id": "77",
    "name": "Klondike Brewing Company",
    "brewery_type": "brewpub",
    "street": "365 2nd Ave",
    "city": "Skagway",
    "state": "Alaska",
    "postal_code": "99840",
    "website_url": "http://www.klondikebeer.com",
    "phone": "9079832778",
    "created_at": "2018-07-24 01:32:48.315725",
    "updated_at": "2018-08-23 23:20:58.035832",
    "country": "United States",
    "longitude": "-135.318872070707",
    "latitude": "59.4538574343434"
  },
  {
    "id": "78",
    "name": "Kodiak Island Brewing Co, LLC",
    "brewery_type": "micro",
    "street": "117 Lower Mill Bay Rd",
    "city": "Kodiak",
    "state": "Alaska",
    "postal_code": "99615-6580",
    "website_url": "http://www.kodiakbrewery.com",
    "phone": "9074862537",
    "created_at": "2018-07-24 01:32:48.329911",
    "updated_at": "2018-08-23 23:20:58.86045",
    "country": "United States",
    "longitude": "-152.40715497121",
    "latitude": "57.7900825595856"
  },
  {
    "id": "79",
    "name": "Last Frontier Brewing Company",
    "brewery_type": "brewpub",
    "street": "238 N Boundary St",
    "city": "Wasilla",
    "state": "Alaska",
    "postal_code": "99654-7127",
    "website_url": "",
    "phone": "9073577200",
    "created_at": "2018-07-24 01:32:48.342415",
    "updated_at": "2018-08-23 23:20:59.705267",
    "country": "United States",
    "longitude": "-149.439553425176",
    "latitude": "61.5814829990806"
  },
  {
    "id": "80",
    "name": "Midnight Sun Brewing Co",
    "brewery_type": "micro",
    "street": "8111 Dimond Hook Dr",
    "city": "Anchorage",
    "state": "Alaska",
    "postal_code": "99507-3144",
    "website_url": "http://www.midnightsunbrewing.com",
    "phone": "9073441179",
    "created_at": "2018-07-24 01:32:48.35421",
    "updated_at": "2018-08-23 23:21:00.537479",
    "country": "United States",
    "longitude": "-149.8445465",
    "latitude": "61.1471249"
  },
  {
    "id": "81",
    "name": "Midnite Mine Brewpub",
    "brewery_type": "planning",
    "street": "",
    "city": "Fairbanks",
    "state": "Alaska",
    "postal_code": "99701-4838",
    "website_url": "",
    "phone": "9073784067",
    "created_at": "2018-07-24 01:32:48.365397",
    "updated_at": "2018-08-23 23:21:00.948738",
    "country": "United States",
    "longitude": "-147.716675",
    "latitude": "64.837845"
  },
  {
    "id": "84",
    "name": "Resolution Brewing Company",
    "brewery_type": "brewpub",
    "street": "3024 Mountain View Dr Ste 105",
    "city": "Anchorage",
    "state": "Alaska",
    "postal_code": "99501-3141",
    "website_url": "http://www.resolutionbeer.com",
    "phone": "9073304523",
    "created_at": "2018-07-24 01:32:48.407889",
    "updated_at": "2018-08-23 23:21:03.575856",
    "country": "United States",
    "longitude": "-149.823091047009",
    "latitude": "61.2199788932932"
  },
  {
    "id": "85",
    "name": "Resolution Brewing Compnay, LLC",
    "brewery_type": "micro",
    "street": "3024 Mountain View Drive",
    "city": "Anchorage",
    "state": "Alaska",
    "postal_code": "99501",
    "website_url": "http://www.resolutionbeer.com",
    "phone": "9077485297",
    "created_at": "2018-07-24 01:32:48.424321",
    "updated_at": "2018-08-23 23:21:04.418639",
    "country": "United States",
    "longitude": "-149.823091047009",
    "latitude": "61.2199788932932"
  },
  {
    "id": "88",
    "name": "Silver Gulch Brewing Co",
    "brewery_type": "micro",
    "street": "2195 Old Steese Highway",
    "city": "Fox",
    "state": "Alaska",
    "postal_code": "99712",
    "website_url": "http://www.silvergulch.com",
    "phone": "9074522739",
    "created_at": "2018-07-24 01:32:48.467818",
    "updated_at": "2018-08-23 23:21:07.021603",
    "country": "United States",
    "longitude": "-147.62197608655",
    "latitude": "64.9570858831622"
  },
  {
    "id": "90",
    "name": "St Elias Brewing Co",
    "brewery_type": "micro",
    "street": "434 Sharkathmi Ave",
    "city": "Soldotna",
    "state": "Alaska",
    "postal_code": "99669-7665",
    "website_url": "",
    "phone": "9072607837",
    "created_at": "2018-07-24 01:32:48.497989",
    "updated_at": "2018-08-23 23:21:08.664655",
    "country": "United States",
    "longitude": "-151.047229286693",
    "latitude": "60.4914867311424"
  },
  {
    "id": "91",
    "name": "Turnagain Brewing",
    "brewery_type": "planning",
    "street": "",
    "city": "Anchorage",
    "state": "Alaska",
    "postal_code": "99507-1226",
    "website_url": "",
    "phone": "9073011657",
    "created_at": "2018-07-24 01:32:48.511039",
    "updated_at": "2018-08-23 23:21:09.084778",
    "country": "United States",
    "longitude": "-149.8948523",
    "latitude": "61.2163129"
  },
  {
    "id": "52",
    "name": "Baleen Brewing Co.",
    "brewery_type": "planning",
    "street": "",
    "city": "Ketchikan",
    "state": "Alaska",
    "postal_code": "99901",
    "website_url": "",
    "phone": "9072207492",
    "created_at": "2018-07-24 01:32:47.924991",
    "updated_at": "2018-08-23 23:20:38.025406",
    "country": "United States",
    "longitude": "-131.6466819",
    "latitude": "55.3430696"
  },
  {
    "id": "56",
    "name": "Bleeding Heart Brewery",
    "brewery_type": "micro",
    "street": "1150 S Colony Way Ste 3 Pmb 618",
    "city": "Palmer",
    "state": "Alaska",
    "postal_code": "99645-6972",
    "website_url": "http://Facebook.com/BleedingHeartBrewery",
    "phone": "7609172417",
    "created_at": "2018-07-24 01:32:47.979349",
    "updated_at": "2018-08-11 21:35:44.971864",
    "country": "United States",
    "longitude": "",
    "latitude": ""
  },
  {
    "id": "83",
    "name": "QUAKE! Brewing Company, LLC",
    "brewery_type": "micro",
    "street": "1540 N Shoreline Dr",
    "city": "Wasilla",
    "state": "Alaska",
    "postal_code": "99654",
    "website_url": "http://www.quakebrewingcompany.com",
    "phone": "4048340997",
    "created_at": "2018-07-24 01:32:48.394065",
    "updated_at": "2018-08-11 21:35:45.990396",
    "country": "United States",
    "longitude": "",
    "latitude": ""
  },
  {
    "id": "55",
    "name": "Bearpaw River Brewing Co",
    "brewery_type": "micro",
    "street": "4605 E Palmer Wasilla Hwy",
    "city": "Wasilla",
    "state": "Alaska",
    "postal_code": "99654-7679",
    "website_url": "http://bearpawriverbrewing.com",
    "phone": "",
    "created_at": "2018-07-24 01:32:47.967298",
    "updated_at": "2018-08-23 23:20:40.743241",
    "country": "United States",
    "longitude": "-149.4127103",
    "latitude": "61.5752695"
  },
  {
    "id": "76",
    "name": "King Street Brewing Co",
    "brewery_type": "micro",
    "street": "9050 King Street",
    "city": "Anchorage",
    "state": "Alaska",
    "postal_code": "99515",
    "website_url": "http://www.kingstreetbrewing.com",
    "phone": "9073365464",
    "created_at": "2018-07-24 01:32:48.301213",
    "updated_at": "2018-08-23 23:20:57.179365",
    "country": "United States",
    "longitude": "-149.879076042937",
    "latitude": "61.1384893547315"
  },
  {
    "id": "54",
    "name": "Barnaby Brewing Company",
    "brewery_type": "micro",
    "street": "206 N Franklin St",
    "city": "Juneau",
    "state": "Alaska",
    "postal_code": "99801-1225",
    "website_url": "http://www.barnabybrew.com",
    "phone": "9074190916",
    "created_at": "2018-07-24 01:32:47.953677",
    "updated_at": "2018-08-23 23:20:39.859861",
    "country": "United States",
    "longitude": "-134.407726539973",
    "latitude": "58.3017758843016"
  },
  {
    "id": "47",
    "name": "49th State Brewing Co",
    "brewery_type": "brewpub",
    "street": "248 Parks Hwy 5 Mile",
    "city": "Healy",
    "state": "Alaska",
    "postal_code": "99743",
    "website_url": "",
    "phone": "",
    "created_at": "2018-07-24 01:32:47.858678",
    "updated_at": "2018-08-11 21:35:44.679447",
    "country": "United States",
    "longitude": "",
    "latitude": ""
  },
  {
    "id": "51",
    "name": "Arkose Brewery",
    "brewery_type": "micro",
    "street": "650 E Steel Loop",
    "city": "Palmer",
    "state": "Alaska",
    "postal_code": "99645-6689",
    "website_url": "http://www.arkosebrewery.com",
    "phone": "9077462337",
    "created_at": "2018-07-24 01:32:47.91104",
    "updated_at": "2018-08-11 21:35:44.816259",
    "country": "United States",
    "longitude": "",
    "latitude": ""
  },
  {
    "id": "53",
    "name": "Baranof Island Brewing Co",
    "brewery_type": "micro",
    "street": "1209 Sawmill Creek Rd Ste A",
    "city": "Sitka",
    "state": "Alaska",
    "postal_code": "99835-9759",
    "website_url": "http://www.baranofislandbrewing.com",
    "phone": "9077472739",
    "created_at": "2018-07-24 01:32:47.938574",
    "updated_at": "2018-08-11 21:35:44.879829",
    "country": "United States",
    "longitude": "",
    "latitude": ""
  },
  {
    "id": "59",
    "name": "Cynosure Brewing",
    "brewery_type": "micro",
    "street": "144 E Potter Dr Unit E",
    "city": "Anchorage",
    "state": "Alaska",
    "postal_code": "99518-1363",
    "website_url": "",
    "phone": "9075632966",
    "created_at": "2018-07-24 01:32:48.054935",
    "updated_at": "2018-08-11 21:35:45.165973",
    "country": "United States",
    "longitude": "",
    "latitude": ""
  },
  {
    "id": "60",
    "name": "Denali Brewing Company",
    "brewery_type": "micro",
    "street": "37083 Talkeetna Spur Rd",
    "city": "Talkeetna",
    "state": "Alaska",
    "postal_code": "99676",
    "website_url": "http://www.denalibrewing.com",
    "phone": "9077332536",
    "created_at": "2018-07-24 01:32:48.068937",
    "updated_at": "2018-08-11 21:35:45.194717",
    "country": "United States",
    "longitude": "",
    "latitude": ""
  },
  {
    "id": "63",
    "name": "Gakona Brewing Company",
    "brewery_type": "micro",
    "street": "Mile 0.5 Tok Cutoff Hwy",
    "city": "Gakona",
    "state": "Alaska",
    "postal_code": "99586-0336",
    "website_url": "",
    "phone": "",
    "created_at": "2018-07-24 01:32:48.121514",
    "updated_at": "2018-08-11 21:35:45.288255",
    "country": "United States",
    "longitude": "",
    "latitude": ""
  },
  {
    "id": "65",
    "name": "Glacier Brewhouse",
    "brewery_type": "brewpub",
    "street": "737 W 5th Ave Ste 110",
    "city": "Anchorage",
    "state": "Alaska",
    "postal_code": "99501-2129",
    "website_url": "http://www.glacierbrewhouse.com",
    "phone": "9072742739",
    "created_at": "2018-07-24 01:32:48.152378",
    "updated_at": "2018-08-11 21:35:45.348124",
    "country": "United States",
    "longitude": "",
    "latitude": ""
  },
  {
    "id": "66",
    "name": "Grace Ridge Brewing, Inc.",
    "brewery_type": "micro",
    "street": "3388 B St Suite 2",
    "city": "Homer",
    "state": "Alaska",
    "postal_code": "99603-7905",
    "website_url": "",
    "phone": "",
    "created_at": "2018-07-24 01:32:48.168751",
    "updated_at": "2018-08-11 21:35:45.387544",
    "country": "United States",
    "longitude": "",
    "latitude": ""
  },
  {
    "id": "69",
    "name": "Homer Brewing Co",
    "brewery_type": "micro",
    "street": "1411 Lake Shore Dr",
    "city": "Homer",
    "state": "Alaska",
    "postal_code": "99603-7945",
    "website_url": "",
    "phone": "",
    "created_at": "2018-07-24 01:32:48.209057",
    "updated_at": "2018-08-11 21:35:45.514526",
    "country": "United States",
    "longitude": "",
    "latitude": ""
  },
  {
    "id": "74",
    "name": "Kassik's Brewery",
    "brewery_type": "micro",
    "street": "47160 Spruce Haven St",
    "city": "Kenai",
    "state": "Alaska",
    "postal_code": "99611-9677",
    "website_url": "",
    "phone": "",
    "created_at": "2018-07-24 01:32:48.272729",
    "updated_at": "2018-08-11 21:35:45.692031",
    "country": "United States",
    "longitude": "",
    "latitude": ""
  },
  {
    "id": "82",
    "name": "Odd Man Rush",
    "brewery_type": "micro",
    "street": "10930 Mausel St Ste A1",
    "city": "Eagle River",
    "state": "Alaska",
    "postal_code": "99577-8095",
    "website_url": "http://www.oddmanrushbrewing.com",
    "phone": "9076962337",
    "created_at": "2018-07-24 01:32:48.376563",
    "updated_at": "2018-08-11 21:35:45.962203",
    "country": "United States",
    "longitude": "",
    "latitude": ""
  },
  {
    "id": "86",
    "name": "RoughWoods Inn",
    "brewery_type": "brewpub",
    "street": "623 North A St",
    "city": "Nenana",
    "state": "Alaska",
    "postal_code": "99760-9999",
    "website_url": "http://www.roughwoodsinn.biz",
    "phone": "9078325299",
    "created_at": "2018-07-24 01:32:48.439849",
    "updated_at": "2018-08-11 21:35:46.096716",
    "country": "United States",
    "longitude": "",
    "latitude": ""
  },
  {
    "id": "87",
    "name": "Seward Brewing",
    "brewery_type": "brewpub",
    "street": "139 4th Ave",
    "city": "Seward",
    "state": "Alaska",
    "postal_code": "99664",
    "website_url": "http://www.sewardbrewingcompany.com",
    "phone": "9074220337",
    "created_at": "2018-07-24 01:32:48.453956",
    "updated_at": "2018-08-11 21:35:46.13765",
    "country": "United States",
    "longitude": "",
    "latitude": ""
  },
  {
    "id": "89",
    "name": "Skagway Brewing Co",
    "brewery_type": "brewpub",
    "street": "641 Broadway St Ste 946",
    "city": "Skagway",
    "state": "Alaska",
    "postal_code": "99840-9800",
    "website_url": "http://www.skagwaybrewing.com",
    "phone": "9079832759",
    "created_at": "2018-07-24 01:32:48.483537",
    "updated_at": "2018-08-11 21:35:46.203003",
    "country": "United States",
    "longitude": "",
    "latitude": ""
  },
  {
    "id": "48",
    "name": "49th State Brewing Co - Anchorage",
    "brewery_type": "brewpub",
    "street": "717 W 3rd Ave",
    "city": "Anchorage",
    "state": "Alaska",
    "postal_code": "99501-2104",
    "website_url": "http://www.49statebrewing.com/",
    "phone": "9076832739",
    "created_at": "2018-07-24 01:32:47.871195",
    "updated_at": "2018-08-23 23:20:34.89855",
    "country": "United States",
    "longitude": "-149.895819630259",
    "latitude": "61.2197366"
  },
  {
    "id": "49",
    "name": "Alaskan Brewing Co.",
    "brewery_type": "regional",
    "street": "5429 Shaune Dr",
    "city": "Juneau",
    "state": "Alaska",
    "postal_code": "99801-9540",
    "website_url": "http://www.alaskanbeer.com",
    "phone": "9077805866",
    "created_at": "2018-07-24 01:32:47.883923",
    "updated_at": "2018-08-23 23:20:35.752739",
    "country": "United States",
    "longitude": "-134.491876286925",
    "latitude": "58.3568123068526"
  },
  {
    "id": "50",
    "name": "Anchorage Brewing Co",
    "brewery_type": "micro",
    "street": "148 W 91st Ave",
    "city": "Anchorage",
    "state": "Alaska",
    "postal_code": "99515-1901",
    "website_url": "http://www.anchoragebrewingcompany.com",
    "phone": "9073605104",
    "created_at": "2018-07-24 01:32:47.898122",
    "updated_at": "2018-08-23 23:20:36.630307",
    "country": "United States",
    "longitude": "-149.8893581",
    "latitude": "61.1385311"
  },
  {
    "id": "57",
    "name": "Broken Tooth Brewing Co",
    "brewery_type": "brewpub",
    "street": "2021 Spar Ave",
    "city": "Anchorage",
    "state": "Alaska",
    "postal_code": "99501-1815",
    "website_url": "",
    "phone": "9072784999",
    "created_at": "2018-07-24 01:32:47.992339",
    "updated_at": "2018-08-23 23:20:42.576392",
    "country": "United States",
    "longitude": "-149.843763795249",
    "latitude": "61.2225517048454"
  },
  {
    "id": "58",
    "name": "Cooper Landing Brewing Company, LLC.",
    "brewery_type": "micro",
    "street": "",
    "city": "Cooper Landing",
    "state": "Alaska",
    "postal_code": "99572",
    "website_url": "http://www.cooperlandingbrewing.com",
    "phone": "9072236101",
    "created_at": "2018-07-24 01:32:48.04007",
    "updated_at": "2018-08-23 23:20:42.968597",
    "country": "United States",
    "longitude": "-149.847849500835",
    "latitude": "60.4952185"
  },
  {
    "id": "61",
    "name": "Devil's Club Brewing",
    "brewery_type": "brewpub",
    "street": "100 N Franklin St",
    "city": "Juneau",
    "state": "Alaska",
    "postal_code": "99801-1223",
    "website_url": "http://www.devilsclubbrewing.com",
    "phone": "9077232337",
    "created_at": "2018-07-24 01:32:48.08654",
    "updated_at": "2018-08-23 23:20:45.517708",
    "country": "United States",
    "longitude": "-134.406956",
    "latitude": "58.301309"
  },
  {
    "id": "62",
    "name": "Faults Brewing",
    "brewery_type": "planning",
    "street": "",
    "city": "Anchorage",
    "state": "Alaska",
    "postal_code": "99509-0312",
    "website_url": "",
    "phone": "9073019922",
    "created_at": "2018-07-24 01:32:48.105979",
    "updated_at": "2018-08-23 23:20:45.951501",
    "country": "United States",
    "longitude": "-149.8948523",
    "latitude": "61.2163129"
  },
  {
    "id": "64",
    "name": "Girdwood Brewing Company",
    "brewery_type": "micro",
    "street": "2700 Alyeska Highway",
    "city": "Girdwood",
    "state": "Alaska",
    "postal_code": "99587-0058",
    "website_url": "http://www.girdwoodbrewing.com",
    "phone": "907783",
    "created_at": "2018-07-24 01:32:48.135524",
    "updated_at": "2018-08-23 23:20:47.669601",
    "country": "United States",
    "longitude": "-149.1540907",
    "latitude": "60.9578421"
  },
  {
    "id": "67",
    "name": "Growler Bay Brewing Co",
    "brewery_type": "planning",
    "street": "",
    "city": "Valdez",
    "state": "Alaska",
    "postal_code": "99686-3716",
    "website_url": "",
    "phone": "9072555191",
    "created_at": "2018-07-24 01:32:48.182257",
    "updated_at": "2018-08-23 23:20:49.912963",
    "country": "United States",
    "longitude": "-146.3493638",
    "latitude": "61.1299396"
  },
  {
    "id": "68",
    "name": "Haines Brewing Co",
    "brewery_type": "micro",
    "street": "327 Main St",
    "city": "Haines",
    "state": "Alaska",
    "postal_code": "99827",
    "website_url": "http://www.hainesbrewing.com",
    "phone": "9077663823",
    "created_at": "2018-07-24 01:32:48.19664",
    "updated_at": "2018-08-23 23:20:50.75503",
    "country": "United States",
    "longitude": "-135.4551927",
    "latitude": "59.2357624"
  },
  {
    "id": "70",
    "name": "HooDoo Brewing Co",
    "brewery_type": "micro",
    "street": "1951 Fox Ave",
    "city": "Fairbanks",
    "state": "Alaska",
    "postal_code": "99701-2701",
    "website_url": "http://www.hoodoobrew.com",
    "phone": "9074592337",
    "created_at": "2018-07-24 01:32:48.221957",
    "updated_at": "2018-08-23 23:20:52.424551",
    "country": "United States",
    "longitude": "-147.759819939718",
    "latitude": "64.8485550111944"
  },
  {
    "id": "71",
    "name": "Humpy's Great Alaskan Alehouse",
    "brewery_type": "contract",
    "street": "610 W 6th Ave",
    "city": "Anchorage",
    "state": "Alaska",
    "postal_code": "99501-2225",
    "website_url": "http://www.humpysalaska.com",
    "phone": "9072762337",
    "created_at": "2018-07-24 01:32:48.234705",
    "updated_at": "2018-08-23 23:20:53.300787",
    "country": "United States",
    "longitude": "-149.893892836775",
    "latitude": "61.2165020023101"
  },
  {
    "id": "72",
    "name": "Icy Strait Brewery",
    "brewery_type": "micro",
    "street": "286 Front St",
    "city": "Hoonah",
    "state": "Alaska",
    "postal_code": "99829",
    "website_url": "",
    "phone": "9079576260",
    "created_at": "2018-07-24 01:32:48.248297",
    "updated_at": "2018-08-23 23:20:54.19168",
    "country": "United States",
    "longitude": "-135.446488673469",
    "latitude": "58.110318744898"
  },
  {
    "id": "73",
    "name": "Inside Passage Brewing Company, LLC",
    "brewery_type": "planning",
    "street": "",
    "city": "Ketchikan",
    "state": "Alaska",
    "postal_code": "99901-6502",
    "website_url": "",
    "phone": "5133240762",
    "created_at": "2018-07-24 01:32:48.261071",
    "updated_at": "2018-08-23 23:20:54.588344",
    "country": "United States",
    "longitude": "-131.6466819",
    "latitude": "55.3430696"
  },
  {
    "id": "75",
    "name": "Kenai River Brewing Co",
    "brewery_type": "brewpub",
    "street": "308 Homestead Ln",
    "city": "Soldotna",
    "state": "Alaska",
    "postal_code": "99669-8010",
    "website_url": "http://www.kenairiverbrewing.com",
    "phone": "9072622337",
    "created_at": "2018-07-24 01:32:48.287046",
    "updated_at": "2018-08-23 23:20:56.247856",
    "country": "United States",
    "longitude": "-151.0561141",
    "latitude": "60.4850753"
  },
  {
    "id": "77",
    "name": "Klondike Brewing Company",
    "brewery_type": "brewpub",
    "street": "365 2nd Ave",
    "city": "Skagway",
    "state": "Alaska",
    "postal_code": "99840",
    "website_url": "http://www.klondikebeer.com",
    "phone": "9079832778",
    "created_at": "2018-07-24 01:32:48.315725",
    "updated_at": "2018-08-23 23:20:58.035832",
    "country": "United States",
    "longitude": "-135.318872070707",
    "latitude": "59.4538574343434"
  },
  {
    "id": "78",
    "name": "Kodiak Island Brewing Co, LLC",
    "brewery_type": "micro",
    "street": "117 Lower Mill Bay Rd",
    "city": "Kodiak",
    "state": "Alaska",
    "postal_code": "99615-6580",
    "website_url": "http://www.kodiakbrewery.com",
    "phone": "9074862537",
    "created_at": "2018-07-24 01:32:48.329911",
    "updated_at": "2018-08-23 23:20:58.86045",
    "country": "United States",
    "longitude": "-152.40715497121",
    "latitude": "57.7900825595856"
  },
  {
    "id": "79",
    "name": "Last Frontier Brewing Company",
    "brewery_type": "brewpub",
    "street": "238 N Boundary St",
    "city": "Wasilla",
    "state": "Alaska",
    "postal_code": "99654-7127",
    "website_url": "",
    "phone": "9073577200",
    "created_at": "2018-07-24 01:32:48.342415",
    "updated_at": "2018-08-23 23:20:59.705267",
    "country": "United States",
    "longitude": "-149.439553425176",
    "latitude": "61.5814829990806"
  },
  {
    "id": "80",
    "name": "Midnight Sun Brewing Co",
    "brewery_type": "micro",
    "street": "8111 Dimond Hook Dr",
    "city": "Anchorage",
    "state": "Alaska",
    "postal_code": "99507-3144",
    "website_url": "http://www.midnightsunbrewing.com",
    "phone": "9073441179",
    "created_at": "2018-07-24 01:32:48.35421",
    "updated_at": "2018-08-23 23:21:00.537479",
    "country": "United States",
    "longitude": "-149.8445465",
    "latitude": "61.1471249"
  },
  {
    "id": "81",
    "name": "Midnite Mine Brewpub",
    "brewery_type": "planning",
    "street": "",
    "city": "Fairbanks",
    "state": "Alaska",
    "postal_code": "99701-4838",
    "website_url": "",
    "phone": "9073784067",
    "created_at": "2018-07-24 01:32:48.365397",
    "updated_at": "2018-08-23 23:21:00.948738",
    "country": "United States",
    "longitude": "-147.716675",
    "latitude": "64.837845"
  },
  {
    "id": "84",
    "name": "Resolution Brewing Company",
    "brewery_type": "brewpub",
    "street": "3024 Mountain View Dr Ste 105",
    "city": "Anchorage",
    "state": "Alaska",
    "postal_code": "99501-3141",
    "website_url": "http://www.resolutionbeer.com",
    "phone": "9073304523",
    "created_at": "2018-07-24 01:32:48.407889",
    "updated_at": "2018-08-23 23:21:03.575856",
    "country": "United States",
    "longitude": "-149.823091047009",
    "latitude": "61.2199788932932"
  },
  {
    "id": "85",
    "name": "Resolution Brewing Compnay, LLC",
    "brewery_type": "micro",
    "street": "3024 Mountain View Drive",
    "city": "Anchorage",
    "state": "Alaska",
    "postal_code": "99501",
    "website_url": "http://www.resolutionbeer.com",
    "phone": "9077485297",
    "created_at": "2018-07-24 01:32:48.424321",
    "updated_at": "2018-08-23 23:21:04.418639",
    "country": "United States",
    "longitude": "-149.823091047009",
    "latitude": "61.2199788932932"
  },
  {
    "id": "88",
    "name": "Silver Gulch Brewing Co",
    "brewery_type": "micro",
    "street": "2195 Old Steese Highway",
    "city": "Fox",
    "state": "Alaska",
    "postal_code": "99712",
    "website_url": "http://www.silvergulch.com",
    "phone": "9074522739",
    "created_at": "2018-07-24 01:32:48.467818",
    "updated_at": "2018-08-23 23:21:07.021603",
    "country": "United States",
    "longitude": "-147.62197608655",
    "latitude": "64.9570858831622"
  },
  {
    "id": "90",
    "name": "St Elias Brewing Co",
    "brewery_type": "micro",
    "street": "434 Sharkathmi Ave",
    "city": "Soldotna",
    "state": "Alaska",
    "postal_code": "99669-7665",
    "website_url": "",
    "phone": "9072607837",
    "created_at": "2018-07-24 01:32:48.497989",
    "updated_at": "2018-08-23 23:21:08.664655",
    "country": "United States",
    "longitude": "-151.047229286693",
    "latitude": "60.4914867311424"
  },
  {
    "id": "91",
    "name": "Turnagain Brewing",
    "brewery_type": "planning",
    "street": "",
    "city": "Anchorage",
    "state": "Alaska",
    "postal_code": "99507-1226",
    "website_url": "",
    "phone": "9073011657",
    "created_at": "2018-07-24 01:32:48.511039",
    "updated_at": "2018-08-23 23:21:09.084778",
    "country": "United States",
    "longitude": "-149.8948523",
    "latitude": "61.2163129"
  },
  {
    "id": "52",
    "name": "Baleen Brewing Co.",
    "brewery_type": "planning",
    "street": "",
    "city": "Ketchikan",
    "state": "Alaska",
    "postal_code": "99901",
    "website_url": "",
    "phone": "9072207492",
    "created_at": "2018-07-24 01:32:47.924991",
    "updated_at": "2018-08-23 23:20:38.025406",
    "country": "United States",
    "longitude": "-131.6466819",
    "latitude": "55.3430696"
  },
  {
    "id": "56",
    "name": "Bleeding Heart Brewery",
    "brewery_type": "micro",
    "street": "1150 S Colony Way Ste 3 Pmb 618",
    "city": "Palmer",
    "state": "Alaska",
    "postal_code": "99645-6972",
    "website_url": "http://Facebook.com/BleedingHeartBrewery",
    "phone": "7609172417",
    "created_at": "2018-07-24 01:32:47.979349",
    "updated_at": "2018-08-11 21:35:44.971864",
    "country": "United States",
    "longitude": "",
    "latitude": ""
  },
  {
    "id": "83",
    "name": "QUAKE! Brewing Company, LLC",
    "brewery_type": "micro",
    "street": "1540 N Shoreline Dr",
    "city": "Wasilla",
    "state": "Alaska",
    "postal_code": "99654",
    "website_url": "http://www.quakebrewingcompany.com",
    "phone": "4048340997",
    "created_at": "2018-07-24 01:32:48.394065",
    "updated_at": "2018-08-11 21:35:45.990396",
    "country": "United States",
    "longitude": "",
    "latitude": ""
  }
]