[
  {
    "id": "225",
    "name": "Brick Oven Pizza Co / Brick & Forge Brewing",
    "brewery_type": "brewpub",
    "street": "2410 Linwood Dr",
    "city": "Paragould",
    "state": "Arkansas",
    "postal_code": "72450-6122",
    "website_url": "http://www.brickovenpizzacompany.com",
    "phone": "8702364200",
    "created_at": "2018-07-24 01:32:50.376107",
    "updated_at": "2018-08-23 23:23:05.438297",
    "country": "United States",
    "longitude": "-90.5204797204622",
    "latitude": "36.0316358142169"
  },
  {
    "id": "235",
    "name": "Diamond Bear Brewing Co",
    "brewery_type": "micro",
    "street": "600 N Broadway St",
    "city": "North Little Rock",
    "state": "Arkansas",
    "postal_code": "72114-5381",
    "website_url": "http://www.diamondbear.com",
    "phone": "5017082739",
    "created_at": "2018-07-24 01:32:50.50344",
    "updated_at": "2018-08-23 23:23:14.931963",
    "country": "United States",
    "longitude": "-92.2726892120821",
    "latitude": "34.7594277548278"
  },
  {
    "id": "247",
    "name": "Lost Forty Brewing",
    "brewery_type": "micro",
    "street": "501 Byrd St",
    "city": "Little Rock",
    "state": "Arkansas",
    "postal_code": "72202",
    "website_url": "http://www.lost40brewing.com/",
    "phone": "5013197275",
    "created_at": "2018-07-24 01:32:50.710061",
    "updated_at": "2018-08-23 23:23:24.018254",
    "country": "United States",
    "longitude": "-92.260019",
    "latitude": "34.742845"
  },
  {
    "id": "253",
    "name": "Rapp's Barren Brewing Company",
    "brewery_type": "micro",
    "street": "1343 E 9th St",
    "city": "Mountain Home",
    "state": "Arkansas",
    "postal_code": "72653-5050",
    "website_url": "http://www.rappsbarrenbrewing.com",
    "phone": "8704247288",
    "created_at": "2018-07-24 01:32:50.788018",
    "updated_at": "2018-08-23 23:23:29.428834",
    "country": "United States",
    "longitude": "-92.3599724",
    "latitude": "36.3326432"
  },
  {
    "id": "264",
    "name": "Whistleing Springs Brewing Company / Dark Hills Brewery",
    "brewery_type": "planning",
    "street": "",
    "city": "Lowell",
    "state": "Arkansas",
    "postal_code": "72745-9294",
    "website_url": "http://www.darkhillsbrew.com",
    "phone": "4792836365",
    "created_at": "2018-07-24 01:32:50.920707",
    "updated_at": "2018-08-23 23:23:40.468988",
    "country": "United States",
    "longitude": "-94.1307587",
    "latitude": "36.2553543"
  },
  {
    "id": "225",
    "name": "Brick Oven Pizza Co / Brick & Forge Brewing",
    "brewery_type": "brewpub",
    "street": "2410 Linwood Dr",
    "city": "Paragould",
    "state": "Arkansas",
    "postal_code": "72450-6122",
    "website_url": "http://www.brickovenpizzacompany.com",
    "phone": "8702364200",
    "created_at": "2018-07-24 01:32:50.376107",
    "updated_at": "2018-08-23 23:23:05.438297",
    "country": "United States",
    "longitude": "-90.5204797204622",
    "latitude": "36.0316358142169"
  },
  {
    "id": "235",
    "name": "Diamond Bear Brewing Co",
    "brewery_type": "micro",
    "street": "600 N Broadway St",
    "city": "North Little Rock",
    "state": "Arkansas",
    "postal_code": "72114-5381",
    "website_url": "http://www.diamondbear.com",
    "phone": "5017082739",
    "created_at": "2018-07-24 01:32:50.50344",
    "updated_at": "2018-08-23 23:23:14.931963",
    "country": "United States",
    "longitude": "-92.2726892120821",
    "latitude": "34.7594277548278"
  },
  {
    "id": "247",
    "name": "Lost Forty Brewing",
    "brewery_type": "micro",
    "street": "501 Byrd St",
    "city": "Little Rock",
    "state": "Arkansas",
    "postal_code": "72202",
    "website_url": "http://www.lost40brewing.com/",
    "phone": "5013197275",
    "created_at": "2018-07-24 01:32:50.710061",
    "updated_at": "2018-08-23 23:23:24.018254",
    "country": "United States",
    "longitude": "-92.260019",
    "latitude": "34.742845"
  },
  {
    "id": "253",
    "name": "Rapp's Barren Brewing Company",
    "brewery_type": "micro",
    "street": "1343 E 9th St",
    "city": "Mountain Home",
    "state": "Arkansas",
    "postal_code": "72653-5050",
    "website_url": "http://www.rappsbarrenbrewing.com",
    "phone": "8704247288",
    "created_at": "2018-07-24 01:32:50.788018",
    "updated_at": "2018-08-23 23:23:29.428834",
    "country": "United States",
    "longitude": "-92.3599724",
    "latitude": "36.3326432"
  },
  {
    "id": "264",
    "name": "Whistleing Springs Brewing Company / Dark Hills Brewery",
    "brewery_type": "planning",
    "street": "",
    "city": "Lowell",
    "state": "Arkansas",
    "postal_code": "72745-9294",
    "website_url": "http://www.darkhillsbrew.com",
    "phone": "4792836365",
    "created_at": "2018-07-24 01:32:50.920707",
    "updated_at": "2018-08-23 23:23:40.468988",
    "country": "United States",
    "longitude": "-94.1307587",
    "latitude": "36.2553543"
  },
  {
    "id": "254",
    "name": "Rebel Kettle Brewing Company",
    "brewery_type": "brewpub",
    "street": "822 E 6th St",
    "city": "Little Rock",
    "state": "Arkansas",
    "postal_code": "72202-2606",
    "website_url": "http://www.rebelkettle.com",
    "phone": "5013742791",
    "created_at": "2018-07-24 01:32:50.799604",
    "updated_at": "2018-08-23 23:23:30.847873",
    "country": "United States",
    "longitude": "-92.2620919591837",
    "latitude": "34.7421112653061"
  },
  {
    "id": "222",
    "name": "Bike Rack Brewing Co",
    "brewery_type": "micro",
    "street": "410 SW A St Ste 6",
    "city": "Bentonville",
    "state": "Arkansas",
    "postal_code": "72712-5839",
    "website_url": "http://www.bikerackbrewing.com",
    "phone": "4792686648",
    "created_at": "2018-07-24 01:32:50.340627",
    "updated_at": "2018-08-11 21:35:51.150493",
    "country": "United States",
    "longitude": "",
    "latitude": ""
  },
  {
    "id": "226",
    "name": "Brick Oven Pizza Co / Brick & Forge Brewing",
    "brewery_type": "brewpub",
    "street": "814 US-62",
    "city": "Harrison",
    "state": "Arkansas",
    "postal_code": "72601",
    "website_url": "",
    "phone": "8702364200",
    "created_at": "2018-07-24 01:32:50.387872",
    "updated_at": "2018-08-11 21:35:51.288806",
    "country": "United States",
    "longitude": "",
    "latitude": ""
  },
  {
    "id": "227",
    "name": "Bubba Brew's Brewing Company",
    "brewery_type": "micro",
    "street": "8091 Airport Rd",
    "city": "Bonnerdale",
    "state": "Arkansas",
    "postal_code": "71933-6648",
    "website_url": "http://www.bubbabrewsbrewingco.com",
    "phone": "8703564001",
    "created_at": "2018-07-24 01:32:50.39925",
    "updated_at": "2018-08-11 21:35:51.319875",
    "country": "United States",
    "longitude": "",
    "latitude": ""
  },
  {
    "id": "230",
    "name": "Core Brewing - Hot Springs",
    "brewery_type": "brewpub",
    "street": "833 Central Ave",
    "city": "Hot Springs National Park",
    "state": "Arkansas",
    "postal_code": "71901",
    "website_url": "",
    "phone": "4793068898",
    "created_at": "2018-07-24 01:32:50.435378",
    "updated_at": "2018-08-11 21:35:51.428863",
    "country": "United States",
    "longitude": "",
    "latitude": ""
  },
  {
    "id": "231",
    "name": "Core Brewing - SoMa",
    "brewery_type": "brewpub",
    "street": "1214 S. Main St",
    "city": "Little Rock",
    "state": "Arkansas",
    "postal_code": "72202",
    "website_url": "",
    "phone": "4793068898",
    "created_at": "2018-07-24 01:32:50.447777",
    "updated_at": "2018-08-11 21:35:51.46182",
    "country": "United States",
    "longitude": "",
    "latitude": ""
  },
  {
    "id": "232",
    "name": "Core Brewing & Distilling Co",
    "brewery_type": "micro",
    "street": "2470 N Lowell Rd Ste A3",
    "city": "Springdale",
    "state": "Arkansas",
    "postal_code": "72764-1819",
    "website_url": "http://www.corebeer.com",
    "phone": "4793068898",
    "created_at": "2018-07-24 01:32:50.464988",
    "updated_at": "2018-08-11 21:35:51.495272",
    "country": "United States",
    "longitude": "",
    "latitude": ""
  },
  {
    "id": "220",
    "name": "Apple Blossom Brewing Co",
    "brewery_type": "brewpub",
    "street": "1550 E Zion Rd",
    "city": "Fayetteville",
    "state": "Arkansas",
    "postal_code": "72703-5017",
    "website_url": "http://www.appleblossombrewing.com",
    "phone": "4792874344",
    "created_at": "2018-07-24 01:32:50.317764",
    "updated_at": "2018-08-23 23:23:00.160354",
    "country": "United States",
    "longitude": "-94.1372796",
    "latitude": "36.1297079"
  },
  {
    "id": "221",
    "name": "Bentonville Brewing Co",
    "brewery_type": "micro",
    "street": "1700 S 1st St",
    "city": "Rogers",
    "state": "Arkansas",
    "postal_code": "72756-5923",
    "website_url": "http://www.bentonvillebrewing.com",
    "phone": "4799037330",
    "created_at": "2018-07-24 01:32:50.329268",
    "updated_at": "2018-08-23 23:23:01.046688",
    "country": "United States",
    "longitude": "-94.1178372",
    "latitude": "36.3168272"
  },
  {
    "id": "223",
    "name": "Bike Rack Brewing Co - 8th Street Market",
    "brewery_type": "micro",
    "street": "801 SE 8th St",
    "city": "Bentonville",
    "state": "Arkansas",
    "postal_code": "72712-6409",
    "website_url": "http://www.bikerackbrewing.com",
    "phone": "4793196593",
    "created_at": "2018-07-24 01:32:50.352505",
    "updated_at": "2018-08-23 23:23:02.926288",
    "country": "United States",
    "longitude": "-94.200584",
    "latitude": "36.364069"
  },
  {
    "id": "224",
    "name": "Blue Canoe Brewing Co",
    "brewery_type": "micro",
    "street": "1637 E. 15th Street",
    "city": "Little Rock",
    "state": "Arkansas",
    "postal_code": "72202",
    "website_url": "http://www.bluecanoebrewco.com",
    "phone": "5014929378",
    "created_at": "2018-07-24 01:32:50.3644",
    "updated_at": "2018-08-23 23:23:04.620242",
    "country": "United States",
    "longitude": "-92.2536680720849",
    "latitude": "34.73235495962"
  },
  {
    "id": "228",
    "name": "Buffalo Brewing Company At The Water Buffalo",
    "brewery_type": "micro",
    "street": "106 S Rodney Parham Rd",
    "city": "Little Rock",
    "state": "Arkansas",
    "postal_code": "72205",
    "website_url": "http://www.thewaterbuffalo.com",
    "phone": "5012311062",
    "created_at": "2018-07-24 01:32:50.410785",
    "updated_at": "2018-08-23 23:23:08.563039",
    "country": "United States",
    "longitude": "-92.366648",
    "latitude": "34.752616"
  },
  {
    "id": "229",
    "name": "Columbus House Brewery",
    "brewery_type": "micro",
    "street": "701 W North St",
    "city": "Fayetteville",
    "state": "Arkansas",
    "postal_code": "72701-1865",
    "website_url": "",
    "phone": "4799353752",
    "created_at": "2018-07-24 01:32:50.422848",
    "updated_at": "2018-08-23 23:23:09.381943",
    "country": "United States",
    "longitude": "-94.1688685443672",
    "latitude": "36.0771652"
  },
  {
    "id": "233",
    "name": "Crisis Brewing LLC",
    "brewery_type": "micro",
    "street": "210 S Archibald Yell Blvd",
    "city": "Fayetteville",
    "state": "Arkansas",
    "postal_code": "72701-4459",
    "website_url": "http://www.crisisbrew.com",
    "phone": "4795822337",
    "created_at": "2018-07-24 01:32:50.4782",
    "updated_at": "2018-08-23 23:23:12.975362",
    "country": "United States",
    "longitude": "-94.1608753945713",
    "latitude": "36.0595970427386"
  },
  {
    "id": "234",
    "name": "Damgoode Pies",
    "brewery_type": "brewpub",
    "street": "500 President Clinton Ave",
    "city": "Little Rock",
    "state": "Arkansas",
    "postal_code": "72201-1756",
    "website_url": "http://www.damgoodepies.com",
    "phone": "5016642239",
    "created_at": "2018-07-24 01:32:50.49069",
    "updated_at": "2018-08-23 23:23:13.798756",
    "country": "United States",
    "longitude": "-92.2653101",
    "latitude": "34.7475388"
  },
  {
    "id": "237",
    "name": "Flyway Brewing Co",
    "brewery_type": "brewpub",
    "street": "314 Maple St",
    "city": "North Little Rock",
    "state": "Arkansas",
    "postal_code": "72114-5334",
    "website_url": "",
    "phone": "5018123192",
    "created_at": "2018-07-24 01:32:50.527961",
    "updated_at": "2018-08-11 21:35:51.694465",
    "country": "United States",
    "longitude": "",
    "latitude": ""
  },
  {
    "id": "240",
    "name": "Foster's Pint & Plate",
    "brewery_type": "brewpub",
    "street": "2001 S Bellview Rd # 2",
    "city": "Rogers",
    "state": "Arkansas",
    "postal_code": "72758-4050",
    "website_url": "http://www.fosterspintandplate.com",
    "phone": "",
    "created_at": "2018-07-24 01:32:50.566777",
    "updated_at": "2018-08-11 21:35:51.795711",
    "country": "United States",
    "longitude": "",
    "latitude": ""
  },
  {
    "id": "242",
    "name": "Gravity Brew Works",
    "brewery_type": "micro",
    "street": "11512 Hwy 14 E",
    "city": "Big Flat",
    "state": "Arkansas",
    "postal_code": "72617",
    "website_url": "http://www.gravitybrewworks.com",
    "phone": "8704482077",
    "created_at": "2018-07-24 01:32:50.59175",
    "updated_at": "2018-08-11 21:35:51.874849",
    "country": "United States",
    "longitude": "",
    "latitude": ""
  },
  {
    "id": "251",
    "name": "Prestonrose Farm and Brewing Co.",
    "brewery_type": "brewpub",
    "street": "201 Saint Louis Valley Rd",
    "city": "Paris",
    "state": "Arkansas",
    "postal_code": "72855-5853",
    "website_url": "http://prestonrose.squarespace.com",
    "phone": "7075025544",
    "created_at": "2018-07-24 01:32:50.760873",
    "updated_at": "2018-08-11 21:35:52.193876",
    "country": "United States",
    "longitude": "",
    "latitude": ""
  },
  {
    "id": "256",
    "name": "Rendezvous Junction Brewing Company",
    "brewery_type": "micro",
    "street": "2001 S Bellview Rd Ste 2",
    "city": "Rogers",
    "state": "Arkansas",
    "postal_code": "72758-4050",
    "website_url": "http://www.rendezvousjunction.com",
    "phone": "4793817501",
    "created_at": "2018-07-24 01:32:50.823534",
    "updated_at": "2018-08-11 21:35:52.341612",
    "country": "United States",
    "longitude": "",
    "latitude": ""
  },
  {
    "id": "257",
    "name": "Saddlebock Brewery",
    "brewery_type": "micro",
    "street": "16600 Saddlebock Lane",
    "city": "Springdale",
    "state": "Arkansas",
    "postal_code": "72764-7582",
    "website_url": "http://www.saddlebock.com",
    "phone": "4794221797",
    "created_at": "2018-07-24 01:32:50.835511",
    "updated_at": "2018-08-11 21:35:52.370581",
    "country": "United States",
    "longitude": "",
    "latitude": ""
  },
  {
    "id": "261",
    "name": "Superior Bathhouse Brewery",
    "brewery_type": "brewpub",
    "street": "329 Central Ave",
    "city": "Hot Springs National Park",
    "state": "Arkansas",
    "postal_code": "71901-3525",
    "website_url": "http://www.superiorbathhouse.com",
    "phone": "5016242337",
    "created_at": "2018-07-24 01:32:50.88326",
    "updated_at": "2018-08-11 21:35:52.500612",
    "country": "United States",
    "longitude": "",
    "latitude": ""
  },
  {
    "id": "236",
    "name": "Fayetteville Brewing Company",
    "brewery_type": "planning",
    "street": "",
    "city": "Fayetteville",
    "state": "Arkansas",
    "postal_code": "72704-7402",
    "website_url": "http://www.fayettebrew.com",
    "phone": "4792631905",
    "created_at": "2018-07-24 01:32:50.515652",
    "updated_at": "2018-08-23 23:23:15.350378",
    "country": "United States",
    "longitude": "-94.1574328",
    "latitude": "36.0625843"
  },
  {
    "id": "238",
    "name": "Fort Smith Brewing Company",
    "brewery_type": "micro",
    "street": "7500 Fort Chaffee Blvd",
    "city": "Fort Smith",
    "state": "Arkansas",
    "postal_code": "72916-6086",
    "website_url": "http://www.fsbrewco.com",
    "phone": "4792423722",
    "created_at": "2018-07-24 01:32:50.540982",
    "updated_at": "2018-08-23 23:23:17.173381",
    "country": "United States",
    "longitude": "-94.298483",
    "latitude": "35.310777"
  },
  {
    "id": "239",
    "name": "Fossil Cove Brewing Co",
    "brewery_type": "brewpub",
    "street": "1946 N Birch Ave",
    "city": "Fayetteville",
    "state": "Arkansas",
    "postal_code": "72703-2408",
    "website_url": "http://www.fossilcovebrewing.com",
    "phone": "4796444601",
    "created_at": "2018-07-24 01:32:50.553945",
    "updated_at": "2018-08-23 23:23:18.111247",
    "country": "United States",
    "longitude": "-94.1647828743272",
    "latitude": "36.0879053"
  },
  {
    "id": "241",
    "name": "Gotahold Brewing Company",
    "brewery_type": "planning",
    "street": "",
    "city": "Eureka Springs",
    "state": "Arkansas",
    "postal_code": "72632",
    "website_url": "",
    "phone": "8023569163",
    "created_at": "2018-07-24 01:32:50.579824",
    "updated_at": "2018-08-23 23:23:19.487925",
    "country": "United States",
    "longitude": "-93.7392419",
    "latitude": "36.4000796"
  },
  {
    "id": "243",
    "name": "Hawk Moth Brewing Co",
    "brewery_type": "planning",
    "street": "",
    "city": "rogers",
    "state": "Arkansas",
    "postal_code": "72756",
    "website_url": "",
    "phone": "4796164800",
    "created_at": "2018-07-24 01:32:50.60325",
    "updated_at": "2018-08-23 23:23:20.413679",
    "country": "United States",
    "longitude": "-94.1185366",
    "latitude": "36.3320197"
  },
  {
    "id": "244",
    "name": "Hog Haus Brewing Co",
    "brewery_type": "brewpub",
    "street": "430 W Dickson St",
    "city": "Fayetteville",
    "state": "Arkansas",
    "postal_code": "72701-5107",
    "website_url": "http://www.hoghaus.com",
    "phone": "4792833516",
    "created_at": "2018-07-24 01:32:50.614245",
    "updated_at": "2018-08-23 23:23:21.305565",
    "country": "United States",
    "longitude": "-94.1652437133366",
    "latitude": "36.0666309"
  },
  {
    "id": "245",
    "name": "JJs Brewing Company",
    "brewery_type": "brewpub",
    "street": "3615 n steele blvd",
    "city": "fayetteville",
    "state": "Arkansas",
    "postal_code": "72703",
    "website_url": "http://www.thejbgb.com/",
    "phone": "4792632562",
    "created_at": "2018-07-24 01:32:50.627014",
    "updated_at": "2018-08-23 23:23:22.201413",
    "country": "United States",
    "longitude": "-94.1571434160088",
    "latitude": "36.11719055"
  },
  {
    "id": "246",
    "name": "Lost 40 brewing",
    "brewery_type": "micro",
    "street": "510 McLean St",
    "city": "Little Rock",
    "state": "Arkansas",
    "postal_code": "72202-2660",
    "website_url": "",
    "phone": "5015545557",
    "created_at": "2018-07-24 01:32:50.697512",
    "updated_at": "2018-08-23 23:23:23.1096",
    "country": "United States",
    "longitude": "-92.25901",
    "latitude": "34.7426855790517"
  },
  {
    "id": "249",
    "name": "Norfork Brewing Company",
    "brewery_type": "micro",
    "street": "1237 River Ridge Rd",
    "city": "Norfork",
    "state": "Arkansas",
    "postal_code": "72658-9630",
    "website_url": "http://www.nfbrew.com",
    "phone": "9187066082",
    "created_at": "2018-07-24 01:32:50.736165",
    "updated_at": "2018-08-23 23:23:25.810635",
    "country": "United States",
    "longitude": "-92.2711893",
    "latitude": "36.2245472"
  },
  {
    "id": "250",
    "name": "Ozark Beer Company",
    "brewery_type": "micro",
    "street": "109 N Arkansas St",
    "city": "Rogers",
    "state": "Arkansas",
    "postal_code": "72756-6601",
    "website_url": "http://www.ozarkbeercompany.com",
    "phone": "4796362337",
    "created_at": "2018-07-24 01:32:50.749",
    "updated_at": "2018-08-23 23:23:26.707749",
    "country": "United States",
    "longitude": "-94.1147203",
    "latitude": "36.3335034"
  },
  {
    "id": "252",
    "name": "Puritan Brew Company",
    "brewery_type": "contract",
    "street": "205 W Dickson St",
    "city": "Fayetteville",
    "state": "Arkansas",
    "postal_code": "72701-5222",
    "website_url": "http://www.puritanbrewcompany.com",
    "phone": "4793012365",
    "created_at": "2018-07-24 01:32:50.775451",
    "updated_at": "2018-08-23 23:23:28.528977",
    "country": "United States",
    "longitude": "-94.1620702",
    "latitude": "36.066188"
  },
  {
    "id": "255",
    "name": "Refined Ale Brewery",
    "brewery_type": "micro",
    "street": "2221 S Cedar St",
    "city": "Little Rock",
    "state": "Arkansas",
    "postal_code": "72204-5452",
    "website_url": "http://www.refinedale.com",
    "phone": "5012800556",
    "created_at": "2018-07-24 01:32:50.811767",
    "updated_at": "2018-08-23 23:23:32.040411",
    "country": "United States",
    "longitude": "-92.3184696976744",
    "latitude": "34.7308344651163"
  },
  {
    "id": "258",
    "name": "Slate Rock Brewing Company",
    "brewery_type": "micro",
    "street": "113 S Main St",
    "city": "Amity",
    "state": "Arkansas",
    "postal_code": "71921-",
    "website_url": "http://www.slaterockbrewing.com",
    "phone": "8703425545",
    "created_at": "2018-07-24 01:32:50.846941",
    "updated_at": "2018-08-23 23:23:34.662348",
    "country": "United States",
    "longitude": "-93.4611304275487",
    "latitude": "34.2640692796861"
  },
  {
    "id": "259",
    "name": "SQZBX Brewery",
    "brewery_type": "brewpub",
    "street": "236 Ouachita Ave",
    "city": "Hot Springs ",
    "state": "Arkansas",
    "postal_code": "71901",
    "website_url": "http://www.sqzbx.com",
    "phone": "5016090609",
    "created_at": "2018-07-24 01:32:50.858947",
    "updated_at": "2018-08-23 23:23:36.137319",
    "country": "United States",
    "longitude": "-93.0557935951065",
    "latitude": "34.5075190336429"
  },
  {
    "id": "260",
    "name": "Stone's Throw Brewing",
    "brewery_type": "brewpub",
    "street": "402 E 9th St",
    "city": "Little Rock",
    "state": "Arkansas",
    "postal_code": "72202-3914",
    "website_url": "http://www.stonesthrowbeer.com",
    "phone": "5012449154",
    "created_at": "2018-07-24 01:32:50.870988",
    "updated_at": "2018-08-23 23:23:37.122772",
    "country": "United States",
    "longitude": "-92.2680663333333",
    "latitude": "34.7397885"
  },
  {
    "id": "262",
    "name": "Tiny Tim's Pizza /West Mountain Brewery",
    "brewery_type": "brewpub",
    "street": "21 W Mountain St",
    "city": "Fayetteville",
    "state": "Arkansas",
    "postal_code": "72701-6086",
    "website_url": "http://www.facebook.com/pg/tinytimspizza",
    "phone": "4794429090",
    "created_at": "2018-07-24 01:32:50.896797",
    "updated_at": "2018-08-23 23:23:38.946463",
    "country": "United States",
    "longitude": "-94.1602601",
    "latitude": "36.0617393"
  },
  {
    "id": "263",
    "name": "Vino's Pizza Pub Brewery",
    "brewery_type": "brewpub",
    "street": "923 W 7th St",
    "city": "Little Rock",
    "state": "Arkansas",
    "postal_code": "72201-4005",
    "website_url": "http://www.vinosbrewpub.com",
    "phone": "5013758466",
    "created_at": "2018-07-24 01:32:50.908685",
    "updated_at": "2018-08-23 23:23:40.00633",
    "country": "United States",
    "longitude": "-92.2814021238178",
    "latitude": "34.7434391973995"
  },
  {
    "id": "248",
    "name": "New Province Brewing Company",
    "brewery_type": "micro",
    "street": "1310 W Hudson Rd",
    "city": "Rogers",
    "state": "Arkansas",
    "postal_code": "72756-2311",
    "website_url": "http://newprovincebrewing.com",
    "phone": "4795313233",
    "created_at": "2018-07-24 01:32:50.722386",
    "updated_at": "2018-08-23 23:23:24.914061",
    "country": "United States",
    "longitude": "-94.1327921626482",
    "latitude": "36.3553520033412"
  },
  {
    "id": "225",
    "name": "Brick Oven Pizza Co / Brick & Forge Brewing",
    "brewery_type": "brewpub",
    "street": "2410 Linwood Dr",
    "city": "Paragould",
    "state": "Arkansas",
    "postal_code": "72450-6122",
    "website_url": "http://www.brickovenpizzacompany.com",
    "phone": "8702364200",
    "created_at": "2018-07-24 01:32:50.376107",
    "updated_at": "2018-08-23 23:23:05.438297",
    "country": "United States",
    "longitude": "-90.5204797204622",
    "latitude": "36.0316358142169"
  },
  {
    "id": "235",
    "name": "Diamond Bear Brewing Co",
    "brewery_type": "micro",
    "street": "600 N Broadway St",
    "city": "North Little Rock",
    "state": "Arkansas",
    "postal_code": "72114-5381",
    "website_url": "http://www.diamondbear.com",
    "phone": "5017082739",
    "created_at": "2018-07-24 01:32:50.50344",
    "updated_at": "2018-08-23 23:23:14.931963",
    "country": "United States",
    "longitude": "-92.2726892120821",
    "latitude": "34.7594277548278"
  },
  {
    "id": "247",
    "name": "Lost Forty Brewing",
    "brewery_type": "micro",
    "street": "501 Byrd St",
    "city": "Little Rock",
    "state": "Arkansas",
    "postal_code": "72202",
    "website_url": "http://www.lost40brewing.com/",
    "phone": "5013197275",
    "created_at": "2018-07-24 01:32:50.710061",
    "updated_at": "2018-08-23 23:23:24.018254",
    "country": "United States",
    "longitude": "-92.260019",
    "latitude": "34.742845"
  },
  {
    "id": "253",
    "name": "Rapp's Barren Brewing Company",
    "brewery_type": "micro",
    "street": "1343 E 9th St",
    "city": "Mountain Home",
    "state": "Arkansas",
    "postal_code": "72653-5050",
    "website_url": "http://www.rappsbarrenbrewing.com",
    "phone": "8704247288",
    "created_at": "2018-07-24 01:32:50.788018",
    "updated_at": "2018-08-23 23:23:29.428834",
    "country": "United States",
    "longitude": "-92.3599724",
    "latitude": "36.3326432"
  },
  {
    "id": "264",
    "name": "Whistleing Springs Brewing Company / Dark Hills Brewery",
    "brewery_type": "planning",
    "street": "",
    "city": "Lowell",
    "state": "Arkansas",
    "postal_code": "72745-9294",
    "website_url": "http://www.darkhillsbrew.com",
    "phone": "4792836365",
    "created_at": "2018-07-24 01:32:50.920707",
    "updated_at": "2018-08-23 23:23:40.468988",
    "country": "United States",
    "longitude": "-94.1307587",
    "latitude": "36.2553543"
  },
  {
    "id": "254",
    "name": "Rebel Kettle Brewing Company",
    "brewery_type": "brewpub",
    "street": "822 E 6th St",
    "city": "Little Rock",
    "state": "Arkansas",
    "postal_code": "72202-2606",
    "website_url": "http://www.rebelkettle.com",
    "phone": "5013742791",
    "created_at": "2018-07-24 01:32:50.799604",
    "updated_at": "2018-08-23 23:23:30.847873",
    "country": "United States",
    "longitude": "-92.2620919591837",
    "latitude": "34.7421112653061"
  },
  {
    "id": "222",
    "name": "Bike Rack Brewing Co",
    "brewery_type": "micro",
    "street": "410 SW A St Ste 6",
    "city": "Bentonville",
    "state": "Arkansas",
    "postal_code": "72712-5839",
    "website_url": "http://www.bikerackbrewing.com",
    "phone": "4792686648",
    "created_at": "2018-07-24 01:32:50.340627",
    "updated_at": "2018-08-11 21:35:51.150493",
    "country": "United States",
    "longitude": "",
    "latitude": ""
  },
  {
    "id": "226",
    "name": "Brick Oven Pizza Co / Brick & Forge Brewing",
    "brewery_type": "brewpub",
    "street": "814 US-62",
    "city": "Harrison",
    "state": "Arkansas",
    "postal_code": "72601",
    "website_url": "",
    "phone": "8702364200",
    "created_at": "2018-07-24 01:32:50.387872",
    "updated_at": "2018-08-11 21:35:51.288806",
    "country": "United States",
    "longitude": "",
    "latitude": ""
  },
  {
    "id": "227",
    "name": "Bubba Brew's Brewing Company",
    "brewery_type": "micro",
    "street": "8091 Airport Rd",
    "city": "Bonnerdale",
    "state": "Arkansas",
    "postal_code": "71933-6648",
    "website_url": "http://www.bubbabrewsbrewingco.com",
    "phone": "8703564001",
    "created_at": "2018-07-24 01:32:50.39925",
    "updated_at": "2018-08-11 21:35:51.319875",
    "country": "United States",
    "longitude": "",
    "latitude": ""
  },
  {
    "id": "230",
    "name": "Core Brewing - Hot Springs",
    "brewery_type": "brewpub",
    "street": "833 Central Ave",
    "city": "Hot Springs National Park",
    "state": "Arkansas",
    "postal_code": "71901",
    "website_url": "",
    "phone": "4793068898",
    "created_at": "2018-07-24 01:32:50.435378",
    "updated_at": "2018-08-11 21:35:51.428863",
    "country": "United States",
    "longitude": "",
    "latitude": ""
  },
  {
    "id": "231",
    "name": "Core Brewing - SoMa",
    "brewery_type": "brewpub",
    "street": "1214 S. Main St",
    "city": "Little Rock",
    "state": "Arkansas",
    "postal_code": "72202",
    "website_url": "",
    "phone": "4793068898",
    "created_at": "2018-07-24 01:32:50.447777",
    "updated_at": "2018-08-11 21:35:51.46182",
    "country": "United States",
    "longitude": "",
    "latitude": ""
  },
  {
    "id": "232",
    "name": "Core Brewing & Distilling Co",
    "brewery_type": "micro",
    "street": "2470 N Lowell Rd Ste A3",
    "city": "Springdale",
    "state": "Arkansas",
    "postal_code": "72764-1819",
    "website_url": "http://www.corebeer.com",
    "phone": "4793068898",
    "created_at": "2018-07-24 01:32:50.464988",
    "updated_at": "2018-08-11 21:35:51.495272",
    "country": "United States",
    "longitude": "",
    "latitude": ""
  },
  {
    "id": "220",
    "name": "Apple Blossom Brewing Co",
    "brewery_type": "brewpub",
    "street": "1550 E Zion Rd",
    "city": "Fayetteville",
    "state": "Arkansas",
    "postal_code": "72703-5017",
    "website_url": "http://www.appleblossombrewing.com",
    "phone": "4792874344",
    "created_at": "2018-07-24 01:32:50.317764",
    "updated_at": "2018-08-23 23:23:00.160354",
    "country": "United States",
    "longitude": "-94.1372796",
    "latitude": "36.1297079"
  },
  {
    "id": "221",
    "name": "Bentonville Brewing Co",
    "brewery_type": "micro",
    "street": "1700 S 1st St",
    "city": "Rogers",
    "state": "Arkansas",
    "postal_code": "72756-5923",
    "website_url": "http://www.bentonvillebrewing.com",
    "phone": "4799037330",
    "created_at": "2018-07-24 01:32:50.329268",
    "updated_at": "2018-08-23 23:23:01.046688",
    "country": "United States",
    "longitude": "-94.1178372",
    "latitude": "36.3168272"
  },
  {
    "id": "223",
    "name": "Bike Rack Brewing Co - 8th Street Market",
    "brewery_type": "micro",
    "street": "801 SE 8th St",
    "city": "Bentonville",
    "state": "Arkansas",
    "postal_code": "72712-6409",
    "website_url": "http://www.bikerackbrewing.com",
    "phone": "4793196593",
    "created_at": "2018-07-24 01:32:50.352505",
    "updated_at": "2018-08-23 23:23:02.926288",
    "country": "United States",
    "longitude": "-94.200584",
    "latitude": "36.364069"
  },
  {
    "id": "224",
    "name": "Blue Canoe Brewing Co",
    "brewery_type": "micro",
    "street": "1637 E. 15th Street",
    "city": "Little Rock",
    "state": "Arkansas",
    "postal_code": "72202",
    "website_url": "http://www.bluecanoebrewco.com",
    "phone": "5014929378",
    "created_at": "2018-07-24 01:32:50.3644",
    "updated_at": "2018-08-23 23:23:04.620242",
    "country": "United States",
    "longitude": "-92.2536680720849",
    "latitude": "34.73235495962"
  },
  {
    "id": "228",
    "name": "Buffalo Brewing Company At The Water Buffalo",
    "brewery_type": "micro",
    "street": "106 S Rodney Parham Rd",
    "city": "Little Rock",
    "state": "Arkansas",
    "postal_code": "72205",
    "website_url": "http://www.thewaterbuffalo.com",
    "phone": "5012311062",
    "created_at": "2018-07-24 01:32:50.410785",
    "updated_at": "2018-08-23 23:23:08.563039",
    "country": "United States",
    "longitude": "-92.366648",
    "latitude": "34.752616"
  },
  {
    "id": "229",
    "name": "Columbus House Brewery",
    "brewery_type": "micro",
    "street": "701 W North St",
    "city": "Fayetteville",
    "state": "Arkansas",
    "postal_code": "72701-1865",
    "website_url": "",
    "phone": "4799353752",
    "created_at": "2018-07-24 01:32:50.422848",
    "updated_at": "2018-08-23 23:23:09.381943",
    "country": "United States",
    "longitude": "-94.1688685443672",
    "latitude": "36.0771652"
  },
  {
    "id": "233",
    "name": "Crisis Brewing LLC",
    "brewery_type": "micro",
    "street": "210 S Archibald Yell Blvd",
    "city": "Fayetteville",
    "state": "Arkansas",
    "postal_code": "72701-4459",
    "website_url": "http://www.crisisbrew.com",
    "phone": "4795822337",
    "created_at": "2018-07-24 01:32:50.4782",
    "updated_at": "2018-08-23 23:23:12.975362",
    "country": "United States",
    "longitude": "-94.1608753945713",
    "latitude": "36.0595970427386"
  },
  {
    "id": "234",
    "name": "Damgoode Pies",
    "brewery_type": "brewpub",
    "street": "500 President Clinton Ave",
    "city": "Little Rock",
    "state": "Arkansas",
    "postal_code": "72201-1756",
    "website_url": "http://www.damgoodepies.com",
    "phone": "5016642239",
    "created_at": "2018-07-24 01:32:50.49069",
    "updated_at": "2018-08-23 23:23:13.798756",
    "country": "United States",
    "longitude": "-92.2653101",
    "latitude": "34.7475388"
  },
  {
    "id": "237",
    "name": "Flyway Brewing Co",
    "brewery_type": "brewpub",
    "street": "314 Maple St",
    "city": "North Little Rock",
    "state": "Arkansas",
    "postal_code": "72114-5334",
    "website_url": "",
    "phone": "5018123192",
    "created_at": "2018-07-24 01:32:50.527961",
    "updated_at": "2018-08-11 21:35:51.694465",
    "country": "United States",
    "longitude": "",
    "latitude": ""
  },
  {
    "id": "240",
    "name": "Foster's Pint & Plate",
    "brewery_type": "brewpub",
    "street": "2001 S Bellview Rd # 2",
    "city": "Rogers",
    "state": "Arkansas",
    "postal_code": "72758-4050",
    "website_url": "http://www.fosterspintandplate.com",
    "phone": "",
    "created_at": "2018-07-24 01:32:50.566777",
    "updated_at": "2018-08-11 21:35:51.795711",
    "country": "United States",
    "longitude": "",
    "latitude": ""
  },
  {
    "id": "242",
    "name": "Gravity Brew Works",
    "brewery_type": "micro",
    "street": "11512 Hwy 14 E",
    "city": "Big Flat",
    "state": "Arkansas",
    "postal_code": "72617",
    "website_url": "http://www.gravitybrewworks.com",
    "phone": "8704482077",
    "created_at": "2018-07-24 01:32:50.59175",
    "updated_at": "2018-08-11 21:35:51.874849",
    "country": "United States",
    "longitude": "",
    "latitude": ""
  },
  {
    "id": "251",
    "name": "Prestonrose Farm and Brewing Co.",
    "brewery_type": "brewpub",
    "street": "201 Saint Louis Valley Rd",
    "city": "Paris",
    "state": "Arkansas",
    "postal_code": "72855-5853",
    "website_url": "http://prestonrose.squarespace.com",
    "phone": "7075025544",
    "created_at": "2018-07-24 01:32:50.760873",
    "updated_at": "2018-08-11 21:35:52.193876",
    "country": "United States",
    "longitude": "",
    "latitude": ""
  },
  {
    "id": "256",
    "name": "Rendezvous Junction Brewing Company",
    "brewery_type": "micro",
    "street": "2001 S Bellview Rd Ste 2",
    "city": "Rogers",
    "state": "Arkansas",
    "postal_code": "72758-4050",
    "website_url": "http://www.rendezvousjunction.com",
    "phone": "4793817501",
    "created_at": "2018-07-24 01:32:50.823534",
    "updated_at": "2018-08-11 21:35:52.341612",
    "country": "United States",
    "longitude": "",
    "latitude": ""
  },
  {
    "id": "257",
    "name": "Saddlebock Brewery",
    "brewery_type": "micro",
    "street": "16600 Saddlebock Lane",
    "city": "Springdale",
    "state": "Arkansas",
    "postal_code": "72764-7582",
    "website_url": "http://www.saddlebock.com",
    "phone": "4794221797",
    "created_at": "2018-07-24 01:32:50.835511",
    "updated_at": "2018-08-11 21:35:52.370581",
    "country": "United States",
    "longitude": "",
    "latitude": ""
  },
  {
    "id": "261",
    "name": "Superior Bathhouse Brewery",
    "brewery_type": "brewpub",
    "street": "329 Central Ave",
    "city": "Hot Springs National Park",
    "state": "Arkansas",
    "postal_code": "71901-3525",
    "website_url": "http://www.superiorbathhouse.com",
    "phone": "5016242337",
    "created_at": "2018-07-24 01:32:50.88326",
    "updated_at": "2018-08-11 21:35:52.500612",
    "country": "United States",
    "longitude": "",
    "latitude": ""
  },
  {
    "id": "236",
    "name": "Fayetteville Brewing Company",
    "brewery_type": "planning",
    "street": "",
    "city": "Fayetteville",
    "state": "Arkansas",
    "postal_code": "72704-7402",
    "website_url": "http://www.fayettebrew.com",
    "phone": "4792631905",
    "created_at": "2018-07-24 01:32:50.515652",
    "updated_at": "2018-08-23 23:23:15.350378",
    "country": "United States",
    "longitude": "-94.1574328",
    "latitude": "36.0625843"
  },
  {
    "id": "238",
    "name": "Fort Smith Brewing Company",
    "brewery_type": "micro",
    "street": "7500 Fort Chaffee Blvd",
    "city": "Fort Smith",
    "state": "Arkansas",
    "postal_code": "72916-6086",
    "website_url": "http://www.fsbrewco.com",
    "phone": "4792423722",
    "created_at": "2018-07-24 01:32:50.540982",
    "updated_at": "2018-08-23 23:23:17.173381",
    "country": "United States",
    "longitude": "-94.298483",
    "latitude": "35.310777"
  },
  {
    "id": "239",
    "name": "Fossil Cove Brewing Co",
    "brewery_type": "brewpub",
    "street": "1946 N Birch Ave",
    "city": "Fayetteville",
    "state": "Arkansas",
    "postal_code": "72703-2408",
    "website_url": "http://www.fossilcovebrewing.com",
    "phone": "4796444601",
    "created_at": "2018-07-24 01:32:50.553945",
    "updated_at": "2018-08-23 23:23:18.111247",
    "country": "United States",
    "longitude": "-94.1647828743272",
    "latitude": "36.0879053"
  },
  {
    "id": "241",
    "name": "Gotahold Brewing Company",
    "brewery_type": "planning",
    "street": "",
    "city": "Eureka Springs",
    "state": "Arkansas",
    "postal_code": "72632",
    "website_url": "",
    "phone": "8023569163",
    "created_at": "2018-07-24 01:32:50.579824",
    "updated_at": "2018-08-23 23:23:19.487925",
    "country": "United States",
    "longitude": "-93.7392419",
    "latitude": "36.4000796"
  },
  {
    "id": "243",
    "name": "Hawk Moth Brewing Co",
    "brewery_type": "planning",
    "street": "",
    "city": "rogers",
    "state": "Arkansas",
    "postal_code": "72756",
    "website_url": "",
    "phone": "4796164800",
    "created_at": "2018-07-24 01:32:50.60325",
    "updated_at": "2018-08-23 23:23:20.413679",
    "country": "United States",
    "longitude": "-94.1185366",
    "latitude": "36.3320197"
  },
  {
    "id": "244",
    "name": "Hog Haus Brewing Co",
    "brewery_type": "brewpub",
    "street": "430 W Dickson St",
    "city": "Fayetteville",
    "state": "Arkansas",
    "postal_code": "72701-5107",
    "website_url": "http://www.hoghaus.com",
    "phone": "4792833516",
    "created_at": "2018-07-24 01:32:50.614245",
    "updated_at": "2018-08-23 23:23:21.305565",
    "country": "United States",
    "longitude": "-94.1652437133366",
    "latitude": "36.0666309"
  },
  {
    "id": "245",
    "name": "JJs Brewing Company",
    "brewery_type": "brewpub",
    "street": "3615 n steele blvd",
    "city": "fayetteville",
    "state": "Arkansas",
    "postal_code": "72703",
    "website_url": "http://www.thejbgb.com/",
    "phone": "4792632562",
    "created_at": "2018-07-24 01:32:50.627014",
    "updated_at": "2018-08-23 23:23:22.201413",
    "country": "United States",
    "longitude": "-94.1571434160088",
    "latitude": "36.11719055"
  },
  {
    "id": "246",
    "name": "Lost 40 brewing",
    "brewery_type": "micro",
    "street": "510 McLean St",
    "city": "Little Rock",
    "state": "Arkansas",
    "postal_code": "72202-2660",
    "website_url": "",
    "phone": "5015545557",
    "created_at": "2018-07-24 01:32:50.697512",
    "updated_at": "2018-08-23 23:23:23.1096",
    "country": "United States",
    "longitude": "-92.25901",
    "latitude": "34.7426855790517"
  },
  {
    "id": "249",
    "name": "Norfork Brewing Company",
    "brewery_type": "micro",
    "street": "1237 River Ridge Rd",
    "city": "Norfork",
    "state": "Arkansas",
    "postal_code": "72658-9630",
    "website_url": "http://www.nfbrew.com",
    "phone": "9187066082",
    "created_at": "2018-07-24 01:32:50.736165",
    "updated_at": "2018-08-23 23:23:25.810635",
    "country": "United States",
    "longitude": "-92.2711893",
    "latitude": "36.2245472"
  },
  {
    "id": "250",
    "name": "Ozark Beer Company",
    "brewery_type": "micro",
    "street": "109 N Arkansas St",
    "city": "Rogers",
    "state": "Arkansas",
    "postal_code": "72756-6601",
    "website_url": "http://www.ozarkbeercompany.com",
    "phone": "4796362337",
    "created_at": "2018-07-24 01:32:50.749",
    "updated_at": "2018-08-23 23:23:26.707749",
    "country": "United States",
    "longitude": "-94.1147203",
    "latitude": "36.3335034"
  },
  {
    "id": "252",
    "name": "Puritan Brew Company",
    "brewery_type": "contract",
    "street": "205 W Dickson St",
    "city": "Fayetteville",
    "state": "Arkansas",
    "postal_code": "72701-5222",
    "website_url": "http://www.puritanbrewcompany.com",
    "phone": "4793012365",
    "created_at": "2018-07-24 01:32:50.775451",
    "updated_at": "2018-08-23 23:23:28.528977",
    "country": "United States",
    "longitude": "-94.1620702",
    "latitude": "36.066188"
  },
  {
    "id": "255",
    "name": "Refined Ale Brewery",
    "brewery_type": "micro",
    "street": "2221 S Cedar St",
    "city": "Little Rock",
    "state": "Arkansas",
    "postal_code": "72204-5452",
    "website_url": "http://www.refinedale.com",
    "phone": "5012800556",
    "created_at": "2018-07-24 01:32:50.811767",
    "updated_at": "2018-08-23 23:23:32.040411",
    "country": "United States",
    "longitude": "-92.3184696976744",
    "latitude": "34.7308344651163"
  },
  {
    "id": "258",
    "name": "Slate Rock Brewing Company",
    "brewery_type": "micro",
    "street": "113 S Main St",
    "city": "Amity",
    "state": "Arkansas",
    "postal_code": "71921-",
    "website_url": "http://www.slaterockbrewing.com",
    "phone": "8703425545",
    "created_at": "2018-07-24 01:32:50.846941",
    "updated_at": "2018-08-23 23:23:34.662348",
    "country": "United States",
    "longitude": "-93.4611304275487",
    "latitude": "34.2640692796861"
  },
  {
    "id": "259",
    "name": "SQZBX Brewery",
    "brewery_type": "brewpub",
    "street": "236 Ouachita Ave",
    "city": "Hot Springs ",
    "state": "Arkansas",
    "postal_code": "71901",
    "website_url": "http://www.sqzbx.com",
    "phone": "5016090609",
    "created_at": "2018-07-24 01:32:50.858947",
    "updated_at": "2018-08-23 23:23:36.137319",
    "country": "United States",
    "longitude": "-93.0557935951065",
    "latitude": "34.5075190336429"
  },
  {
    "id": "260",
    "name": "Stone's Throw Brewing",
    "brewery_type": "brewpub",
    "street": "402 E 9th St",
    "city": "Little Rock",
    "state": "Arkansas",
    "postal_code": "72202-3914",
    "website_url": "http://www.stonesthrowbeer.com",
    "phone": "5012449154",
    "created_at": "2018-07-24 01:32:50.870988",
    "updated_at": "2018-08-23 23:23:37.122772",
    "country": "United States",
    "longitude": "-92.2680663333333",
    "latitude": "34.7397885"
  },
  {
    "id": "262",
    "name": "Tiny Tim's Pizza /West Mountain Brewery",
    "brewery_type": "brewpub",
    "street": "21 W Mountain St",
    "city": "Fayetteville",
    "state": "Arkansas",
    "postal_code": "72701-6086",
    "website_url": "http://www.facebook.com/pg/tinytimspizza",
    "phone": "4794429090",
    "created_at": "2018-07-24 01:32:50.896797",
    "updated_at": "2018-08-23 23:23:38.946463",
    "country": "United States",
    "longitude": "-94.1602601",
    "latitude": "36.0617393"
  },
  {
    "id": "263",
    "name": "Vino's Pizza Pub Brewery",
    "brewery_type": "brewpub",
    "street": "923 W 7th St",
    "city": "Little Rock",
    "state": "Arkansas",
    "postal_code": "72201-4005",
    "website_url": "http://www.vinosbrewpub.com",
    "phone": "5013758466",
    "created_at": "2018-07-24 01:32:50.908685",
    "updated_at": "2018-08-23 23:23:40.00633",
    "country": "United States",
    "longitude": "-92.2814021238178",
    "latitude": "34.7434391973995"
  },
  {
    "id": "248",
    "name": "New Province Brewing Company",
    "brewery_type": "micro",
    "street": "1310 W Hudson Rd",
    "city": "Rogers",
    "state": "Arkansas",
    "postal_code": "72756-2311",
    "website_url": "http://newprovincebrewing.com",
    "phone": "4795313233",
    "created_at": "2018-07-24 01:32:50.722386",
    "updated_at": "2018-08-23 23:23:24.914061",
    "country": "United States",
    "longitude": "-94.1327921626482",
    "latitude": "36.3553520033412"
  }
]