[
  {
    "id": "1646",
    "name": "Beaver Beer Co",
    "brewery_type": "contract",
    "street": "307 Greens Farms Rd",
    "city": "Westport",
    "state": "Connecticut",
    "postal_code": "06880-6227",
    "website_url": "http://www.beaverbeer.com",
    "phone": "",
    "created_at": "2018-07-24 01:33:09.107595",
    "updated_at": "2018-08-24 00:25:23.884827",
    "country": "United States",
    "longitude": "-73.311685",
    "latitude": "41.12587"
  },
  {
    "id": "1651",
    "name": "Brass Works Brewing Company LLC",
    "brewery_type": "micro",
    "street": "2066 Thomaston Ave",
    "city": "Waterbury",
    "state": "Connecticut",
    "postal_code": "06704-1038",
    "website_url": "http://www.brassworksbrewing.com",
    "phone": "2035276223",
    "created_at": "2018-07-24 01:33:09.172873",
    "updated_at": "2018-08-24 00:25:27.172675",
    "country": "United States",
    "longitude": "-73.0575366209305",
    "latitude": "41.5974763265155"
  },
  {
    "id": "1659",
    "name": "BruRm At Bar",
    "brewery_type": "brewpub",
    "street": "254 Crown St",
    "city": "New Haven",
    "state": "Connecticut",
    "postal_code": "06511-6610",
    "website_url": "http://www.barnightclub.com",
    "phone": "2034958924",
    "created_at": "2018-07-24 01:33:09.297086",
    "updated_at": "2018-08-24 00:25:29.704676",
    "country": "United States",
    "longitude": "-72.9302577",
    "latitude": "41.3061639"
  },
  {
    "id": "1668",
    "name": "Connecticut Valley Brewing Company",
    "brewery_type": "micro",
    "street": "765 Sullivan Ave",
    "city": "South Windsor",
    "state": "Connecticut",
    "postal_code": "06074-1945",
    "website_url": "http://www.ctvalleybrewing.com",
    "phone": "8606442707",
    "created_at": "2018-07-24 01:33:09.416723",
    "updated_at": "2018-08-24 00:25:32.911901",
    "country": "United States",
    "longitude": "-72.5714790446604",
    "latitude": "41.8487282897209"
  },
  {
    "id": "1670",
    "name": "Counterweight Brewing Company",
    "brewery_type": "micro",
    "street": "23 Raccio Park Rd",
    "city": "Hamden",
    "state": "Connecticut",
    "postal_code": "06514-1331",
    "website_url": "http://www.Counterweightbrewing.com",
    "phone": "2038217333",
    "created_at": "2018-07-24 01:33:09.446594",
    "updated_at": "2018-08-24 00:25:33.898051",
    "country": "United States",
    "longitude": "-72.9195534130741",
    "latitude": "41.3932116686678"
  },
  {
    "id": "1706",
    "name": "Nod Hill Brewery",
    "brewery_type": "micro",
    "street": "137 Ethan Allen Hwy",
    "city": "Ridgefield",
    "state": "Connecticut",
    "postal_code": "06877-6238",
    "website_url": "http://www.nodhillbrewery.com",
    "phone": "2036171191",
    "created_at": "2018-07-24 01:33:09.922333",
    "updated_at": "2018-08-24 00:25:45.771755",
    "country": "United States",
    "longitude": "-73.4438849111635",
    "latitude": "41.2731614754047"
  },
  {
    "id": "1725",
    "name": "Thimble Island Brewery",
    "brewery_type": "micro",
    "street": "16 Business Park Dr",
    "city": "Branford",
    "state": "Connecticut",
    "postal_code": "06405-2924",
    "website_url": "http://www.thimbleislandbrewery.com",
    "phone": "2032082827",
    "created_at": "2018-07-24 01:33:10.244971",
    "updated_at": "2018-08-24 00:25:53.876719",
    "country": "United States",
    "longitude": "-72.7720276806763",
    "latitude": "41.2969578585427"
  },
  {
    "id": "1665",
    "name": "Cliffside Brewing",
    "brewery_type": "micro",
    "street": "16B Center St",
    "city": "Wallingford",
    "state": "Connecticut",
    "postal_code": "06492-4110",
    "website_url": "http://www.cliffsidebrewing.com",
    "phone": "",
    "created_at": "2018-07-24 01:33:09.376779",
    "updated_at": "2018-08-24 00:25:31.874925",
    "country": "United States",
    "longitude": "-72.8236736045008",
    "latitude": "41.4566458293791"
  },
  {
    "id": "1727",
    "name": "Tox Brewing Company",
    "brewery_type": "planning",
    "street": "",
    "city": "New London",
    "state": "Connecticut",
    "postal_code": "06320",
    "website_url": "http://www.toxbrewing.com",
    "phone": "",
    "created_at": "2018-07-24 01:33:10.285433",
    "updated_at": "2018-08-11 21:36:47.789649",
    "country": "United States",
    "longitude": "",
    "latitude": ""
  },
  {
    "id": "1663",
    "name": "Church Owl Beer",
    "brewery_type": "micro",
    "street": "",
    "city": "Stratford",
    "state": "Connecticut",
    "postal_code": "06615-7320",
    "website_url": "http://www.churchowlbeer.com",
    "phone": "",
    "created_at": "2018-07-24 01:33:09.350111",
    "updated_at": "2018-08-11 21:36:45.918623",
    "country": "United States",
    "longitude": "",
    "latitude": ""
  },
  {
    "id": "1637",
    "name": "The Beer'd Brewing Company",
    "brewery_type": "micro",
    "street": "22 Bayview Ave Ste 15",
    "city": "Stonington",
    "state": "Connecticut",
    "postal_code": "06378-1143",
    "website_url": "http://www.beerdbrewing.com",
    "phone": "8602139307",
    "created_at": "2018-07-24 01:33:08.996131",
    "updated_at": "2018-08-11 21:36:44.884434",
    "country": "United States",
    "longitude": "",
    "latitude": ""
  },
  {
    "id": "1638",
    "name": "30 Mile Brewing Co.",
    "brewery_type": "micro",
    "street": "39 Ragged Rock Rd Unit 5",
    "city": "Old Saybrook",
    "state": "Connecticut",
    "postal_code": "06475-1518",
    "website_url": "http://www.30milebrewingco.com",
    "phone": "8603395238",
    "created_at": "2018-07-24 01:33:09.008377",
    "updated_at": "2018-08-11 21:36:44.912902",
    "country": "United States",
    "longitude": "",
    "latitude": ""
  },
  {
    "id": "1639",
    "name": "Alvarium Beer Company",
    "brewery_type": "micro",
    "street": "365 John Downey Dr Ste B",
    "city": "New Britain",
    "state": "Connecticut",
    "postal_code": "06051-2922",
    "website_url": "http://www.alvariumbeer.com",
    "phone": "8603572039",
    "created_at": "2018-07-24 01:33:09.020592",
    "updated_at": "2018-08-11 21:36:44.941321",
    "country": "United States",
    "longitude": "",
    "latitude": ""
  },
  {
    "id": "1642",
    "name": "Athletic Brewing Company",
    "brewery_type": "planning",
    "street": "",
    "city": "Stratford",
    "state": "Connecticut",
    "postal_code": "06615-7167",
    "website_url": "http://www.AthleticBrewing.com",
    "phone": "2032730422",
    "created_at": "2018-07-24 01:33:09.056295",
    "updated_at": "2018-08-11 21:36:45.12759",
    "country": "United States",
    "longitude": "",
    "latitude": ""
  },
  {
    "id": "1645",
    "name": "Barley Head Brewery",
    "brewery_type": "micro",
    "street": "12 Water St 1A",
    "city": "Mystic",
    "state": "Connecticut",
    "postal_code": "06355",
    "website_url": "http://www.barleyheadbrewery.com",
    "phone": "",
    "created_at": "2018-07-24 01:33:09.094995",
    "updated_at": "2018-08-11 21:36:45.240309",
    "country": "United States",
    "longitude": "",
    "latitude": ""
  },
  {
    "id": "1647",
    "name": "Black Hog Brewing Co",
    "brewery_type": "micro",
    "street": "115 Hurley Road, Building 9A",
    "city": "Oxford",
    "state": "Connecticut",
    "postal_code": "06478-1047",
    "website_url": "http://www.blackhogbrewing.com",
    "phone": "2032626075",
    "created_at": "2018-07-24 01:33:09.121279",
    "updated_at": "2018-08-11 21:36:45.323826",
    "country": "United States",
    "longitude": "",
    "latitude": ""
  },
  {
    "id": "1640",
    "name": "Armada Brewing",
    "brewery_type": "contract",
    "street": "250 Bradley Street",
    "city": "East Haven",
    "state": "Connecticut",
    "postal_code": "06512",
    "website_url": "http://www.armadabeer.com",
    "phone": "4754413759",
    "created_at": "2018-07-24 01:33:09.032401",
    "updated_at": "2018-08-24 00:25:21.160808",
    "country": "United States",
    "longitude": "-72.8739756331215",
    "latitude": "41.2900430077911"
  },
  {
    "id": "1641",
    "name": "Aspetuck Brew Lab",
    "brewery_type": "micro",
    "street": "3389 Fairfield Avenue",
    "city": "Bridgeport",
    "state": "Connecticut",
    "postal_code": "06605",
    "website_url": "http://www.aspetuckbrewlab.com",
    "phone": "2032539423",
    "created_at": "2018-07-24 01:33:09.044235",
    "updated_at": "2018-08-24 00:25:21.671247",
    "country": "United States",
    "longitude": "-73.2357109",
    "latitude": "41.1544649"
  },
  {
    "id": "1644",
    "name": "BADSONS Beer Co",
    "brewery_type": "micro",
    "street": "251 Roosevelt Dr",
    "city": "Derby",
    "state": "Connecticut",
    "postal_code": "06418-1665",
    "website_url": "http://www.badsoons.com",
    "phone": "2033082654",
    "created_at": "2018-07-24 01:33:09.082802",
    "updated_at": "2018-08-24 00:25:22.766513",
    "country": "United States",
    "longitude": "-73.1322771",
    "latitude": "41.3513647"
  },
  {
    "id": "1648",
    "name": "Black Pond Brews",
    "brewery_type": "micro",
    "street": "21A Furnace St",
    "city": "Danielson",
    "state": "Connecticut",
    "postal_code": "06239-3040",
    "website_url": "http://www.blackpondbrews.com",
    "phone": "8602075295",
    "created_at": "2018-07-24 01:33:09.133989",
    "updated_at": "2018-08-24 00:25:24.980232",
    "country": "United States",
    "longitude": "-71.8839447345293",
    "latitude": "41.8047008489267"
  },
  {
    "id": "1650",
    "name": "Boondoggle Brewing",
    "brewery_type": "contract",
    "street": "553 Maple St",
    "city": "Wethersfield",
    "state": "Connecticut",
    "postal_code": "06109-3732",
    "website_url": "http://www.boondogglebeers.com",
    "phone": "8603367366",
    "created_at": "2018-07-24 01:33:09.160507",
    "updated_at": "2018-08-24 00:25:25.805543",
    "country": "United States",
    "longitude": "-72.6645867664619",
    "latitude": "41.6838886994306"
  },
  {
    "id": "1652",
    "name": "Brewery in Planning - Bristol",
    "brewery_type": "planning",
    "street": "",
    "city": "Bristol",
    "state": "Connecticut",
    "postal_code": "06010-7955",
    "website_url": "http://www.hopculturefarms.com",
    "phone": "8603059556",
    "created_at": "2018-07-24 01:33:09.18522",
    "updated_at": "2018-08-11 21:36:45.456847",
    "country": "United States",
    "longitude": "",
    "latitude": ""
  },
  {
    "id": "1653",
    "name": "Brewery In Planning - CT",
    "brewery_type": "planning",
    "street": "",
    "city": "Mistic",
    "state": "Connecticut",
    "postal_code": "06355-2546",
    "website_url": "",
    "phone": "8603152470",
    "created_at": "2018-07-24 01:33:09.198231",
    "updated_at": "2018-08-11 21:36:45.49277",
    "country": "United States",
    "longitude": "",
    "latitude": ""
  },
  {
    "id": "1654",
    "name": "Brewery Legitimus",
    "brewery_type": "micro",
    "street": "283 Main St",
    "city": "New Hartford",
    "state": "Connecticut",
    "postal_code": "06057-2750",
    "website_url": "http://www.brewerylegitimus.com",
    "phone": "8608108894",
    "created_at": "2018-07-24 01:33:09.212948",
    "updated_at": "2018-08-11 21:36:45.536807",
    "country": "United States",
    "longitude": "",
    "latitude": ""
  },
  {
    "id": "1657",
    "name": "Broad Leaf Farm Brewery",
    "brewery_type": "planning",
    "street": "",
    "city": "South Glastonbury",
    "state": "Connecticut",
    "postal_code": "06073-2017",
    "website_url": "",
    "phone": "2158057228",
    "created_at": "2018-07-24 01:33:09.26007",
    "updated_at": "2018-08-11 21:36:45.674159",
    "country": "United States",
    "longitude": "",
    "latitude": ""
  },
  {
    "id": "1661",
    "name": "Center Street Brewing Company",
    "brewery_type": "planning",
    "street": "",
    "city": "Wallingford",
    "state": "Connecticut",
    "postal_code": "06492",
    "website_url": "http://n/a",
    "phone": "",
    "created_at": "2018-07-24 01:33:09.324804",
    "updated_at": "2018-08-11 21:36:45.849957",
    "country": "United States",
    "longitude": "",
    "latitude": ""
  },
  {
    "id": "1667",
    "name": "Coles Road Brewing",
    "brewery_type": "planning",
    "street": "",
    "city": "Cromwell",
    "state": "Connecticut",
    "postal_code": "06416-1113",
    "website_url": "http://ColesRoadBrewing.com",
    "phone": "",
    "created_at": "2018-07-24 01:33:09.403372",
    "updated_at": "2018-08-11 21:36:46.076408",
    "country": "United States",
    "longitude": "",
    "latitude": ""
  },
  {
    "id": "1671",
    "name": "Dockside Waterfront Biergarten and Brewery",
    "brewery_type": "planning",
    "street": "",
    "city": "Milford",
    "state": "Connecticut",
    "postal_code": "06460",
    "website_url": "",
    "phone": "",
    "created_at": "2018-07-24 01:33:09.460742",
    "updated_at": "2018-08-11 21:36:46.20351",
    "country": "United States",
    "longitude": "",
    "latitude": ""
  },
  {
    "id": "1673",
    "name": "Duvig Brewing Co",
    "brewery_type": "micro",
    "street": "59 School Ground Rd Ste 10",
    "city": "Branford",
    "state": "Connecticut",
    "postal_code": "06405-2868",
    "website_url": "http://www.duvig.com",
    "phone": "2032082213",
    "created_at": "2018-07-24 01:33:09.489019",
    "updated_at": "2018-08-11 21:36:46.228491",
    "country": "United States",
    "longitude": "",
    "latitude": ""
  },
  {
    "id": "1674",
    "name": "East Rock Brewing Company",
    "brewery_type": "planning",
    "street": "",
    "city": "New Haven",
    "state": "Connecticut",
    "postal_code": "06511-2625",
    "website_url": "http://www.eastrockbeer.com",
    "phone": "2035303484",
    "created_at": "2018-07-24 01:33:09.501259",
    "updated_at": "2018-08-11 21:36:46.256404",
    "country": "United States",
    "longitude": "",
    "latitude": ""
  },
  {
    "id": "1677",
    "name": "Fat Orange Cat Brew Co",
    "brewery_type": "micro",
    "street": "",
    "city": "East Hampton",
    "state": "Connecticut",
    "postal_code": "06424-1636",
    "website_url": "http://www.fatorangecatbrewco.com",
    "phone": "8608818045",
    "created_at": "2018-07-24 01:33:09.540158",
    "updated_at": "2018-08-11 21:36:46.350609",
    "country": "United States",
    "longitude": "",
    "latitude": ""
  },
  {
    "id": "1678",
    "name": "Fifth Year Brewery",
    "brewery_type": "planning",
    "street": "",
    "city": "West Haven",
    "state": "Connecticut",
    "postal_code": "06516-7515",
    "website_url": "",
    "phone": "",
    "created_at": "2018-07-24 01:33:09.553694",
    "updated_at": "2018-08-11 21:36:46.382701",
    "country": "United States",
    "longitude": "",
    "latitude": ""
  },
  {
    "id": "1684",
    "name": "Great Falls Brewing Company",
    "brewery_type": "planning",
    "street": "",
    "city": "Canaan",
    "state": "Connecticut",
    "postal_code": "06018",
    "website_url": "http://GreatFallsBrews.com",
    "phone": "8609217843",
    "created_at": "2018-07-24 01:33:09.632288",
    "updated_at": "2018-08-11 21:36:46.584905",
    "country": "United States",
    "longitude": "",
    "latitude": ""
  },
  {
    "id": "1687",
    "name": "Hammer & Nail Brewing",
    "brewery_type": "planning",
    "street": "",
    "city": "Trumbull",
    "state": "Connecticut",
    "postal_code": "06611-4975",
    "website_url": "http://www.HammerNailBrewing.com",
    "phone": "2032404987",
    "created_at": "2018-07-24 01:33:09.669964",
    "updated_at": "2018-08-11 21:36:46.645407",
    "country": "United States",
    "longitude": "",
    "latitude": ""
  },
  {
    "id": "1690",
    "name": "Housatonic River Brewing",
    "brewery_type": "planning",
    "street": "",
    "city": "New Milford",
    "state": "Connecticut",
    "postal_code": "06776-3404",
    "website_url": "http://www.housatonicriverbrewing.com",
    "phone": "8609460266",
    "created_at": "2018-07-24 01:33:09.709274",
    "updated_at": "2018-08-11 21:36:46.726497",
    "country": "United States",
    "longitude": "",
    "latitude": ""
  },
  {
    "id": "1691",
    "name": "HRG Management, LLC",
    "brewery_type": "planning",
    "street": "",
    "city": "Hartford",
    "state": "Connecticut",
    "postal_code": "06109",
    "website_url": "",
    "phone": "",
    "created_at": "2018-07-24 01:33:09.721186",
    "updated_at": "2018-08-11 21:36:46.75363",
    "country": "United States",
    "longitude": "",
    "latitude": ""
  },
  {
    "id": "1693",
    "name": "Jovial Foods, Inc.",
    "brewery_type": "planning",
    "street": "",
    "city": "North Stonington",
    "state": "Connecticut",
    "postal_code": "06359-1713",
    "website_url": "http://www.jovialfoods.com",
    "phone": "8605350494",
    "created_at": "2018-07-24 01:33:09.746675",
    "updated_at": "2018-08-11 21:36:46.809688",
    "country": "United States",
    "longitude": "",
    "latitude": ""
  },
  {
    "id": "1694",
    "name": "Kent Falls Brewing Company",
    "brewery_type": "micro",
    "street": "",
    "city": "Kent",
    "state": "Connecticut",
    "postal_code": "06757",
    "website_url": "",
    "phone": "8603989645",
    "created_at": "2018-07-24 01:33:09.763193",
    "updated_at": "2018-08-11 21:36:46.836532",
    "country": "United States",
    "longitude": "",
    "latitude": ""
  },
  {
    "id": "1696",
    "name": "Labyrinth Brewing Company",
    "brewery_type": "planning",
    "street": "",
    "city": "Manchester",
    "state": "Connecticut",
    "postal_code": "06040-5906",
    "website_url": "http://www.LBC.Beer",
    "phone": "",
    "created_at": "2018-07-24 01:33:09.793755",
    "updated_at": "2018-08-11 21:36:46.894976",
    "country": "United States",
    "longitude": "",
    "latitude": ""
  },
  {
    "id": "1698",
    "name": "Little House Brewing Company",
    "brewery_type": "planning",
    "street": "",
    "city": "Chester",
    "state": "Connecticut",
    "postal_code": "06412-1342",
    "website_url": "http://www.littlehousebrewing.com",
    "phone": "6128105315",
    "created_at": "2018-07-24 01:33:09.819178",
    "updated_at": "2018-08-11 21:36:46.95171",
    "country": "United States",
    "longitude": "",
    "latitude": ""
  },
  {
    "id": "1699",
    "name": "Little Red Barn Brewing",
    "brewery_type": "planning",
    "street": "",
    "city": "Winsted",
    "state": "Connecticut",
    "postal_code": "06098-1410",
    "website_url": "http://LRBbrewers.com",
    "phone": "8603873536",
    "created_at": "2018-07-24 01:33:09.833264",
    "updated_at": "2018-08-11 21:36:46.98833",
    "country": "United States",
    "longitude": "",
    "latitude": ""
  },
  {
    "id": "1701",
    "name": "Lost Elm Artisanal Ales",
    "brewery_type": "micro",
    "street": "25 West St Unit 4",
    "city": "Stafford Springs",
    "state": "Connecticut",
    "postal_code": "06076-1325",
    "website_url": "http://www.lostelmbeer.com",
    "phone": "",
    "created_at": "2018-07-24 01:33:09.858822",
    "updated_at": "2018-08-11 21:36:47.050835",
    "country": "United States",
    "longitude": "",
    "latitude": ""
  },
  {
    "id": "1702",
    "name": "Lost Viking Brewing Company",
    "brewery_type": "planning",
    "street": "",
    "city": "Harwinton",
    "state": "Connecticut",
    "postal_code": "06013",
    "website_url": "http://www.lostvikingbrew.com",
    "phone": "2035256196",
    "created_at": "2018-07-24 01:33:09.871385",
    "updated_at": "2018-08-11 21:36:47.082018",
    "country": "United States",
    "longitude": "",
    "latitude": ""
  },
  {
    "id": "1703",
    "name": "Milford Point Brewing Company",
    "brewery_type": "micro",
    "street": "230 Woodmont Rd Ste 29B",
    "city": "Milford",
    "state": "Connecticut",
    "postal_code": "06460",
    "website_url": "",
    "phone": "2037019077",
    "created_at": "2018-07-24 01:33:09.884272",
    "updated_at": "2018-08-11 21:36:47.111597",
    "country": "United States",
    "longitude": "",
    "latitude": ""
  },
  {
    "id": "1705",
    "name": "No Worries Brewing Company",
    "brewery_type": "micro",
    "street": "2520 State St",
    "city": "Hamden",
    "state": "Connecticut",
    "postal_code": "06517-3004",
    "website_url": "http://www.noworriesbeer.com",
    "phone": "2036916662",
    "created_at": "2018-07-24 01:33:09.908997",
    "updated_at": "2018-08-11 21:36:47.163661",
    "country": "United States",
    "longitude": "",
    "latitude": ""
  },
  {
    "id": "1655",
    "name": "Brewport Brewing Co",
    "brewery_type": "brewpub",
    "street": "225 S Frontage Rd",
    "city": "Bridgeport",
    "state": "Connecticut",
    "postal_code": "06604-5031",
    "website_url": "http://www.brewportct.com",
    "phone": "2036124438",
    "created_at": "2018-07-24 01:33:09.227748",
    "updated_at": "2018-08-24 00:25:28.136769",
    "country": "United States",
    "longitude": "-73.1923862727273",
    "latitude": "41.170877"
  },
  {
    "id": "1656",
    "name": "Broad Brook Brewing Company",
    "brewery_type": "micro",
    "street": "915 South St",
    "city": "Suffield",
    "state": "Connecticut",
    "postal_code": "06078",
    "website_url": "http://www.broadbrookbrewing.com",
    "phone": "8606231000",
    "created_at": "2018-07-24 01:33:09.242944",
    "updated_at": "2018-08-24 00:25:28.634574",
    "country": "United States",
    "longitude": "-72.6626646301082",
    "latitude": "41.9620078477925"
  },
  {
    "id": "1658",
    "name": "Broken Symmetry Gastro Brewery",
    "brewery_type": "brewpub",
    "street": "5 Depot Pl",
    "city": "Bethel",
    "state": "Connecticut",
    "postal_code": "06801-2507",
    "website_url": "",
    "phone": "2037311735",
    "created_at": "2018-07-24 01:33:09.273516",
    "updated_at": "2018-08-24 00:25:29.149789",
    "country": "United States",
    "longitude": "-73.4142477614171",
    "latitude": "41.3709733353379"
  },
  {
    "id": "1660",
    "name": "Cambridge House Brew Pub - Granby",
    "brewery_type": "brewpub",
    "street": "357 Salmon Brook St",
    "city": "Granby",
    "state": "Connecticut",
    "postal_code": "06035-0438",
    "website_url": "http://www.cbh.beer",
    "phone": "8606532739",
    "created_at": "2018-07-24 01:33:09.312694",
    "updated_at": "2018-08-24 00:25:30.201358",
    "country": "United States",
    "longitude": "-72.7925953940791",
    "latitude": "41.9663141364589"
  },
  {
    "id": "1662",
    "name": "Charter Oak Brewing Company LLC",
    "brewery_type": "contract",
    "street": "39B Shelter Rock Rd",
    "city": "Danbury",
    "state": "Connecticut",
    "postal_code": "06810-7043",
    "website_url": "http://www.charteroakbrewing.com",
    "phone": "2036165268",
    "created_at": "2018-07-24 01:33:09.337139",
    "updated_at": "2018-08-24 00:25:30.749973",
    "country": "United States",
    "longitude": "-73.4042171054818",
    "latitude": "41.3961903023823"
  },
  {
    "id": "1666",
    "name": "Cold Creek Brewery",
    "brewery_type": "micro",
    "street": "6 Industrial Dr",
    "city": "Ellington",
    "state": "Connecticut",
    "postal_code": "06029-2632",
    "website_url": "http://coldcreekbrewery.com",
    "phone": "8608581900",
    "created_at": "2018-07-24 01:33:09.390018",
    "updated_at": "2018-08-24 00:25:32.355319",
    "country": "United States",
    "longitude": "-72.456028",
    "latitude": "41.9209531"
  },
  {
    "id": "1669",
    "name": "Cottrell Brewing Co",
    "brewery_type": "micro",
    "street": "100 Mechanic St",
    "city": "Pawcatuck",
    "state": "Connecticut",
    "postal_code": "06379-2163",
    "website_url": "http://www.cottrellbrewing.com",
    "phone": "8605998213",
    "created_at": "2018-07-24 01:33:09.430079",
    "updated_at": "2018-08-24 00:25:33.388163",
    "country": "United States",
    "longitude": "-71.834289",
    "latitude": "41.370676"
  },
  {
    "id": "1675",
    "name": "Epicure Brewing",
    "brewery_type": "micro",
    "street": "40 Franklin St",
    "city": "Norwich",
    "state": "Connecticut",
    "postal_code": "06360-",
    "website_url": "http://www.epicurebrewing.com",
    "phone": "8603770789",
    "created_at": "2018-07-24 01:33:09.514504",
    "updated_at": "2018-08-24 00:25:35.668619",
    "country": "United States",
    "longitude": "-72.0743747727273",
    "latitude": "41.5252134090909"
  },
  {
    "id": "1676",
    "name": "Fairfield Craft Ales",
    "brewery_type": "micro",
    "street": "724 Honeyspot Rd",
    "city": "Stratford",
    "state": "Connecticut",
    "postal_code": "06615-7109",
    "website_url": "http://www.fairfieldcraftales.com",
    "phone": "2032962530",
    "created_at": "2018-07-24 01:33:09.527345",
    "updated_at": "2018-08-24 00:25:36.142256",
    "country": "United States",
    "longitude": "-73.147028319681",
    "latitude": "41.1756581581267"
  },
  {
    "id": "1686",
    "name": "Half Full Brewery",
    "brewery_type": "micro",
    "street": "43 Homestead Ave",
    "city": "Stamford",
    "state": "Connecticut",
    "postal_code": "06902-7204",
    "website_url": "http://www.halffullbrewery.com",
    "phone": "2032748788",
    "created_at": "2018-07-24 01:33:09.657757",
    "updated_at": "2018-08-24 00:25:39.424978",
    "country": "United States",
    "longitude": "-73.5495913458561",
    "latitude": "41.039332258981"
  },
  {
    "id": "1688",
    "name": "Hanging Hills Brewing Company",
    "brewery_type": "micro",
    "street": "150 Ledyard St",
    "city": "Hartford",
    "state": "Connecticut",
    "postal_code": "06114-1403",
    "website_url": "http://www.hanginghillsbrewery.com",
    "phone": "8602637033",
    "created_at": "2018-07-24 01:33:09.683325",
    "updated_at": "2018-08-24 00:25:40.048668",
    "country": "United States",
    "longitude": "-72.6701173267628",
    "latitude": "41.7448124315195"
  },
  {
    "id": "1689",
    "name": "Hog River Brewing Co",
    "brewery_type": "micro",
    "street": "1429 Park St",
    "city": "Hartford",
    "state": "Connecticut",
    "postal_code": "06106-2236",
    "website_url": "http://www.hogriverbrewing.com",
    "phone": "8602062119",
    "created_at": "2018-07-24 01:33:09.696495",
    "updated_at": "2018-08-24 00:25:40.708271",
    "country": "United States",
    "longitude": "-72.7018274498041",
    "latitude": "41.7579985579"
  },
  {
    "id": "1692",
    "name": "Iron Brewing Company",
    "brewery_type": "brewpub",
    "street": "136 Washington St",
    "city": "Norwalk",
    "state": "Connecticut",
    "postal_code": "06854",
    "website_url": "http://www.ironbrewing.com",
    "phone": "2033544010",
    "created_at": "2018-07-24 01:33:09.734238",
    "updated_at": "2018-08-24 00:25:41.198368",
    "country": "United States",
    "longitude": "-73.4173495360772",
    "latitude": "41.0988878749382"
  },
  {
    "id": "1695",
    "name": "Kinsmen Brewing",
    "brewery_type": "micro",
    "street": "409 Canal Street",
    "city": "Milldale",
    "state": "Connecticut",
    "postal_code": "06467",
    "website_url": "http://www.kinsmenbrewing.com",
    "phone": "8605784778",
    "created_at": "2018-07-24 01:33:09.779918",
    "updated_at": "2018-08-24 00:25:41.771442",
    "country": "United States",
    "longitude": "-72.9027141039072",
    "latitude": "41.566794731666"
  },
  {
    "id": "1697",
    "name": "Lasting Brass Craft Brewing",
    "brewery_type": "micro",
    "street": "1864 Watertown Ave",
    "city": "Oakville",
    "state": "Connecticut",
    "postal_code": "06779-1754",
    "website_url": "http://www.lastingbrass.com",
    "phone": "8604172581",
    "created_at": "2018-07-24 01:33:09.805901",
    "updated_at": "2018-08-24 00:25:42.374158",
    "country": "United States",
    "longitude": "-73.0716733",
    "latitude": "41.5801589"
  },
  {
    "id": "1700",
    "name": "Lock City Brewing",
    "brewery_type": "micro",
    "street": "54 Research Dr",
    "city": "Stamford",
    "state": "Connecticut",
    "postal_code": "06906-1428",
    "website_url": "http://www.lockcitybrewing.com",
    "phone": "2033136454",
    "created_at": "2018-07-24 01:33:09.846464",
    "updated_at": "2018-08-24 00:25:42.931897",
    "country": "United States",
    "longitude": "-73.5195579400781",
    "latitude": "41.0770565216944"
  },
  {
    "id": "1704",
    "name": "New England Brewing Co",
    "brewery_type": "micro",
    "street": "175 Amity Rd",
    "city": "Woodbridge",
    "state": "Connecticut",
    "postal_code": "06525-2201",
    "website_url": "http://www.newenglandbrewing.com",
    "phone": "2033872222",
    "created_at": "2018-07-24 01:33:09.896526",
    "updated_at": "2018-08-24 00:25:44.581818",
    "country": "United States",
    "longitude": "-72.980464057841",
    "latitude": "41.3385894166302"
  },
  {
    "id": "1707",
    "name": "OEC Brewing",
    "brewery_type": "micro",
    "street": "7 Fox Hollow Rd",
    "city": "Oxford",
    "state": "Connecticut",
    "postal_code": "06478-3162",
    "website_url": "http://www.oecbrewing.com",
    "phone": "2032952831",
    "created_at": "2018-07-24 01:33:09.935498",
    "updated_at": "2018-08-11 21:36:47.218336",
    "country": "United States",
    "longitude": "",
    "latitude": ""
  },
  {
    "id": "1709",
    "name": "Outer Light Brewing Company",
    "brewery_type": "micro",
    "street": "266 Bridge St Ste 1",
    "city": "Groton",
    "state": "Connecticut",
    "postal_code": "06340-3739",
    "website_url": "http://www.outerlightbrewing.com",
    "phone": "4752019972",
    "created_at": "2018-07-24 01:33:09.962381",
    "updated_at": "2018-08-11 21:36:47.270247",
    "country": "United States",
    "longitude": "",
    "latitude": ""
  },
  {
    "id": "1711",
    "name": "Pie & Pints Restaurant & Brewery",
    "brewery_type": "contract",
    "street": "",
    "city": "Oxford",
    "state": "Connecticut",
    "postal_code": "06478",
    "website_url": "http://www.piesandpints.biz",
    "phone": "2035731743",
    "created_at": "2018-07-24 01:33:09.990019",
    "updated_at": "2018-08-11 21:36:47.325044",
    "country": "United States",
    "longitude": "",
    "latitude": ""
  },
  {
    "id": "1713",
    "name": "Relic Brewing",
    "brewery_type": "micro",
    "street": "95 Whiting St Unit B",
    "city": "Plainville",
    "state": "Connecticut",
    "postal_code": "06062-2842",
    "website_url": "",
    "phone": "",
    "created_at": "2018-07-24 01:33:10.052721",
    "updated_at": "2018-08-11 21:36:47.381531",
    "country": "United States",
    "longitude": "",
    "latitude": ""
  },
  {
    "id": "1714",
    "name": "Reverie Brewing Company",
    "brewery_type": "planning",
    "street": "",
    "city": "Newtown",
    "state": "Connecticut",
    "postal_code": "06470",
    "website_url": "http://reveriebrewing.com",
    "phone": "",
    "created_at": "2018-07-24 01:33:10.065553",
    "updated_at": "2018-08-11 21:36:47.407688",
    "country": "United States",
    "longitude": "",
    "latitude": ""
  },
  {
    "id": "1719",
    "name": "Stony Creek Brewery At Foxwoods Resort Casino",
    "brewery_type": "planning",
    "street": "",
    "city": "Mashantucket",
    "state": "Connecticut",
    "postal_code": "06338-3830",
    "website_url": "",
    "phone": "8603123000",
    "created_at": "2018-07-24 01:33:10.148637",
    "updated_at": "2018-08-11 21:36:47.548941",
    "country": "United States",
    "longitude": "",
    "latitude": ""
  },
  {
    "id": "1721",
    "name": "Taylor Brooke Brewery",
    "brewery_type": "planning",
    "street": "",
    "city": "Woodstock",
    "state": "Connecticut",
    "postal_code": "06281-2930",
    "website_url": "http://www.taylorbrookewinery.com",
    "phone": "8609741263",
    "created_at": "2018-07-24 01:33:10.180501",
    "updated_at": "2018-08-11 21:36:47.602658",
    "country": "United States",
    "longitude": "",
    "latitude": ""
  },
  {
    "id": "1723",
    "name": "The Redding Beer Company",
    "brewery_type": "micro",
    "street": "7 Main St",
    "city": "Redding",
    "state": "Connecticut",
    "postal_code": "06896-3203",
    "website_url": "http://www.reddingbeer.com",
    "phone": "2035879000",
    "created_at": "2018-07-24 01:33:10.211721",
    "updated_at": "2018-08-11 21:36:47.672158",
    "country": "United States",
    "longitude": "",
    "latitude": ""
  },
  {
    "id": "1729",
    "name": "Unleashed Brewing Company",
    "brewery_type": "planning",
    "street": "",
    "city": "Stonington",
    "state": "Connecticut",
    "postal_code": "06378-1628",
    "website_url": "http://www.unleashedbrewing.com",
    "phone": "",
    "created_at": "2018-07-24 01:33:10.314994",
    "updated_at": "2018-08-11 21:36:47.84426",
    "country": "United States",
    "longitude": "",
    "latitude": ""
  },
  {
    "id": "1730",
    "name": "Veracious Brewing Company",
    "brewery_type": "micro",
    "street": "246 Main St",
    "city": "Monroe",
    "state": "Connecticut",
    "postal_code": "06468-1171",
    "website_url": "http://www.veraciousbrewing.com",
    "phone": "2038805670",
    "created_at": "2018-07-24 01:33:10.336719",
    "updated_at": "2018-08-11 21:36:47.868585",
    "country": "United States",
    "longitude": "",
    "latitude": ""
  },
  {
    "id": "1708",
    "name": "Olde Burnside Brewing Co.",
    "brewery_type": "micro",
    "street": "776 Tolland St",
    "city": "East Hartford",
    "state": "Connecticut",
    "postal_code": "06108-2727",
    "website_url": "http://www.oldeburnsidebrewing.com",
    "phone": "8605282200",
    "created_at": "2018-07-24 01:33:09.949026",
    "updated_at": "2018-08-24 00:25:46.409309",
    "country": "United States",
    "longitude": "-72.6002223820893",
    "latitude": "41.7850567012493"
  },
  {
    "id": "1710",
    "name": "Overshores Brewing Co",
    "brewery_type": "micro",
    "street": "250 Bradley St",
    "city": "East Haven",
    "state": "Connecticut",
    "postal_code": "06512-",
    "website_url": "http://www.overshores.com",
    "phone": "2039096224",
    "created_at": "2018-07-24 01:33:09.97642",
    "updated_at": "2018-08-24 00:25:47.511908",
    "country": "United States",
    "longitude": "-72.8739756331215",
    "latitude": "41.2900430077911"
  },
  {
    "id": "1712",
    "name": "Powder Hollow Brewery",
    "brewery_type": "micro",
    "street": "504 Hazard Ave",
    "city": "Enfield",
    "state": "Connecticut",
    "postal_code": "06082-",
    "website_url": "http://www.powderhollowbrewery.com",
    "phone": "8602050942",
    "created_at": "2018-07-24 01:33:10.038422",
    "updated_at": "2018-08-24 00:25:48.040962",
    "country": "United States",
    "longitude": "-72.5778709",
    "latitude": "41.9896523"
  },
  {
    "id": "1715",
    "name": "Shebeen Brewing Company",
    "brewery_type": "micro",
    "street": "1 Wolcott Rd",
    "city": "Wolcott",
    "state": "Connecticut",
    "postal_code": "06716-2611",
    "website_url": "http://www.shebeenbrewing.com",
    "phone": "2035142336",
    "created_at": "2018-07-24 01:33:10.079911",
    "updated_at": "2018-08-24 00:25:49.321407",
    "country": "United States",
    "longitude": "-73.000062",
    "latitude": "41.575855"
  },
  {
    "id": "1718",
    "name": "Stony Creek Brewery",
    "brewery_type": "regional",
    "street": "5 Indian Neck Ave",
    "city": "Branford",
    "state": "Connecticut",
    "postal_code": "06405-4615",
    "website_url": "http://www.stonycreekbeer.com",
    "phone": "2034334545",
    "created_at": "2018-07-24 01:33:10.133557",
    "updated_at": "2018-08-24 00:25:51.013202",
    "country": "United States",
    "longitude": "-72.8133036551208",
    "latitude": "41.27475355"
  },
  {
    "id": "1720",
    "name": "Stubborn Beauty Brewing",
    "brewery_type": "micro",
    "street": "180 Johnson St",
    "city": "Middletown",
    "state": "Connecticut",
    "postal_code": "06457-2247",
    "website_url": "http://www.stubbornbeauty.com",
    "phone": "8608747459",
    "created_at": "2018-07-24 01:33:10.165319",
    "updated_at": "2018-08-24 00:25:51.706751",
    "country": "United States",
    "longitude": "-72.6599074160136",
    "latitude": "41.5723325262957"
  },
  {
    "id": "1722",
    "name": "The Crossings Restaurant and Brewpub",
    "brewery_type": "brewpub",
    "street": "45 Main St",
    "city": "Putnam",
    "state": "Connecticut",
    "postal_code": "06260-1917",
    "website_url": "http://www.thecrossingsbrewpub.com",
    "phone": "8609283663",
    "created_at": "2018-07-24 01:33:10.194474",
    "updated_at": "2018-08-24 00:25:52.276787",
    "country": "United States",
    "longitude": "-71.9081681",
    "latitude": "41.9144568"
  },
  {
    "id": "1724",
    "name": "These Guys Brewing Company",
    "brewery_type": "brewpub",
    "street": "78 Franklin St",
    "city": "Norwich",
    "state": "Connecticut",
    "postal_code": "06360-5806",
    "website_url": "http://www.theseguysbrewig.com",
    "phone": "8609498550",
    "created_at": "2018-07-24 01:33:10.226222",
    "updated_at": "2018-08-24 00:25:53.338704",
    "country": "United States",
    "longitude": "-72.0747435228004",
    "latitude": "41.5248764584876"
  },
  {
    "id": "1726",
    "name": "Thomas Hooker Brewing Co LLC",
    "brewery_type": "micro",
    "street": "16 Tobey Rd",
    "city": "Bloomfield",
    "state": "Connecticut",
    "postal_code": "06002-3522",
    "website_url": "http://www.hookerbeer.com",
    "phone": "8602423111",
    "created_at": "2018-07-24 01:33:10.265174",
    "updated_at": "2018-08-24 00:25:54.35276",
    "country": "United States",
    "longitude": "-72.7115431",
    "latitude": "41.8089235"
  },
  {
    "id": "1728",
    "name": "Two Roads Brewing Co",
    "brewery_type": "regional",
    "street": "1700 Stratford Ave",
    "city": "Stratford",
    "state": "Connecticut",
    "postal_code": "06615-6419",
    "website_url": "http://www.tworoadsbrewing.com",
    "phone": "2033352010",
    "created_at": "2018-07-24 01:33:10.300045",
    "updated_at": "2018-08-24 00:25:55.000603",
    "country": "United States",
    "longitude": "-73.151247",
    "latitude": "41.184374"
  },
  {
    "id": "1731",
    "name": "Willimantic Brewing Co and Main Street Cafe",
    "brewery_type": "brewpub",
    "street": "967 Main St",
    "city": "Willimantic",
    "state": "Connecticut",
    "postal_code": "06226-2330",
    "website_url": "http://www.willibrew.com",
    "phone": "8604236777",
    "created_at": "2018-07-24 01:33:10.348637",
    "updated_at": "2018-08-24 00:25:56.024818",
    "country": "United States",
    "longitude": "-72.2171493809593",
    "latitude": "41.7131866"
  },
  {
    "id": "1732",
    "name": "Witchdoctor Brewing Company",
    "brewery_type": "micro",
    "street": "168 Center St",
    "city": "Southington",
    "state": "Connecticut",
    "postal_code": "06489",
    "website_url": "http://www.witchdoctorbrewing.com",
    "phone": "8604261924",
    "created_at": "2018-07-24 01:33:10.363694",
    "updated_at": "2018-08-24 00:25:56.528496",
    "country": "United States",
    "longitude": "-72.8814255526316",
    "latitude": "41.6016981315789"
  },
  {
    "id": "1643",
    "name": "Back East Brewing",
    "brewery_type": "micro",
    "street": "1296 Blue Hills Ave Ste A",
    "city": "Bloomfield",
    "state": "Connecticut",
    "postal_code": "06002-5312",
    "website_url": "http://www.backeastbrewing.com",
    "phone": "8602421793",
    "created_at": "2018-07-24 01:33:09.070324",
    "updated_at": "2018-08-11 21:36:45.155994",
    "country": "United States",
    "longitude": "",
    "latitude": ""
  },
  {
    "id": "1664",
    "name": "City Steam Brewery",
    "brewery_type": "brewpub",
    "street": "942 Main St Lbby 3",
    "city": "Hartford",
    "state": "Connecticut",
    "postal_code": "06103-1215",
    "website_url": "http://www.citysteam.biz",
    "phone": "8605251600",
    "created_at": "2018-07-24 01:33:09.362882",
    "updated_at": "2018-08-11 21:36:45.967378",
    "country": "United States",
    "longitude": "",
    "latitude": ""
  },
  {
    "id": "1679",
    "name": "Firefly Hollow Brewing Co.",
    "brewery_type": "micro",
    "street": "139 Center St Ste 5005",
    "city": "Bristol",
    "state": "Connecticut",
    "postal_code": "06010-5086",
    "website_url": "http://www.fireflyhollowbrewing.com",
    "phone": "8608458977",
    "created_at": "2018-07-24 01:33:09.566212",
    "updated_at": "2018-08-11 21:36:46.413843",
    "country": "United States",
    "longitude": "",
    "latitude": ""
  },
  {
    "id": "1681",
    "name": "Forest City Brewing",
    "brewery_type": "micro",
    "street": "180 Johnson St.",
    "city": "Middlefield",
    "state": "Connecticut",
    "postal_code": "06455",
    "website_url": "",
    "phone": "8607882138",
    "created_at": "2018-07-24 01:33:09.594277",
    "updated_at": "2018-08-11 21:36:46.481959",
    "country": "United States",
    "longitude": "",
    "latitude": ""
  },
  {
    "id": "1683",
    "name": "Front Porch Brewing",
    "brewery_type": "micro",
    "street": "226 N. Plains Industrial Rd Unit 4",
    "city": "Wallingford",
    "state": "Connecticut",
    "postal_code": "06492-2397",
    "website_url": "http://www.frontporchbrewing.org",
    "phone": "2036791096",
    "created_at": "2018-07-24 01:33:09.619351",
    "updated_at": "2018-08-11 21:36:46.551992",
    "country": "United States",
    "longitude": "",
    "latitude": ""
  },
  {
    "id": "1716",
    "name": "Steady Habit Brewing Company",
    "brewery_type": "micro",
    "street": "95 Bridge Rd",
    "city": "Haddam",
    "state": "Connecticut",
    "postal_code": "06438-1354",
    "website_url": "",
    "phone": "8607775041",
    "created_at": "2018-07-24 01:33:10.094367",
    "updated_at": "2018-08-11 21:36:47.468527",
    "country": "United States",
    "longitude": "",
    "latitude": ""
  },
  {
    "id": "1717",
    "name": "Still HIll Brewery LLC",
    "brewery_type": "micro",
    "street": "1275 Cromwell Ave Ste C8 Unit 9",
    "city": "Rocky Hill",
    "state": "Connecticut",
    "postal_code": "06067-3430",
    "website_url": "http://www.stillhillbrewery.com",
    "phone": "8604366368",
    "created_at": "2018-07-24 01:33:10.114732",
    "updated_at": "2018-08-11 21:36:47.494495",
    "country": "United States",
    "longitude": "",
    "latitude": ""
  },
  {
    "id": "1680",
    "name": "Five Churches Brewing",
    "brewery_type": "brewpub",
    "street": "193 Arch St",
    "city": "New Britain",
    "state": "Connecticut",
    "postal_code": "06051-2516",
    "website_url": "http://www.facebook.com/FiveChurchesBrewing",
    "phone": "8602238080",
    "created_at": "2018-07-24 01:33:09.580065",
    "updated_at": "2018-08-24 00:25:37.183033",
    "country": "United States",
    "longitude": "-72.782706",
    "latitude": "41.662994"
  },
  {
    "id": "1682",
    "name": "Fox Farm Brewery",
    "brewery_type": "micro",
    "street": "62 Music Vale Rd",
    "city": "Salem",
    "state": "Connecticut",
    "postal_code": "06420-3847",
    "website_url": "http://foxfarmbeer.com",
    "phone": "8602870076",
    "created_at": "2018-07-24 01:33:09.607026",
    "updated_at": "2018-08-24 00:25:38.289501",
    "country": "United States",
    "longitude": "-72.2678850580078",
    "latitude": "41.4837007101622"
  },
  {
    "id": "1733",
    "name": "Woodbury Brewing Company",
    "brewery_type": "brewpub",
    "street": "738 Main St",
    "city": "Woodbury",
    "state": "Connecticut",
    "postal_code": "06798-0083",
    "website_url": "http://www.woodburybrewingcompany.com",
    "phone": "2039108955",
    "created_at": "2018-07-24 01:33:10.377741",
    "updated_at": "2018-08-24 00:25:57.032224",
    "country": "United States",
    "longitude": "-73.2070509",
    "latitude": "41.5385323"
  },
  {
    "id": "1646",
    "name": "Beaver Beer Co",
    "brewery_type": "contract",
    "street": "307 Greens Farms Rd",
    "city": "Westport",
    "state": "Connecticut",
    "postal_code": "06880-6227",
    "website_url": "http://www.beaverbeer.com",
    "phone": "",
    "created_at": "2018-07-24 01:33:09.107595",
    "updated_at": "2018-08-24 00:25:23.884827",
    "country": "United States",
    "longitude": "-73.311685",
    "latitude": "41.12587"
  },
  {
    "id": "1651",
    "name": "Brass Works Brewing Company LLC",
    "brewery_type": "micro",
    "street": "2066 Thomaston Ave",
    "city": "Waterbury",
    "state": "Connecticut",
    "postal_code": "06704-1038",
    "website_url": "http://www.brassworksbrewing.com",
    "phone": "2035276223",
    "created_at": "2018-07-24 01:33:09.172873",
    "updated_at": "2018-08-24 00:25:27.172675",
    "country": "United States",
    "longitude": "-73.0575366209305",
    "latitude": "41.5974763265155"
  },
  {
    "id": "1659",
    "name": "BruRm At Bar",
    "brewery_type": "brewpub",
    "street": "254 Crown St",
    "city": "New Haven",
    "state": "Connecticut",
    "postal_code": "06511-6610",
    "website_url": "http://www.barnightclub.com",
    "phone": "2034958924",
    "created_at": "2018-07-24 01:33:09.297086",
    "updated_at": "2018-08-24 00:25:29.704676",
    "country": "United States",
    "longitude": "-72.9302577",
    "latitude": "41.3061639"
  },
  {
    "id": "1668",
    "name": "Connecticut Valley Brewing Company",
    "brewery_type": "micro",
    "street": "765 Sullivan Ave",
    "city": "South Windsor",
    "state": "Connecticut",
    "postal_code": "06074-1945",
    "website_url": "http://www.ctvalleybrewing.com",
    "phone": "8606442707",
    "created_at": "2018-07-24 01:33:09.416723",
    "updated_at": "2018-08-24 00:25:32.911901",
    "country": "United States",
    "longitude": "-72.5714790446604",
    "latitude": "41.8487282897209"
  },
  {
    "id": "1670",
    "name": "Counterweight Brewing Company",
    "brewery_type": "micro",
    "street": "23 Raccio Park Rd",
    "city": "Hamden",
    "state": "Connecticut",
    "postal_code": "06514-1331",
    "website_url": "http://www.Counterweightbrewing.com",
    "phone": "2038217333",
    "created_at": "2018-07-24 01:33:09.446594",
    "updated_at": "2018-08-24 00:25:33.898051",
    "country": "United States",
    "longitude": "-72.9195534130741",
    "latitude": "41.3932116686678"
  },
  {
    "id": "1706",
    "name": "Nod Hill Brewery",
    "brewery_type": "micro",
    "street": "137 Ethan Allen Hwy",
    "city": "Ridgefield",
    "state": "Connecticut",
    "postal_code": "06877-6238",
    "website_url": "http://www.nodhillbrewery.com",
    "phone": "2036171191",
    "created_at": "2018-07-24 01:33:09.922333",
    "updated_at": "2018-08-24 00:25:45.771755",
    "country": "United States",
    "longitude": "-73.4438849111635",
    "latitude": "41.2731614754047"
  },
  {
    "id": "1725",
    "name": "Thimble Island Brewery",
    "brewery_type": "micro",
    "street": "16 Business Park Dr",
    "city": "Branford",
    "state": "Connecticut",
    "postal_code": "06405-2924",
    "website_url": "http://www.thimbleislandbrewery.com",
    "phone": "2032082827",
    "created_at": "2018-07-24 01:33:10.244971",
    "updated_at": "2018-08-24 00:25:53.876719",
    "country": "United States",
    "longitude": "-72.7720276806763",
    "latitude": "41.2969578585427"
  },
  {
    "id": "1665",
    "name": "Cliffside Brewing",
    "brewery_type": "micro",
    "street": "16B Center St",
    "city": "Wallingford",
    "state": "Connecticut",
    "postal_code": "06492-4110",
    "website_url": "http://www.cliffsidebrewing.com",
    "phone": "",
    "created_at": "2018-07-24 01:33:09.376779",
    "updated_at": "2018-08-24 00:25:31.874925",
    "country": "United States",
    "longitude": "-72.8236736045008",
    "latitude": "41.4566458293791"
  },
  {
    "id": "1727",
    "name": "Tox Brewing Company",
    "brewery_type": "planning",
    "street": "",
    "city": "New London",
    "state": "Connecticut",
    "postal_code": "06320",
    "website_url": "http://www.toxbrewing.com",
    "phone": "",
    "created_at": "2018-07-24 01:33:10.285433",
    "updated_at": "2018-08-11 21:36:47.789649",
    "country": "United States",
    "longitude": "",
    "latitude": ""
  },
  {
    "id": "1663",
    "name": "Church Owl Beer",
    "brewery_type": "micro",
    "street": "",
    "city": "Stratford",
    "state": "Connecticut",
    "postal_code": "06615-7320",
    "website_url": "http://www.churchowlbeer.com",
    "phone": "",
    "created_at": "2018-07-24 01:33:09.350111",
    "updated_at": "2018-08-11 21:36:45.918623",
    "country": "United States",
    "longitude": "",
    "latitude": ""
  },
  {
    "id": "1637",
    "name": "The Beer'd Brewing Company",
    "brewery_type": "micro",
    "street": "22 Bayview Ave Ste 15",
    "city": "Stonington",
    "state": "Connecticut",
    "postal_code": "06378-1143",
    "website_url": "http://www.beerdbrewing.com",
    "phone": "8602139307",
    "created_at": "2018-07-24 01:33:08.996131",
    "updated_at": "2018-08-11 21:36:44.884434",
    "country": "United States",
    "longitude": "",
    "latitude": ""
  },
  {
    "id": "1638",
    "name": "30 Mile Brewing Co.",
    "brewery_type": "micro",
    "street": "39 Ragged Rock Rd Unit 5",
    "city": "Old Saybrook",
    "state": "Connecticut",
    "postal_code": "06475-1518",
    "website_url": "http://www.30milebrewingco.com",
    "phone": "8603395238",
    "created_at": "2018-07-24 01:33:09.008377",
    "updated_at": "2018-08-11 21:36:44.912902",
    "country": "United States",
    "longitude": "",
    "latitude": ""
  },
  {
    "id": "1639",
    "name": "Alvarium Beer Company",
    "brewery_type": "micro",
    "street": "365 John Downey Dr Ste B",
    "city": "New Britain",
    "state": "Connecticut",
    "postal_code": "06051-2922",
    "website_url": "http://www.alvariumbeer.com",
    "phone": "8603572039",
    "created_at": "2018-07-24 01:33:09.020592",
    "updated_at": "2018-08-11 21:36:44.941321",
    "country": "United States",
    "longitude": "",
    "latitude": ""
  },
  {
    "id": "1642",
    "name": "Athletic Brewing Company",
    "brewery_type": "planning",
    "street": "",
    "city": "Stratford",
    "state": "Connecticut",
    "postal_code": "06615-7167",
    "website_url": "http://www.AthleticBrewing.com",
    "phone": "2032730422",
    "created_at": "2018-07-24 01:33:09.056295",
    "updated_at": "2018-08-11 21:36:45.12759",
    "country": "United States",
    "longitude": "",
    "latitude": ""
  },
  {
    "id": "1645",
    "name": "Barley Head Brewery",
    "brewery_type": "micro",
    "street": "12 Water St 1A",
    "city": "Mystic",
    "state": "Connecticut",
    "postal_code": "06355",
    "website_url": "http://www.barleyheadbrewery.com",
    "phone": "",
    "created_at": "2018-07-24 01:33:09.094995",
    "updated_at": "2018-08-11 21:36:45.240309",
    "country": "United States",
    "longitude": "",
    "latitude": ""
  },
  {
    "id": "1647",
    "name": "Black Hog Brewing Co",
    "brewery_type": "micro",
    "street": "115 Hurley Road, Building 9A",
    "city": "Oxford",
    "state": "Connecticut",
    "postal_code": "06478-1047",
    "website_url": "http://www.blackhogbrewing.com",
    "phone": "2032626075",
    "created_at": "2018-07-24 01:33:09.121279",
    "updated_at": "2018-08-11 21:36:45.323826",
    "country": "United States",
    "longitude": "",
    "latitude": ""
  },
  {
    "id": "1640",
    "name": "Armada Brewing",
    "brewery_type": "contract",
    "street": "250 Bradley Street",
    "city": "East Haven",
    "state": "Connecticut",
    "postal_code": "06512",
    "website_url": "http://www.armadabeer.com",
    "phone": "4754413759",
    "created_at": "2018-07-24 01:33:09.032401",
    "updated_at": "2018-08-24 00:25:21.160808",
    "country": "United States",
    "longitude": "-72.8739756331215",
    "latitude": "41.2900430077911"
  },
  {
    "id": "1641",
    "name": "Aspetuck Brew Lab",
    "brewery_type": "micro",
    "street": "3389 Fairfield Avenue",
    "city": "Bridgeport",
    "state": "Connecticut",
    "postal_code": "06605",
    "website_url": "http://www.aspetuckbrewlab.com",
    "phone": "2032539423",
    "created_at": "2018-07-24 01:33:09.044235",
    "updated_at": "2018-08-24 00:25:21.671247",
    "country": "United States",
    "longitude": "-73.2357109",
    "latitude": "41.1544649"
  },
  {
    "id": "1644",
    "name": "BADSONS Beer Co",
    "brewery_type": "micro",
    "street": "251 Roosevelt Dr",
    "city": "Derby",
    "state": "Connecticut",
    "postal_code": "06418-1665",
    "website_url": "http://www.badsoons.com",
    "phone": "2033082654",
    "created_at": "2018-07-24 01:33:09.082802",
    "updated_at": "2018-08-24 00:25:22.766513",
    "country": "United States",
    "longitude": "-73.1322771",
    "latitude": "41.3513647"
  },
  {
    "id": "1648",
    "name": "Black Pond Brews",
    "brewery_type": "micro",
    "street": "21A Furnace St",
    "city": "Danielson",
    "state": "Connecticut",
    "postal_code": "06239-3040",
    "website_url": "http://www.blackpondbrews.com",
    "phone": "8602075295",
    "created_at": "2018-07-24 01:33:09.133989",
    "updated_at": "2018-08-24 00:25:24.980232",
    "country": "United States",
    "longitude": "-71.8839447345293",
    "latitude": "41.8047008489267"
  },
  {
    "id": "1650",
    "name": "Boondoggle Brewing",
    "brewery_type": "contract",
    "street": "553 Maple St",
    "city": "Wethersfield",
    "state": "Connecticut",
    "postal_code": "06109-3732",
    "website_url": "http://www.boondogglebeers.com",
    "phone": "8603367366",
    "created_at": "2018-07-24 01:33:09.160507",
    "updated_at": "2018-08-24 00:25:25.805543",
    "country": "United States",
    "longitude": "-72.6645867664619",
    "latitude": "41.6838886994306"
  },
  {
    "id": "1652",
    "name": "Brewery in Planning - Bristol",
    "brewery_type": "planning",
    "street": "",
    "city": "Bristol",
    "state": "Connecticut",
    "postal_code": "06010-7955",
    "website_url": "http://www.hopculturefarms.com",
    "phone": "8603059556",
    "created_at": "2018-07-24 01:33:09.18522",
    "updated_at": "2018-08-11 21:36:45.456847",
    "country": "United States",
    "longitude": "",
    "latitude": ""
  },
  {
    "id": "1653",
    "name": "Brewery In Planning - CT",
    "brewery_type": "planning",
    "street": "",
    "city": "Mistic",
    "state": "Connecticut",
    "postal_code": "06355-2546",
    "website_url": "",
    "phone": "8603152470",
    "created_at": "2018-07-24 01:33:09.198231",
    "updated_at": "2018-08-11 21:36:45.49277",
    "country": "United States",
    "longitude": "",
    "latitude": ""
  },
  {
    "id": "1654",
    "name": "Brewery Legitimus",
    "brewery_type": "micro",
    "street": "283 Main St",
    "city": "New Hartford",
    "state": "Connecticut",
    "postal_code": "06057-2750",
    "website_url": "http://www.brewerylegitimus.com",
    "phone": "8608108894",
    "created_at": "2018-07-24 01:33:09.212948",
    "updated_at": "2018-08-11 21:36:45.536807",
    "country": "United States",
    "longitude": "",
    "latitude": ""
  },
  {
    "id": "1657",
    "name": "Broad Leaf Farm Brewery",
    "brewery_type": "planning",
    "street": "",
    "city": "South Glastonbury",
    "state": "Connecticut",
    "postal_code": "06073-2017",
    "website_url": "",
    "phone": "2158057228",
    "created_at": "2018-07-24 01:33:09.26007",
    "updated_at": "2018-08-11 21:36:45.674159",
    "country": "United States",
    "longitude": "",
    "latitude": ""
  },
  {
    "id": "1661",
    "name": "Center Street Brewing Company",
    "brewery_type": "planning",
    "street": "",
    "city": "Wallingford",
    "state": "Connecticut",
    "postal_code": "06492",
    "website_url": "http://n/a",
    "phone": "",
    "created_at": "2018-07-24 01:33:09.324804",
    "updated_at": "2018-08-11 21:36:45.849957",
    "country": "United States",
    "longitude": "",
    "latitude": ""
  },
  {
    "id": "1667",
    "name": "Coles Road Brewing",
    "brewery_type": "planning",
    "street": "",
    "city": "Cromwell",
    "state": "Connecticut",
    "postal_code": "06416-1113",
    "website_url": "http://ColesRoadBrewing.com",
    "phone": "",
    "created_at": "2018-07-24 01:33:09.403372",
    "updated_at": "2018-08-11 21:36:46.076408",
    "country": "United States",
    "longitude": "",
    "latitude": ""
  },
  {
    "id": "1671",
    "name": "Dockside Waterfront Biergarten and Brewery",
    "brewery_type": "planning",
    "street": "",
    "city": "Milford",
    "state": "Connecticut",
    "postal_code": "06460",
    "website_url": "",
    "phone": "",
    "created_at": "2018-07-24 01:33:09.460742",
    "updated_at": "2018-08-11 21:36:46.20351",
    "country": "United States",
    "longitude": "",
    "latitude": ""
  },
  {
    "id": "1673",
    "name": "Duvig Brewing Co",
    "brewery_type": "micro",
    "street": "59 School Ground Rd Ste 10",
    "city": "Branford",
    "state": "Connecticut",
    "postal_code": "06405-2868",
    "website_url": "http://www.duvig.com",
    "phone": "2032082213",
    "created_at": "2018-07-24 01:33:09.489019",
    "updated_at": "2018-08-11 21:36:46.228491",
    "country": "United States",
    "longitude": "",
    "latitude": ""
  },
  {
    "id": "1674",
    "name": "East Rock Brewing Company",
    "brewery_type": "planning",
    "street": "",
    "city": "New Haven",
    "state": "Connecticut",
    "postal_code": "06511-2625",
    "website_url": "http://www.eastrockbeer.com",
    "phone": "2035303484",
    "created_at": "2018-07-24 01:33:09.501259",
    "updated_at": "2018-08-11 21:36:46.256404",
    "country": "United States",
    "longitude": "",
    "latitude": ""
  },
  {
    "id": "1677",
    "name": "Fat Orange Cat Brew Co",
    "brewery_type": "micro",
    "street": "",
    "city": "East Hampton",
    "state": "Connecticut",
    "postal_code": "06424-1636",
    "website_url": "http://www.fatorangecatbrewco.com",
    "phone": "8608818045",
    "created_at": "2018-07-24 01:33:09.540158",
    "updated_at": "2018-08-11 21:36:46.350609",
    "country": "United States",
    "longitude": "",
    "latitude": ""
  },
  {
    "id": "1678",
    "name": "Fifth Year Brewery",
    "brewery_type": "planning",
    "street": "",
    "city": "West Haven",
    "state": "Connecticut",
    "postal_code": "06516-7515",
    "website_url": "",
    "phone": "",
    "created_at": "2018-07-24 01:33:09.553694",
    "updated_at": "2018-08-11 21:36:46.382701",
    "country": "United States",
    "longitude": "",
    "latitude": ""
  },
  {
    "id": "1684",
    "name": "Great Falls Brewing Company",
    "brewery_type": "planning",
    "street": "",
    "city": "Canaan",
    "state": "Connecticut",
    "postal_code": "06018",
    "website_url": "http://GreatFallsBrews.com",
    "phone": "8609217843",
    "created_at": "2018-07-24 01:33:09.632288",
    "updated_at": "2018-08-11 21:36:46.584905",
    "country": "United States",
    "longitude": "",
    "latitude": ""
  },
  {
    "id": "1687",
    "name": "Hammer & Nail Brewing",
    "brewery_type": "planning",
    "street": "",
    "city": "Trumbull",
    "state": "Connecticut",
    "postal_code": "06611-4975",
    "website_url": "http://www.HammerNailBrewing.com",
    "phone": "2032404987",
    "created_at": "2018-07-24 01:33:09.669964",
    "updated_at": "2018-08-11 21:36:46.645407",
    "country": "United States",
    "longitude": "",
    "latitude": ""
  },
  {
    "id": "1690",
    "name": "Housatonic River Brewing",
    "brewery_type": "planning",
    "street": "",
    "city": "New Milford",
    "state": "Connecticut",
    "postal_code": "06776-3404",
    "website_url": "http://www.housatonicriverbrewing.com",
    "phone": "8609460266",
    "created_at": "2018-07-24 01:33:09.709274",
    "updated_at": "2018-08-11 21:36:46.726497",
    "country": "United States",
    "longitude": "",
    "latitude": ""
  },
  {
    "id": "1691",
    "name": "HRG Management, LLC",
    "brewery_type": "planning",
    "street": "",
    "city": "Hartford",
    "state": "Connecticut",
    "postal_code": "06109",
    "website_url": "",
    "phone": "",
    "created_at": "2018-07-24 01:33:09.721186",
    "updated_at": "2018-08-11 21:36:46.75363",
    "country": "United States",
    "longitude": "",
    "latitude": ""
  },
  {
    "id": "1693",
    "name": "Jovial Foods, Inc.",
    "brewery_type": "planning",
    "street": "",
    "city": "North Stonington",
    "state": "Connecticut",
    "postal_code": "06359-1713",
    "website_url": "http://www.jovialfoods.com",
    "phone": "8605350494",
    "created_at": "2018-07-24 01:33:09.746675",
    "updated_at": "2018-08-11 21:36:46.809688",
    "country": "United States",
    "longitude": "",
    "latitude": ""
  },
  {
    "id": "1694",
    "name": "Kent Falls Brewing Company",
    "brewery_type": "micro",
    "street": "",
    "city": "Kent",
    "state": "Connecticut",
    "postal_code": "06757",
    "website_url": "",
    "phone": "8603989645",
    "created_at": "2018-07-24 01:33:09.763193",
    "updated_at": "2018-08-11 21:36:46.836532",
    "country": "United States",
    "longitude": "",
    "latitude": ""
  },
  {
    "id": "1696",
    "name": "Labyrinth Brewing Company",
    "brewery_type": "planning",
    "street": "",
    "city": "Manchester",
    "state": "Connecticut",
    "postal_code": "06040-5906",
    "website_url": "http://www.LBC.Beer",
    "phone": "",
    "created_at": "2018-07-24 01:33:09.793755",
    "updated_at": "2018-08-11 21:36:46.894976",
    "country": "United States",
    "longitude": "",
    "latitude": ""
  },
  {
    "id": "1698",
    "name": "Little House Brewing Company",
    "brewery_type": "planning",
    "street": "",
    "city": "Chester",
    "state": "Connecticut",
    "postal_code": "06412-1342",
    "website_url": "http://www.littlehousebrewing.com",
    "phone": "6128105315",
    "created_at": "2018-07-24 01:33:09.819178",
    "updated_at": "2018-08-11 21:36:46.95171",
    "country": "United States",
    "longitude": "",
    "latitude": ""
  },
  {
    "id": "1699",
    "name": "Little Red Barn Brewing",
    "brewery_type": "planning",
    "street": "",
    "city": "Winsted",
    "state": "Connecticut",
    "postal_code": "06098-1410",
    "website_url": "http://LRBbrewers.com",
    "phone": "8603873536",
    "created_at": "2018-07-24 01:33:09.833264",
    "updated_at": "2018-08-11 21:36:46.98833",
    "country": "United States",
    "longitude": "",
    "latitude": ""
  },
  {
    "id": "1701",
    "name": "Lost Elm Artisanal Ales",
    "brewery_type": "micro",
    "street": "25 West St Unit 4",
    "city": "Stafford Springs",
    "state": "Connecticut",
    "postal_code": "06076-1325",
    "website_url": "http://www.lostelmbeer.com",
    "phone": "",
    "created_at": "2018-07-24 01:33:09.858822",
    "updated_at": "2018-08-11 21:36:47.050835",
    "country": "United States",
    "longitude": "",
    "latitude": ""
  },
  {
    "id": "1702",
    "name": "Lost Viking Brewing Company",
    "brewery_type": "planning",
    "street": "",
    "city": "Harwinton",
    "state": "Connecticut",
    "postal_code": "06013",
    "website_url": "http://www.lostvikingbrew.com",
    "phone": "2035256196",
    "created_at": "2018-07-24 01:33:09.871385",
    "updated_at": "2018-08-11 21:36:47.082018",
    "country": "United States",
    "longitude": "",
    "latitude": ""
  },
  {
    "id": "1703",
    "name": "Milford Point Brewing Company",
    "brewery_type": "micro",
    "street": "230 Woodmont Rd Ste 29B",
    "city": "Milford",
    "state": "Connecticut",
    "postal_code": "06460",
    "website_url": "",
    "phone": "2037019077",
    "created_at": "2018-07-24 01:33:09.884272",
    "updated_at": "2018-08-11 21:36:47.111597",
    "country": "United States",
    "longitude": "",
    "latitude": ""
  },
  {
    "id": "1705",
    "name": "No Worries Brewing Company",
    "brewery_type": "micro",
    "street": "2520 State St",
    "city": "Hamden",
    "state": "Connecticut",
    "postal_code": "06517-3004",
    "website_url": "http://www.noworriesbeer.com",
    "phone": "2036916662",
    "created_at": "2018-07-24 01:33:09.908997",
    "updated_at": "2018-08-11 21:36:47.163661",
    "country": "United States",
    "longitude": "",
    "latitude": ""
  },
  {
    "id": "1655",
    "name": "Brewport Brewing Co",
    "brewery_type": "brewpub",
    "street": "225 S Frontage Rd",
    "city": "Bridgeport",
    "state": "Connecticut",
    "postal_code": "06604-5031",
    "website_url": "http://www.brewportct.com",
    "phone": "2036124438",
    "created_at": "2018-07-24 01:33:09.227748",
    "updated_at": "2018-08-24 00:25:28.136769",
    "country": "United States",
    "longitude": "-73.1923862727273",
    "latitude": "41.170877"
  },
  {
    "id": "1656",
    "name": "Broad Brook Brewing Company",
    "brewery_type": "micro",
    "street": "915 South St",
    "city": "Suffield",
    "state": "Connecticut",
    "postal_code": "06078",
    "website_url": "http://www.broadbrookbrewing.com",
    "phone": "8606231000",
    "created_at": "2018-07-24 01:33:09.242944",
    "updated_at": "2018-08-24 00:25:28.634574",
    "country": "United States",
    "longitude": "-72.6626646301082",
    "latitude": "41.9620078477925"
  },
  {
    "id": "1658",
    "name": "Broken Symmetry Gastro Brewery",
    "brewery_type": "brewpub",
    "street": "5 Depot Pl",
    "city": "Bethel",
    "state": "Connecticut",
    "postal_code": "06801-2507",
    "website_url": "",
    "phone": "2037311735",
    "created_at": "2018-07-24 01:33:09.273516",
    "updated_at": "2018-08-24 00:25:29.149789",
    "country": "United States",
    "longitude": "-73.4142477614171",
    "latitude": "41.3709733353379"
  },
  {
    "id": "1660",
    "name": "Cambridge House Brew Pub - Granby",
    "brewery_type": "brewpub",
    "street": "357 Salmon Brook St",
    "city": "Granby",
    "state": "Connecticut",
    "postal_code": "06035-0438",
    "website_url": "http://www.cbh.beer",
    "phone": "8606532739",
    "created_at": "2018-07-24 01:33:09.312694",
    "updated_at": "2018-08-24 00:25:30.201358",
    "country": "United States",
    "longitude": "-72.7925953940791",
    "latitude": "41.9663141364589"
  },
  {
    "id": "1662",
    "name": "Charter Oak Brewing Company LLC",
    "brewery_type": "contract",
    "street": "39B Shelter Rock Rd",
    "city": "Danbury",
    "state": "Connecticut",
    "postal_code": "06810-7043",
    "website_url": "http://www.charteroakbrewing.com",
    "phone": "2036165268",
    "created_at": "2018-07-24 01:33:09.337139",
    "updated_at": "2018-08-24 00:25:30.749973",
    "country": "United States",
    "longitude": "-73.4042171054818",
    "latitude": "41.3961903023823"
  },
  {
    "id": "1666",
    "name": "Cold Creek Brewery",
    "brewery_type": "micro",
    "street": "6 Industrial Dr",
    "city": "Ellington",
    "state": "Connecticut",
    "postal_code": "06029-2632",
    "website_url": "http://coldcreekbrewery.com",
    "phone": "8608581900",
    "created_at": "2018-07-24 01:33:09.390018",
    "updated_at": "2018-08-24 00:25:32.355319",
    "country": "United States",
    "longitude": "-72.456028",
    "latitude": "41.9209531"
  },
  {
    "id": "1669",
    "name": "Cottrell Brewing Co",
    "brewery_type": "micro",
    "street": "100 Mechanic St",
    "city": "Pawcatuck",
    "state": "Connecticut",
    "postal_code": "06379-2163",
    "website_url": "http://www.cottrellbrewing.com",
    "phone": "8605998213",
    "created_at": "2018-07-24 01:33:09.430079",
    "updated_at": "2018-08-24 00:25:33.388163",
    "country": "United States",
    "longitude": "-71.834289",
    "latitude": "41.370676"
  },
  {
    "id": "1675",
    "name": "Epicure Brewing",
    "brewery_type": "micro",
    "street": "40 Franklin St",
    "city": "Norwich",
    "state": "Connecticut",
    "postal_code": "06360-",
    "website_url": "http://www.epicurebrewing.com",
    "phone": "8603770789",
    "created_at": "2018-07-24 01:33:09.514504",
    "updated_at": "2018-08-24 00:25:35.668619",
    "country": "United States",
    "longitude": "-72.0743747727273",
    "latitude": "41.5252134090909"
  },
  {
    "id": "1676",
    "name": "Fairfield Craft Ales",
    "brewery_type": "micro",
    "street": "724 Honeyspot Rd",
    "city": "Stratford",
    "state": "Connecticut",
    "postal_code": "06615-7109",
    "website_url": "http://www.fairfieldcraftales.com",
    "phone": "2032962530",
    "created_at": "2018-07-24 01:33:09.527345",
    "updated_at": "2018-08-24 00:25:36.142256",
    "country": "United States",
    "longitude": "-73.147028319681",
    "latitude": "41.1756581581267"
  },
  {
    "id": "1686",
    "name": "Half Full Brewery",
    "brewery_type": "micro",
    "street": "43 Homestead Ave",
    "city": "Stamford",
    "state": "Connecticut",
    "postal_code": "06902-7204",
    "website_url": "http://www.halffullbrewery.com",
    "phone": "2032748788",
    "created_at": "2018-07-24 01:33:09.657757",
    "updated_at": "2018-08-24 00:25:39.424978",
    "country": "United States",
    "longitude": "-73.5495913458561",
    "latitude": "41.039332258981"
  },
  {
    "id": "1688",
    "name": "Hanging Hills Brewing Company",
    "brewery_type": "micro",
    "street": "150 Ledyard St",
    "city": "Hartford",
    "state": "Connecticut",
    "postal_code": "06114-1403",
    "website_url": "http://www.hanginghillsbrewery.com",
    "phone": "8602637033",
    "created_at": "2018-07-24 01:33:09.683325",
    "updated_at": "2018-08-24 00:25:40.048668",
    "country": "United States",
    "longitude": "-72.6701173267628",
    "latitude": "41.7448124315195"
  },
  {
    "id": "1689",
    "name": "Hog River Brewing Co",
    "brewery_type": "micro",
    "street": "1429 Park St",
    "city": "Hartford",
    "state": "Connecticut",
    "postal_code": "06106-2236",
    "website_url": "http://www.hogriverbrewing.com",
    "phone": "8602062119",
    "created_at": "2018-07-24 01:33:09.696495",
    "updated_at": "2018-08-24 00:25:40.708271",
    "country": "United States",
    "longitude": "-72.7018274498041",
    "latitude": "41.7579985579"
  },
  {
    "id": "1692",
    "name": "Iron Brewing Company",
    "brewery_type": "brewpub",
    "street": "136 Washington St",
    "city": "Norwalk",
    "state": "Connecticut",
    "postal_code": "06854",
    "website_url": "http://www.ironbrewing.com",
    "phone": "2033544010",
    "created_at": "2018-07-24 01:33:09.734238",
    "updated_at": "2018-08-24 00:25:41.198368",
    "country": "United States",
    "longitude": "-73.4173495360772",
    "latitude": "41.0988878749382"
  },
  {
    "id": "1695",
    "name": "Kinsmen Brewing",
    "brewery_type": "micro",
    "street": "409 Canal Street",
    "city": "Milldale",
    "state": "Connecticut",
    "postal_code": "06467",
    "website_url": "http://www.kinsmenbrewing.com",
    "phone": "8605784778",
    "created_at": "2018-07-24 01:33:09.779918",
    "updated_at": "2018-08-24 00:25:41.771442",
    "country": "United States",
    "longitude": "-72.9027141039072",
    "latitude": "41.566794731666"
  },
  {
    "id": "1697",
    "name": "Lasting Brass Craft Brewing",
    "brewery_type": "micro",
    "street": "1864 Watertown Ave",
    "city": "Oakville",
    "state": "Connecticut",
    "postal_code": "06779-1754",
    "website_url": "http://www.lastingbrass.com",
    "phone": "8604172581",
    "created_at": "2018-07-24 01:33:09.805901",
    "updated_at": "2018-08-24 00:25:42.374158",
    "country": "United States",
    "longitude": "-73.0716733",
    "latitude": "41.5801589"
  },
  {
    "id": "1700",
    "name": "Lock City Brewing",
    "brewery_type": "micro",
    "street": "54 Research Dr",
    "city": "Stamford",
    "state": "Connecticut",
    "postal_code": "06906-1428",
    "website_url": "http://www.lockcitybrewing.com",
    "phone": "2033136454",
    "created_at": "2018-07-24 01:33:09.846464",
    "updated_at": "2018-08-24 00:25:42.931897",
    "country": "United States",
    "longitude": "-73.5195579400781",
    "latitude": "41.0770565216944"
  },
  {
    "id": "1704",
    "name": "New England Brewing Co",
    "brewery_type": "micro",
    "street": "175 Amity Rd",
    "city": "Woodbridge",
    "state": "Connecticut",
    "postal_code": "06525-2201",
    "website_url": "http://www.newenglandbrewing.com",
    "phone": "2033872222",
    "created_at": "2018-07-24 01:33:09.896526",
    "updated_at": "2018-08-24 00:25:44.581818",
    "country": "United States",
    "longitude": "-72.980464057841",
    "latitude": "41.3385894166302"
  },
  {
    "id": "1707",
    "name": "OEC Brewing",
    "brewery_type": "micro",
    "street": "7 Fox Hollow Rd",
    "city": "Oxford",
    "state": "Connecticut",
    "postal_code": "06478-3162",
    "website_url": "http://www.oecbrewing.com",
    "phone": "2032952831",
    "created_at": "2018-07-24 01:33:09.935498",
    "updated_at": "2018-08-11 21:36:47.218336",
    "country": "United States",
    "longitude": "",
    "latitude": ""
  },
  {
    "id": "1709",
    "name": "Outer Light Brewing Company",
    "brewery_type": "micro",
    "street": "266 Bridge St Ste 1",
    "city": "Groton",
    "state": "Connecticut",
    "postal_code": "06340-3739",
    "website_url": "http://www.outerlightbrewing.com",
    "phone": "4752019972",
    "created_at": "2018-07-24 01:33:09.962381",
    "updated_at": "2018-08-11 21:36:47.270247",
    "country": "United States",
    "longitude": "",
    "latitude": ""
  },
  {
    "id": "1711",
    "name": "Pie & Pints Restaurant & Brewery",
    "brewery_type": "contract",
    "street": "",
    "city": "Oxford",
    "state": "Connecticut",
    "postal_code": "06478",
    "website_url": "http://www.piesandpints.biz",
    "phone": "2035731743",
    "created_at": "2018-07-24 01:33:09.990019",
    "updated_at": "2018-08-11 21:36:47.325044",
    "country": "United States",
    "longitude": "",
    "latitude": ""
  },
  {
    "id": "1713",
    "name": "Relic Brewing",
    "brewery_type": "micro",
    "street": "95 Whiting St Unit B",
    "city": "Plainville",
    "state": "Connecticut",
    "postal_code": "06062-2842",
    "website_url": "",
    "phone": "",
    "created_at": "2018-07-24 01:33:10.052721",
    "updated_at": "2018-08-11 21:36:47.381531",
    "country": "United States",
    "longitude": "",
    "latitude": ""
  },
  {
    "id": "1714",
    "name": "Reverie Brewing Company",
    "brewery_type": "planning",
    "street": "",
    "city": "Newtown",
    "state": "Connecticut",
    "postal_code": "06470",
    "website_url": "http://reveriebrewing.com",
    "phone": "",
    "created_at": "2018-07-24 01:33:10.065553",
    "updated_at": "2018-08-11 21:36:47.407688",
    "country": "United States",
    "longitude": "",
    "latitude": ""
  },
  {
    "id": "1719",
    "name": "Stony Creek Brewery At Foxwoods Resort Casino",
    "brewery_type": "planning",
    "street": "",
    "city": "Mashantucket",
    "state": "Connecticut",
    "postal_code": "06338-3830",
    "website_url": "",
    "phone": "8603123000",
    "created_at": "2018-07-24 01:33:10.148637",
    "updated_at": "2018-08-11 21:36:47.548941",
    "country": "United States",
    "longitude": "",
    "latitude": ""
  },
  {
    "id": "1721",
    "name": "Taylor Brooke Brewery",
    "brewery_type": "planning",
    "street": "",
    "city": "Woodstock",
    "state": "Connecticut",
    "postal_code": "06281-2930",
    "website_url": "http://www.taylorbrookewinery.com",
    "phone": "8609741263",
    "created_at": "2018-07-24 01:33:10.180501",
    "updated_at": "2018-08-11 21:36:47.602658",
    "country": "United States",
    "longitude": "",
    "latitude": ""
  },
  {
    "id": "1723",
    "name": "The Redding Beer Company",
    "brewery_type": "micro",
    "street": "7 Main St",
    "city": "Redding",
    "state": "Connecticut",
    "postal_code": "06896-3203",
    "website_url": "http://www.reddingbeer.com",
    "phone": "2035879000",
    "created_at": "2018-07-24 01:33:10.211721",
    "updated_at": "2018-08-11 21:36:47.672158",
    "country": "United States",
    "longitude": "",
    "latitude": ""
  },
  {
    "id": "1729",
    "name": "Unleashed Brewing Company",
    "brewery_type": "planning",
    "street": "",
    "city": "Stonington",
    "state": "Connecticut",
    "postal_code": "06378-1628",
    "website_url": "http://www.unleashedbrewing.com",
    "phone": "",
    "created_at": "2018-07-24 01:33:10.314994",
    "updated_at": "2018-08-11 21:36:47.84426",
    "country": "United States",
    "longitude": "",
    "latitude": ""
  },
  {
    "id": "1730",
    "name": "Veracious Brewing Company",
    "brewery_type": "micro",
    "street": "246 Main St",
    "city": "Monroe",
    "state": "Connecticut",
    "postal_code": "06468-1171",
    "website_url": "http://www.veraciousbrewing.com",
    "phone": "2038805670",
    "created_at": "2018-07-24 01:33:10.336719",
    "updated_at": "2018-08-11 21:36:47.868585",
    "country": "United States",
    "longitude": "",
    "latitude": ""
  },
  {
    "id": "1708",
    "name": "Olde Burnside Brewing Co.",
    "brewery_type": "micro",
    "street": "776 Tolland St",
    "city": "East Hartford",
    "state": "Connecticut",
    "postal_code": "06108-2727",
    "website_url": "http://www.oldeburnsidebrewing.com",
    "phone": "8605282200",
    "created_at": "2018-07-24 01:33:09.949026",
    "updated_at": "2018-08-24 00:25:46.409309",
    "country": "United States",
    "longitude": "-72.6002223820893",
    "latitude": "41.7850567012493"
  },
  {
    "id": "1710",
    "name": "Overshores Brewing Co",
    "brewery_type": "micro",
    "street": "250 Bradley St",
    "city": "East Haven",
    "state": "Connecticut",
    "postal_code": "06512-",
    "website_url": "http://www.overshores.com",
    "phone": "2039096224",
    "created_at": "2018-07-24 01:33:09.97642",
    "updated_at": "2018-08-24 00:25:47.511908",
    "country": "United States",
    "longitude": "-72.8739756331215",
    "latitude": "41.2900430077911"
  },
  {
    "id": "1712",
    "name": "Powder Hollow Brewery",
    "brewery_type": "micro",
    "street": "504 Hazard Ave",
    "city": "Enfield",
    "state": "Connecticut",
    "postal_code": "06082-",
    "website_url": "http://www.powderhollowbrewery.com",
    "phone": "8602050942",
    "created_at": "2018-07-24 01:33:10.038422",
    "updated_at": "2018-08-24 00:25:48.040962",
    "country": "United States",
    "longitude": "-72.5778709",
    "latitude": "41.9896523"
  },
  {
    "id": "1715",
    "name": "Shebeen Brewing Company",
    "brewery_type": "micro",
    "street": "1 Wolcott Rd",
    "city": "Wolcott",
    "state": "Connecticut",
    "postal_code": "06716-2611",
    "website_url": "http://www.shebeenbrewing.com",
    "phone": "2035142336",
    "created_at": "2018-07-24 01:33:10.079911",
    "updated_at": "2018-08-24 00:25:49.321407",
    "country": "United States",
    "longitude": "-73.000062",
    "latitude": "41.575855"
  },
  {
    "id": "1718",
    "name": "Stony Creek Brewery",
    "brewery_type": "regional",
    "street": "5 Indian Neck Ave",
    "city": "Branford",
    "state": "Connecticut",
    "postal_code": "06405-4615",
    "website_url": "http://www.stonycreekbeer.com",
    "phone": "2034334545",
    "created_at": "2018-07-24 01:33:10.133557",
    "updated_at": "2018-08-24 00:25:51.013202",
    "country": "United States",
    "longitude": "-72.8133036551208",
    "latitude": "41.27475355"
  },
  {
    "id": "1720",
    "name": "Stubborn Beauty Brewing",
    "brewery_type": "micro",
    "street": "180 Johnson St",
    "city": "Middletown",
    "state": "Connecticut",
    "postal_code": "06457-2247",
    "website_url": "http://www.stubbornbeauty.com",
    "phone": "8608747459",
    "created_at": "2018-07-24 01:33:10.165319",
    "updated_at": "2018-08-24 00:25:51.706751",
    "country": "United States",
    "longitude": "-72.6599074160136",
    "latitude": "41.5723325262957"
  },
  {
    "id": "1722",
    "name": "The Crossings Restaurant and Brewpub",
    "brewery_type": "brewpub",
    "street": "45 Main St",
    "city": "Putnam",
    "state": "Connecticut",
    "postal_code": "06260-1917",
    "website_url": "http://www.thecrossingsbrewpub.com",
    "phone": "8609283663",
    "created_at": "2018-07-24 01:33:10.194474",
    "updated_at": "2018-08-24 00:25:52.276787",
    "country": "United States",
    "longitude": "-71.9081681",
    "latitude": "41.9144568"
  },
  {
    "id": "1724",
    "name": "These Guys Brewing Company",
    "brewery_type": "brewpub",
    "street": "78 Franklin St",
    "city": "Norwich",
    "state": "Connecticut",
    "postal_code": "06360-5806",
    "website_url": "http://www.theseguysbrewig.com",
    "phone": "8609498550",
    "created_at": "2018-07-24 01:33:10.226222",
    "updated_at": "2018-08-24 00:25:53.338704",
    "country": "United States",
    "longitude": "-72.0747435228004",
    "latitude": "41.5248764584876"
  },
  {
    "id": "1726",
    "name": "Thomas Hooker Brewing Co LLC",
    "brewery_type": "micro",
    "street": "16 Tobey Rd",
    "city": "Bloomfield",
    "state": "Connecticut",
    "postal_code": "06002-3522",
    "website_url": "http://www.hookerbeer.com",
    "phone": "8602423111",
    "created_at": "2018-07-24 01:33:10.265174",
    "updated_at": "2018-08-24 00:25:54.35276",
    "country": "United States",
    "longitude": "-72.7115431",
    "latitude": "41.8089235"
  },
  {
    "id": "1728",
    "name": "Two Roads Brewing Co",
    "brewery_type": "regional",
    "street": "1700 Stratford Ave",
    "city": "Stratford",
    "state": "Connecticut",
    "postal_code": "06615-6419",
    "website_url": "http://www.tworoadsbrewing.com",
    "phone": "2033352010",
    "created_at": "2018-07-24 01:33:10.300045",
    "updated_at": "2018-08-24 00:25:55.000603",
    "country": "United States",
    "longitude": "-73.151247",
    "latitude": "41.184374"
  },
  {
    "id": "1731",
    "name": "Willimantic Brewing Co and Main Street Cafe",
    "brewery_type": "brewpub",
    "street": "967 Main St",
    "city": "Willimantic",
    "state": "Connecticut",
    "postal_code": "06226-2330",
    "website_url": "http://www.willibrew.com",
    "phone": "8604236777",
    "created_at": "2018-07-24 01:33:10.348637",
    "updated_at": "2018-08-24 00:25:56.024818",
    "country": "United States",
    "longitude": "-72.2171493809593",
    "latitude": "41.7131866"
  },
  {
    "id": "1732",
    "name": "Witchdoctor Brewing Company",
    "brewery_type": "micro",
    "street": "168 Center St",
    "city": "Southington",
    "state": "Connecticut",
    "postal_code": "06489",
    "website_url": "http://www.witchdoctorbrewing.com",
    "phone": "8604261924",
    "created_at": "2018-07-24 01:33:10.363694",
    "updated_at": "2018-08-24 00:25:56.528496",
    "country": "United States",
    "longitude": "-72.8814255526316",
    "latitude": "41.6016981315789"
  },
  {
    "id": "1643",
    "name": "Back East Brewing",
    "brewery_type": "micro",
    "street": "1296 Blue Hills Ave Ste A",
    "city": "Bloomfield",
    "state": "Connecticut",
    "postal_code": "06002-5312",
    "website_url": "http://www.backeastbrewing.com",
    "phone": "8602421793",
    "created_at": "2018-07-24 01:33:09.070324",
    "updated_at": "2018-08-11 21:36:45.155994",
    "country": "United States",
    "longitude": "",
    "latitude": ""
  },
  {
    "id": "1664",
    "name": "City Steam Brewery",
    "brewery_type": "brewpub",
    "street": "942 Main St Lbby 3",
    "city": "Hartford",
    "state": "Connecticut",
    "postal_code": "06103-1215",
    "website_url": "http://www.citysteam.biz",
    "phone": "8605251600",
    "created_at": "2018-07-24 01:33:09.362882",
    "updated_at": "2018-08-11 21:36:45.967378",
    "country": "United States",
    "longitude": "",
    "latitude": ""
  },
  {
    "id": "1679",
    "name": "Firefly Hollow Brewing Co.",
    "brewery_type": "micro",
    "street": "139 Center St Ste 5005",
    "city": "Bristol",
    "state": "Connecticut",
    "postal_code": "06010-5086",
    "website_url": "http://www.fireflyhollowbrewing.com",
    "phone": "8608458977",
    "created_at": "2018-07-24 01:33:09.566212",
    "updated_at": "2018-08-11 21:36:46.413843",
    "country": "United States",
    "longitude": "",
    "latitude": ""
  },
  {
    "id": "1681",
    "name": "Forest City Brewing",
    "brewery_type": "micro",
    "street": "180 Johnson St.",
    "city": "Middlefield",
    "state": "Connecticut",
    "postal_code": "06455",
    "website_url": "",
    "phone": "8607882138",
    "created_at": "2018-07-24 01:33:09.594277",
    "updated_at": "2018-08-11 21:36:46.481959",
    "country": "United States",
    "longitude": "",
    "latitude": ""
  },
  {
    "id": "1683",
    "name": "Front Porch Brewing",
    "brewery_type": "micro",
    "street": "226 N. Plains Industrial Rd Unit 4",
    "city": "Wallingford",
    "state": "Connecticut",
    "postal_code": "06492-2397",
    "website_url": "http://www.frontporchbrewing.org",
    "phone": "2036791096",
    "created_at": "2018-07-24 01:33:09.619351",
    "updated_at": "2018-08-11 21:36:46.551992",
    "country": "United States",
    "longitude": "",
    "latitude": ""
  },
  {
    "id": "1716",
    "name": "Steady Habit Brewing Company",
    "brewery_type": "micro",
    "street": "95 Bridge Rd",
    "city": "Haddam",
    "state": "Connecticut",
    "postal_code": "06438-1354",
    "website_url": "",
    "phone": "8607775041",
    "created_at": "2018-07-24 01:33:10.094367",
    "updated_at": "2018-08-11 21:36:47.468527",
    "country": "United States",
    "longitude": "",
    "latitude": ""
  },
  {
    "id": "1717",
    "name": "Still HIll Brewery LLC",
    "brewery_type": "micro",
    "street": "1275 Cromwell Ave Ste C8 Unit 9",
    "city": "Rocky Hill",
    "state": "Connecticut",
    "postal_code": "06067-3430",
    "website_url": "http://www.stillhillbrewery.com",
    "phone": "8604366368",
    "created_at": "2018-07-24 01:33:10.114732",
    "updated_at": "2018-08-11 21:36:47.494495",
    "country": "United States",
    "longitude": "",
    "latitude": ""
  },
  {
    "id": "1680",
    "name": "Five Churches Brewing",
    "brewery_type": "brewpub",
    "street": "193 Arch St",
    "city": "New Britain",
    "state": "Connecticut",
    "postal_code": "06051-2516",
    "website_url": "http://www.facebook.com/FiveChurchesBrewing",
    "phone": "8602238080",
    "created_at": "2018-07-24 01:33:09.580065",
    "updated_at": "2018-08-24 00:25:37.183033",
    "country": "United States",
    "longitude": "-72.782706",
    "latitude": "41.662994"
  },
  {
    "id": "1682",
    "name": "Fox Farm Brewery",
    "brewery_type": "micro",
    "street": "62 Music Vale Rd",
    "city": "Salem",
    "state": "Connecticut",
    "postal_code": "06420-3847",
    "website_url": "http://foxfarmbeer.com",
    "phone": "8602870076",
    "created_at": "2018-07-24 01:33:09.607026",
    "updated_at": "2018-08-24 00:25:38.289501",
    "country": "United States",
    "longitude": "-72.2678850580078",
    "latitude": "41.4837007101622"
  },
  {
    "id": "1733",
    "name": "Woodbury Brewing Company",
    "brewery_type": "brewpub",
    "street": "738 Main St",
    "city": "Woodbury",
    "state": "Connecticut",
    "postal_code": "06798-0083",
    "website_url": "http://www.woodburybrewingcompany.com",
    "phone": "2039108955",
    "created_at": "2018-07-24 01:33:10.377741",
    "updated_at": "2018-08-24 00:25:57.032224",
    "country": "United States",
    "longitude": "-73.2070509",
    "latitude": "41.5385323"
  }
]