[
  {
    "id": "1750",
    "name": "Iron Hill Brewery & Restaurant - Newark",
    "brewery_type": "brewpub",
    "street": "147 East Main St",
    "city": "Newark",
    "state": "Delaware",
    "postal_code": "19711-7313",
    "website_url": "http://www.ironhillbrewery.com",
    "phone": "3022669000",
    "created_at": "2018-07-24 01:33:10.602932",
    "updated_at": "2018-08-24 00:26:04.959642",
    "country": "United States",
    "longitude": "-75.7468068",
    "latitude": "39.6834128"
  },
  {
    "id": "1755",
    "name": "Mispillion River Brewing",
    "brewery_type": "micro",
    "street": "255 Mullet Run St",
    "city": "Milford",
    "state": "Delaware",
    "postal_code": "19963",
    "website_url": "http://www.mispillionriverbrewing.com",
    "phone": "3024916623",
    "created_at": "2018-07-24 01:33:10.668842",
    "updated_at": "2018-08-24 00:26:07.476341",
    "country": "United States",
    "longitude": "-75.450838711807",
    "latitude": "38.9307888466891"
  },
  {
    "id": "1736",
    "name": "3rd Wave Brewing Co",
    "brewery_type": "micro",
    "street": "501 N Bi State Blvd",
    "city": "Delmar",
    "state": "Delaware",
    "postal_code": "19940-1106",
    "website_url": "http://www.3rdwavebrewingco.com",
    "phone": "3029070423",
    "created_at": "2018-07-24 01:33:10.41997",
    "updated_at": "2018-08-11 21:36:48.05326",
    "country": "United States",
    "longitude": "",
    "latitude": ""
  },
  {
    "id": "1737",
    "name": "Argilla Brewing Co @ Pietro's Pizza",
    "brewery_type": "brewpub",
    "street": "2667 Kirkwood Hwy",
    "city": "Newark",
    "state": "Delaware",
    "postal_code": "19711-7242",
    "website_url": "http://www.argillabrewing.com",
    "phone": "3027318200",
    "created_at": "2018-07-24 01:33:10.432322",
    "updated_at": "2018-08-11 21:36:48.081487",
    "country": "United States",
    "longitude": "",
    "latitude": ""
  },
  {
    "id": "1738",
    "name": "Bellefonte Brewing Co",
    "brewery_type": "micro",
    "street": "3605 Old Capitol Trl Unit C7/C8",
    "city": "Wilmington",
    "state": "Delaware",
    "postal_code": "19808-6043",
    "website_url": "http://www.bellefontebrewingco.com",
    "phone": "3025401055",
    "created_at": "2018-07-24 01:33:10.445003",
    "updated_at": "2018-08-11 21:36:48.126226",
    "country": "United States",
    "longitude": "",
    "latitude": ""
  },
  {
    "id": "1740",
    "name": "Brewery in Planning - REHOBOTH",
    "brewery_type": "planning",
    "street": "",
    "city": "Rehoboth Beach",
    "state": "Delaware",
    "postal_code": "19971-0049",
    "website_url": "http://www.sodelconcepts.com",
    "phone": "3525625449",
    "created_at": "2018-07-24 01:33:10.474114",
    "updated_at": "2018-08-11 21:36:48.21764",
    "country": "United States",
    "longitude": "",
    "latitude": ""
  },
  {
    "id": "1742",
    "name": "Crooked Hammock Brewery",
    "brewery_type": "brewpub",
    "street": "36707 Crooked Hammock Way",
    "city": "Lewes",
    "state": "Delaware",
    "postal_code": "19958-4877",
    "website_url": "",
    "phone": "",
    "created_at": "2018-07-24 01:33:10.499927",
    "updated_at": "2018-08-11 21:36:48.282546",
    "country": "United States",
    "longitude": "",
    "latitude": ""
  },
  {
    "id": "1748",
    "name": "First State Brewing Company",
    "brewery_type": "planning",
    "street": "",
    "city": "Middletown",
    "state": "Delaware",
    "postal_code": "19709-1482",
    "website_url": "http://www.firststatebrewing.com",
    "phone": "3022859535",
    "created_at": "2018-07-24 01:33:10.577252",
    "updated_at": "2018-08-11 21:36:48.522217",
    "country": "United States",
    "longitude": "",
    "latitude": ""
  },
  {
    "id": "1734",
    "name": "16 Mile Brewing Co",
    "brewery_type": "micro",
    "street": "413 S Bedford St",
    "city": "Georgetown",
    "state": "Delaware",
    "postal_code": "19947-1849",
    "website_url": "http://www.16milebrewery.com",
    "phone": "3022538816",
    "created_at": "2018-07-24 01:33:10.394818",
    "updated_at": "2018-08-24 00:25:57.579819",
    "country": "United States",
    "longitude": "-75.3781643624989",
    "latitude": "38.6788938"
  },
  {
    "id": "1735",
    "name": "38Â°-75Â° Brewing",
    "brewery_type": "brewpub",
    "street": "2000 Coastal Highway STE 105",
    "city": "Rehoboth Beach",
    "state": "Delaware",
    "postal_code": "19971",
    "website_url": "",
    "phone": "3022278519",
    "created_at": "2018-07-24 01:33:10.407115",
    "updated_at": "2018-08-24 00:25:58.195611",
    "country": "United States",
    "longitude": "-75.090191",
    "latitude": "38.7074994"
  },
  {
    "id": "1739",
    "name": "Blue Earl Brewing Company",
    "brewery_type": "micro",
    "street": "210 Artisan Dr",
    "city": "Smyrna",
    "state": "Delaware",
    "postal_code": "19977-3715",
    "website_url": "http://www.blueearlbrewing.com",
    "phone": "",
    "created_at": "2018-07-24 01:33:10.460836",
    "updated_at": "2018-08-24 00:26:00.268012",
    "country": "United States",
    "longitude": "-75.6241805555556",
    "latitude": "39.2809684444444"
  },
  {
    "id": "1741",
    "name": "Brick Works Brewing and Eats",
    "brewery_type": "brewpub",
    "street": "230 S Dupont Blvd",
    "city": "Smyrna",
    "state": "Delaware",
    "postal_code": "19977-1573",
    "website_url": "http://www.brickworksde.com",
    "phone": "3025082523",
    "created_at": "2018-07-24 01:33:10.486996",
    "updated_at": "2018-08-24 00:26:00.909394",
    "country": "United States",
    "longitude": "-75.6008012376838",
    "latitude": "39.298259951947"
  },
  {
    "id": "1743",
    "name": "Dew Point Brewing",
    "brewery_type": "brewpub",
    "street": "2878 Creek Rd",
    "city": "Yorklyn",
    "state": "Delaware",
    "postal_code": "19736-",
    "website_url": "http://www.dewpointbrewing.com",
    "phone": "3025183636",
    "created_at": "2018-07-24 01:33:10.513211",
    "updated_at": "2018-08-24 00:26:01.984443",
    "country": "United States",
    "longitude": "-75.6729188",
    "latitude": "39.8100606"
  },
  {
    "id": "1744",
    "name": "Dewey Beer Co.",
    "brewery_type": "brewpub",
    "street": "2100 Coastal Hwy",
    "city": "Dewey Beach",
    "state": "Delaware",
    "postal_code": "19971-2317",
    "website_url": "http://www.deweybeerco.com",
    "phone": "3022271182",
    "created_at": "2018-07-24 01:33:10.525507",
    "updated_at": "2018-08-24 00:26:02.659721",
    "country": "United States",
    "longitude": "-75.07497503008",
    "latitude": "38.6961465"
  },
  {
    "id": "1745",
    "name": "Dogfish Head Brewings & Eats",
    "brewery_type": "brewpub",
    "street": "320 Rehoboth Ave",
    "city": "Rehoboth Beach",
    "state": "Delaware",
    "postal_code": "19971-3108",
    "website_url": "http://www.dogfish.com",
    "phone": "3022262739",
    "created_at": "2018-07-24 01:33:10.539544",
    "updated_at": "2018-08-24 00:26:03.158548",
    "country": "United States",
    "longitude": "-75.08731545",
    "latitude": "38.7151767"
  },
  {
    "id": "1746",
    "name": "Dogfish Head Craft Brewery",
    "brewery_type": "regional",
    "street": "6 Cannery Village Ctr",
    "city": "Milton",
    "state": "Delaware",
    "postal_code": "19968-1308",
    "website_url": "http://www.dogfish.com",
    "phone": "3026841000",
    "created_at": "2018-07-24 01:33:10.552989",
    "updated_at": "2018-08-24 00:26:03.880786",
    "country": "United States",
    "longitude": "-75.3115820590213",
    "latitude": "38.76691205"
  },
  {
    "id": "1747",
    "name": "Fins Big Oyster Brewery",
    "brewery_type": "brewpub",
    "street": "19269 Coastal Hwy",
    "city": "Rehoboth Beach",
    "state": "Delaware",
    "postal_code": "19971-6113",
    "website_url": "http://bigoysterbrewery.com",
    "phone": "3022902410",
    "created_at": "2018-07-24 01:33:10.565555",
    "updated_at": "2018-08-24 00:26:04.410365",
    "country": "United States",
    "longitude": "-75.090191",
    "latitude": "38.7074994"
  },
  {
    "id": "1751",
    "name": "Iron Hill Brewery & Restaurant - Rehoboth Beach",
    "brewery_type": "brewpub",
    "street": "19815 Coastal Hwy",
    "city": "Rehoboth Beach",
    "state": "Delaware",
    "postal_code": "19971",
    "website_url": "http://www.ironhillbrewery.com",
    "phone": "3022608000",
    "created_at": "2018-07-24 01:33:10.615489",
    "updated_at": "2018-08-24 00:26:05.51445",
    "country": "United States",
    "longitude": "-75.090191",
    "latitude": "38.7074994"
  },
  {
    "id": "1752",
    "name": "Iron Hill Brewery & Restaurant - Wilmington",
    "brewery_type": "brewpub",
    "street": "620 Justison St",
    "city": "Wilmington",
    "state": "Delaware",
    "postal_code": "19801-5141",
    "website_url": "http://www.ironhillbrewery.com",
    "phone": "3026588200",
    "created_at": "2018-07-24 01:33:10.629368",
    "updated_at": "2018-08-11 21:36:48.692158",
    "country": "United States",
    "longitude": "",
    "latitude": ""
  },
  {
    "id": "1753",
    "name": "Midnight Oil Brewing",
    "brewery_type": "micro",
    "street": "674 Pencader Dr",
    "city": "Newark",
    "state": "Delaware",
    "postal_code": "19702",
    "website_url": "",
    "phone": "3022867641",
    "created_at": "2018-07-24 01:33:10.64293",
    "updated_at": "2018-08-11 21:36:48.725692",
    "country": "United States",
    "longitude": "",
    "latitude": ""
  },
  {
    "id": "1754",
    "name": "Midnight Oil Brewing Company",
    "brewery_type": "micro",
    "street": "674 Pencader Dr",
    "city": "Newark",
    "state": "Delaware",
    "postal_code": "19702-3348",
    "website_url": "http://www.midnightoilbrewing.com",
    "phone": "3022867641",
    "created_at": "2018-07-24 01:33:10.655695",
    "updated_at": "2018-08-11 21:36:48.75863",
    "country": "United States",
    "longitude": "",
    "latitude": ""
  },
  {
    "id": "1757",
    "name": "Revelation Craft Brewing Co",
    "brewery_type": "micro",
    "street": "19841 Central Ave",
    "city": "Rehoboth Beach",
    "state": "Delaware",
    "postal_code": "19971-1112",
    "website_url": "http://Www.revbeer.com",
    "phone": "3022125674",
    "created_at": "2018-07-24 01:33:10.695253",
    "updated_at": "2018-08-11 21:36:48.882387",
    "country": "United States",
    "longitude": "",
    "latitude": ""
  },
  {
    "id": "1758",
    "name": "Stewart's Brewing Co",
    "brewery_type": "brewpub",
    "street": "219 Governors Pl",
    "city": "Bear",
    "state": "Delaware",
    "postal_code": "19701-3026",
    "website_url": "http://www.stewartsbrewingcompany.com",
    "phone": "3028362739",
    "created_at": "2018-07-24 01:33:10.709909",
    "updated_at": "2018-08-11 21:36:48.91129",
    "country": "United States",
    "longitude": "",
    "latitude": ""
  },
  {
    "id": "1760",
    "name": "Twin Lakes Brewing Co",
    "brewery_type": "micro",
    "street": "405 Marsh Ln Ste 7",
    "city": "Wilmington",
    "state": "Delaware",
    "postal_code": "19804-2445",
    "website_url": "http://www.twinlakesbrewingcompany.com",
    "phone": "3029952337",
    "created_at": "2018-07-24 01:33:10.735815",
    "updated_at": "2018-08-11 21:36:48.984238",
    "country": "United States",
    "longitude": "",
    "latitude": ""
  },
  {
    "id": "1762",
    "name": "Wilmington Brew Works",
    "brewery_type": "planning",
    "street": "",
    "city": "Wilmington",
    "state": "Delaware",
    "postal_code": "19802-2542",
    "website_url": "http://www.wilmingtonbrewworks.com",
    "phone": "3027574971",
    "created_at": "2018-07-24 01:33:10.761339",
    "updated_at": "2018-08-11 21:36:49.079237",
    "country": "United States",
    "longitude": "",
    "latitude": ""
  },
  {
    "id": "1756",
    "name": "Pizza By Elizabeths",
    "brewery_type": "brewpub",
    "street": "3801 Kennett Pike",
    "city": "Greenville",
    "state": "Delaware",
    "postal_code": "19807-2321",
    "website_url": "http://www.pizzabyelizabeths.com",
    "phone": "3026544478",
    "created_at": "2018-07-24 01:33:10.682376",
    "updated_at": "2018-08-24 00:26:08.041396",
    "country": "United States",
    "longitude": "-75.5956684811067",
    "latitude": "39.7756024886891"
  },
  {
    "id": "1759",
    "name": "Stitch House Brewery",
    "brewery_type": "brewpub",
    "street": "829 North Market Street",
    "city": "Wilmington",
    "state": "Delaware",
    "postal_code": "19801",
    "website_url": "http://www.stitchhousebrewery.com",
    "phone": "3022504280",
    "created_at": "2018-07-24 01:33:10.723314",
    "updated_at": "2018-08-24 00:26:09.597224",
    "country": "United States",
    "longitude": "-75.5490871634984",
    "latitude": "39.7438473029416"
  },
  {
    "id": "1761",
    "name": "Volunteer Brewing Company",
    "brewery_type": "micro",
    "street": "120 W Main St",
    "city": "Middletown",
    "state": "Delaware",
    "postal_code": "19709-1040",
    "website_url": "http://www.VolunteerBrewing.com",
    "phone": "3024640822",
    "created_at": "2018-07-24 01:33:10.748278",
    "updated_at": "2018-08-24 00:26:10.682837",
    "country": "United States",
    "longitude": "-75.7195916061529",
    "latitude": "39.4494278585822"
  },
  {
    "id": "1749",
    "name": "Fordham and Old Dominion Brewing Company",
    "brewery_type": "large",
    "street": "1284 McD Dr",
    "city": "Dover",
    "state": "Delaware",
    "postal_code": "19901-4639",
    "website_url": "http://www.fordhamanddominion.com",
    "phone": "3026784810",
    "created_at": "2018-07-24 01:33:10.590521",
    "updated_at": "2018-08-11 21:36:48.572101",
    "country": "United States",
    "longitude": "",
    "latitude": ""
  },
  {
    "id": "1750",
    "name": "Iron Hill Brewery & Restaurant - Newark",
    "brewery_type": "brewpub",
    "street": "147 East Main St",
    "city": "Newark",
    "state": "Delaware",
    "postal_code": "19711-7313",
    "website_url": "http://www.ironhillbrewery.com",
    "phone": "3022669000",
    "created_at": "2018-07-24 01:33:10.602932",
    "updated_at": "2018-08-24 00:26:04.959642",
    "country": "United States",
    "longitude": "-75.7468068",
    "latitude": "39.6834128"
  },
  {
    "id": "1755",
    "name": "Mispillion River Brewing",
    "brewery_type": "micro",
    "street": "255 Mullet Run St",
    "city": "Milford",
    "state": "Delaware",
    "postal_code": "19963",
    "website_url": "http://www.mispillionriverbrewing.com",
    "phone": "3024916623",
    "created_at": "2018-07-24 01:33:10.668842",
    "updated_at": "2018-08-24 00:26:07.476341",
    "country": "United States",
    "longitude": "-75.450838711807",
    "latitude": "38.9307888466891"
  },
  {
    "id": "1736",
    "name": "3rd Wave Brewing Co",
    "brewery_type": "micro",
    "street": "501 N Bi State Blvd",
    "city": "Delmar",
    "state": "Delaware",
    "postal_code": "19940-1106",
    "website_url": "http://www.3rdwavebrewingco.com",
    "phone": "3029070423",
    "created_at": "2018-07-24 01:33:10.41997",
    "updated_at": "2018-08-11 21:36:48.05326",
    "country": "United States",
    "longitude": "",
    "latitude": ""
  },
  {
    "id": "1737",
    "name": "Argilla Brewing Co @ Pietro's Pizza",
    "brewery_type": "brewpub",
    "street": "2667 Kirkwood Hwy",
    "city": "Newark",
    "state": "Delaware",
    "postal_code": "19711-7242",
    "website_url": "http://www.argillabrewing.com",
    "phone": "3027318200",
    "created_at": "2018-07-24 01:33:10.432322",
    "updated_at": "2018-08-11 21:36:48.081487",
    "country": "United States",
    "longitude": "",
    "latitude": ""
  },
  {
    "id": "1738",
    "name": "Bellefonte Brewing Co",
    "brewery_type": "micro",
    "street": "3605 Old Capitol Trl Unit C7/C8",
    "city": "Wilmington",
    "state": "Delaware",
    "postal_code": "19808-6043",
    "website_url": "http://www.bellefontebrewingco.com",
    "phone": "3025401055",
    "created_at": "2018-07-24 01:33:10.445003",
    "updated_at": "2018-08-11 21:36:48.126226",
    "country": "United States",
    "longitude": "",
    "latitude": ""
  },
  {
    "id": "1740",
    "name": "Brewery in Planning - REHOBOTH",
    "brewery_type": "planning",
    "street": "",
    "city": "Rehoboth Beach",
    "state": "Delaware",
    "postal_code": "19971-0049",
    "website_url": "http://www.sodelconcepts.com",
    "phone": "3525625449",
    "created_at": "2018-07-24 01:33:10.474114",
    "updated_at": "2018-08-11 21:36:48.21764",
    "country": "United States",
    "longitude": "",
    "latitude": ""
  },
  {
    "id": "1742",
    "name": "Crooked Hammock Brewery",
    "brewery_type": "brewpub",
    "street": "36707 Crooked Hammock Way",
    "city": "Lewes",
    "state": "Delaware",
    "postal_code": "19958-4877",
    "website_url": "",
    "phone": "",
    "created_at": "2018-07-24 01:33:10.499927",
    "updated_at": "2018-08-11 21:36:48.282546",
    "country": "United States",
    "longitude": "",
    "latitude": ""
  },
  {
    "id": "1748",
    "name": "First State Brewing Company",
    "brewery_type": "planning",
    "street": "",
    "city": "Middletown",
    "state": "Delaware",
    "postal_code": "19709-1482",
    "website_url": "http://www.firststatebrewing.com",
    "phone": "3022859535",
    "created_at": "2018-07-24 01:33:10.577252",
    "updated_at": "2018-08-11 21:36:48.522217",
    "country": "United States",
    "longitude": "",
    "latitude": ""
  },
  {
    "id": "1734",
    "name": "16 Mile Brewing Co",
    "brewery_type": "micro",
    "street": "413 S Bedford St",
    "city": "Georgetown",
    "state": "Delaware",
    "postal_code": "19947-1849",
    "website_url": "http://www.16milebrewery.com",
    "phone": "3022538816",
    "created_at": "2018-07-24 01:33:10.394818",
    "updated_at": "2018-08-24 00:25:57.579819",
    "country": "United States",
    "longitude": "-75.3781643624989",
    "latitude": "38.6788938"
  },
  {
    "id": "1735",
    "name": "38Â°-75Â° Brewing",
    "brewery_type": "brewpub",
    "street": "2000 Coastal Highway STE 105",
    "city": "Rehoboth Beach",
    "state": "Delaware",
    "postal_code": "19971",
    "website_url": "",
    "phone": "3022278519",
    "created_at": "2018-07-24 01:33:10.407115",
    "updated_at": "2018-08-24 00:25:58.195611",
    "country": "United States",
    "longitude": "-75.090191",
    "latitude": "38.7074994"
  },
  {
    "id": "1739",
    "name": "Blue Earl Brewing Company",
    "brewery_type": "micro",
    "street": "210 Artisan Dr",
    "city": "Smyrna",
    "state": "Delaware",
    "postal_code": "19977-3715",
    "website_url": "http://www.blueearlbrewing.com",
    "phone": "",
    "created_at": "2018-07-24 01:33:10.460836",
    "updated_at": "2018-08-24 00:26:00.268012",
    "country": "United States",
    "longitude": "-75.6241805555556",
    "latitude": "39.2809684444444"
  },
  {
    "id": "1741",
    "name": "Brick Works Brewing and Eats",
    "brewery_type": "brewpub",
    "street": "230 S Dupont Blvd",
    "city": "Smyrna",
    "state": "Delaware",
    "postal_code": "19977-1573",
    "website_url": "http://www.brickworksde.com",
    "phone": "3025082523",
    "created_at": "2018-07-24 01:33:10.486996",
    "updated_at": "2018-08-24 00:26:00.909394",
    "country": "United States",
    "longitude": "-75.6008012376838",
    "latitude": "39.298259951947"
  },
  {
    "id": "1743",
    "name": "Dew Point Brewing",
    "brewery_type": "brewpub",
    "street": "2878 Creek Rd",
    "city": "Yorklyn",
    "state": "Delaware",
    "postal_code": "19736-",
    "website_url": "http://www.dewpointbrewing.com",
    "phone": "3025183636",
    "created_at": "2018-07-24 01:33:10.513211",
    "updated_at": "2018-08-24 00:26:01.984443",
    "country": "United States",
    "longitude": "-75.6729188",
    "latitude": "39.8100606"
  },
  {
    "id": "1744",
    "name": "Dewey Beer Co.",
    "brewery_type": "brewpub",
    "street": "2100 Coastal Hwy",
    "city": "Dewey Beach",
    "state": "Delaware",
    "postal_code": "19971-2317",
    "website_url": "http://www.deweybeerco.com",
    "phone": "3022271182",
    "created_at": "2018-07-24 01:33:10.525507",
    "updated_at": "2018-08-24 00:26:02.659721",
    "country": "United States",
    "longitude": "-75.07497503008",
    "latitude": "38.6961465"
  },
  {
    "id": "1745",
    "name": "Dogfish Head Brewings & Eats",
    "brewery_type": "brewpub",
    "street": "320 Rehoboth Ave",
    "city": "Rehoboth Beach",
    "state": "Delaware",
    "postal_code": "19971-3108",
    "website_url": "http://www.dogfish.com",
    "phone": "3022262739",
    "created_at": "2018-07-24 01:33:10.539544",
    "updated_at": "2018-08-24 00:26:03.158548",
    "country": "United States",
    "longitude": "-75.08731545",
    "latitude": "38.7151767"
  },
  {
    "id": "1746",
    "name": "Dogfish Head Craft Brewery",
    "brewery_type": "regional",
    "street": "6 Cannery Village Ctr",
    "city": "Milton",
    "state": "Delaware",
    "postal_code": "19968-1308",
    "website_url": "http://www.dogfish.com",
    "phone": "3026841000",
    "created_at": "2018-07-24 01:33:10.552989",
    "updated_at": "2018-08-24 00:26:03.880786",
    "country": "United States",
    "longitude": "-75.3115820590213",
    "latitude": "38.76691205"
  },
  {
    "id": "1747",
    "name": "Fins Big Oyster Brewery",
    "brewery_type": "brewpub",
    "street": "19269 Coastal Hwy",
    "city": "Rehoboth Beach",
    "state": "Delaware",
    "postal_code": "19971-6113",
    "website_url": "http://bigoysterbrewery.com",
    "phone": "3022902410",
    "created_at": "2018-07-24 01:33:10.565555",
    "updated_at": "2018-08-24 00:26:04.410365",
    "country": "United States",
    "longitude": "-75.090191",
    "latitude": "38.7074994"
  },
  {
    "id": "1751",
    "name": "Iron Hill Brewery & Restaurant - Rehoboth Beach",
    "brewery_type": "brewpub",
    "street": "19815 Coastal Hwy",
    "city": "Rehoboth Beach",
    "state": "Delaware",
    "postal_code": "19971",
    "website_url": "http://www.ironhillbrewery.com",
    "phone": "3022608000",
    "created_at": "2018-07-24 01:33:10.615489",
    "updated_at": "2018-08-24 00:26:05.51445",
    "country": "United States",
    "longitude": "-75.090191",
    "latitude": "38.7074994"
  },
  {
    "id": "1752",
    "name": "Iron Hill Brewery & Restaurant - Wilmington",
    "brewery_type": "brewpub",
    "street": "620 Justison St",
    "city": "Wilmington",
    "state": "Delaware",
    "postal_code": "19801-5141",
    "website_url": "http://www.ironhillbrewery.com",
    "phone": "3026588200",
    "created_at": "2018-07-24 01:33:10.629368",
    "updated_at": "2018-08-11 21:36:48.692158",
    "country": "United States",
    "longitude": "",
    "latitude": ""
  },
  {
    "id": "1753",
    "name": "Midnight Oil Brewing",
    "brewery_type": "micro",
    "street": "674 Pencader Dr",
    "city": "Newark",
    "state": "Delaware",
    "postal_code": "19702",
    "website_url": "",
    "phone": "3022867641",
    "created_at": "2018-07-24 01:33:10.64293",
    "updated_at": "2018-08-11 21:36:48.725692",
    "country": "United States",
    "longitude": "",
    "latitude": ""
  },
  {
    "id": "1754",
    "name": "Midnight Oil Brewing Company",
    "brewery_type": "micro",
    "street": "674 Pencader Dr",
    "city": "Newark",
    "state": "Delaware",
    "postal_code": "19702-3348",
    "website_url": "http://www.midnightoilbrewing.com",
    "phone": "3022867641",
    "created_at": "2018-07-24 01:33:10.655695",
    "updated_at": "2018-08-11 21:36:48.75863",
    "country": "United States",
    "longitude": "",
    "latitude": ""
  },
  {
    "id": "1757",
    "name": "Revelation Craft Brewing Co",
    "brewery_type": "micro",
    "street": "19841 Central Ave",
    "city": "Rehoboth Beach",
    "state": "Delaware",
    "postal_code": "19971-1112",
    "website_url": "http://Www.revbeer.com",
    "phone": "3022125674",
    "created_at": "2018-07-24 01:33:10.695253",
    "updated_at": "2018-08-11 21:36:48.882387",
    "country": "United States",
    "longitude": "",
    "latitude": ""
  },
  {
    "id": "1758",
    "name": "Stewart's Brewing Co",
    "brewery_type": "brewpub",
    "street": "219 Governors Pl",
    "city": "Bear",
    "state": "Delaware",
    "postal_code": "19701-3026",
    "website_url": "http://www.stewartsbrewingcompany.com",
    "phone": "3028362739",
    "created_at": "2018-07-24 01:33:10.709909",
    "updated_at": "2018-08-11 21:36:48.91129",
    "country": "United States",
    "longitude": "",
    "latitude": ""
  },
  {
    "id": "1760",
    "name": "Twin Lakes Brewing Co",
    "brewery_type": "micro",
    "street": "405 Marsh Ln Ste 7",
    "city": "Wilmington",
    "state": "Delaware",
    "postal_code": "19804-2445",
    "website_url": "http://www.twinlakesbrewingcompany.com",
    "phone": "3029952337",
    "created_at": "2018-07-24 01:33:10.735815",
    "updated_at": "2018-08-11 21:36:48.984238",
    "country": "United States",
    "longitude": "",
    "latitude": ""
  },
  {
    "id": "1762",
    "name": "Wilmington Brew Works",
    "brewery_type": "planning",
    "street": "",
    "city": "Wilmington",
    "state": "Delaware",
    "postal_code": "19802-2542",
    "website_url": "http://www.wilmingtonbrewworks.com",
    "phone": "3027574971",
    "created_at": "2018-07-24 01:33:10.761339",
    "updated_at": "2018-08-11 21:36:49.079237",
    "country": "United States",
    "longitude": "",
    "latitude": ""
  },
  {
    "id": "1756",
    "name": "Pizza By Elizabeths",
    "brewery_type": "brewpub",
    "street": "3801 Kennett Pike",
    "city": "Greenville",
    "state": "Delaware",
    "postal_code": "19807-2321",
    "website_url": "http://www.pizzabyelizabeths.com",
    "phone": "3026544478",
    "created_at": "2018-07-24 01:33:10.682376",
    "updated_at": "2018-08-24 00:26:08.041396",
    "country": "United States",
    "longitude": "-75.5956684811067",
    "latitude": "39.7756024886891"
  },
  {
    "id": "1759",
    "name": "Stitch House Brewery",
    "brewery_type": "brewpub",
    "street": "829 North Market Street",
    "city": "Wilmington",
    "state": "Delaware",
    "postal_code": "19801",
    "website_url": "http://www.stitchhousebrewery.com",
    "phone": "3022504280",
    "created_at": "2018-07-24 01:33:10.723314",
    "updated_at": "2018-08-24 00:26:09.597224",
    "country": "United States",
    "longitude": "-75.5490871634984",
    "latitude": "39.7438473029416"
  },
  {
    "id": "1761",
    "name": "Volunteer Brewing Company",
    "brewery_type": "micro",
    "street": "120 W Main St",
    "city": "Middletown",
    "state": "Delaware",
    "postal_code": "19709-1040",
    "website_url": "http://www.VolunteerBrewing.com",
    "phone": "3024640822",
    "created_at": "2018-07-24 01:33:10.748278",
    "updated_at": "2018-08-24 00:26:10.682837",
    "country": "United States",
    "longitude": "-75.7195916061529",
    "latitude": "39.4494278585822"
  },
  {
    "id": "1749",
    "name": "Fordham and Old Dominion Brewing Company",
    "brewery_type": "large",
    "street": "1284 McD Dr",
    "city": "Dover",
    "state": "Delaware",
    "postal_code": "19901-4639",
    "website_url": "http://www.fordhamanddominion.com",
    "phone": "3026784810",
    "created_at": "2018-07-24 01:33:10.590521",
    "updated_at": "2018-08-11 21:36:48.572101",
    "country": "United States",
    "longitude": "",
    "latitude": ""
  }
]