[
  {
    "id": "2114",
    "name": "Abide Brewing Company",
    "brewery_type": "micro",
    "street": "110 Werz Industrial Blvd Ste 130",
    "city": "Newnan",
    "state": "Georgia",
    "postal_code": "30263-5802",
    "website_url": "http://www.abidebrewing.com",
    "phone": "6789726747",
    "created_at": "2018-07-24 01:33:15.371973",
    "updated_at": "2018-08-24 00:28:57.079679",
    "country": "United States",
    "longitude": "-84.7635664117647",
    "latitude": "33.4025703529412"
  },
  {
    "id": "2129",
    "name": "Chattabrewchee Southern Brewhouse",
    "brewery_type": "micro",
    "street": "709 4th Ave",
    "city": "West Point",
    "state": "Georgia",
    "postal_code": "31833-1506",
    "website_url": "http://www.chattabrewchee.com",
    "phone": "7065011151",
    "created_at": "2018-07-24 01:33:15.554137",
    "updated_at": "2018-08-24 00:28:59.773004",
    "country": "United States",
    "longitude": "-85.1853615243903",
    "latitude": "32.8762576310151"
  },
  {
    "id": "2130",
    "name": "Cherokee Brewing + Pizza Company",
    "brewery_type": "brewpub",
    "street": "207-B West Cuyler St",
    "city": "Dalton",
    "state": "Georgia",
    "postal_code": "30720",
    "website_url": "http://www.cherokeebrewingandpizza.com",
    "phone": "7065299478",
    "created_at": "2018-07-24 01:33:15.56808",
    "updated_at": "2018-08-24 00:29:00.324526",
    "country": "United States",
    "longitude": "-84.9694072096123",
    "latitude": "34.7697666359591"
  },
  {
    "id": "2161",
    "name": "Max Lager's Wood Fired Grill & Brewery",
    "brewery_type": "brewpub",
    "street": "320 Peachtree St NE",
    "city": "Atlanta",
    "state": "Georgia",
    "postal_code": "30308-3210",
    "website_url": "http://www.maxlagers.com",
    "phone": "4045254400",
    "created_at": "2018-07-24 01:33:15.962456",
    "updated_at": "2018-08-24 00:29:12.766776",
    "country": "United States",
    "longitude": "-84.3870607355802",
    "latitude": "33.76333225"
  },
  {
    "id": "2179",
    "name": "Porter Pizza & Brewery",
    "brewery_type": "brewpub",
    "street": "6370 Powers Ferry Rd NW",
    "city": "Sandy Springs",
    "state": "Georgia",
    "postal_code": "30339",
    "website_url": "http://www.porterpizzabrewery.com",
    "phone": "",
    "created_at": "2018-07-24 01:33:16.191071",
    "updated_at": "2018-08-24 00:29:21.253726",
    "country": "United States",
    "longitude": "-84.4304239",
    "latitude": "33.9043481"
  },
  {
    "id": "2181",
    "name": "Printer's Ale Manufacturing Co.",
    "brewery_type": "micro",
    "street": "940 Columbia Dr",
    "city": "Carrollton",
    "state": "Georgia",
    "postal_code": "30117-8780",
    "website_url": "http://www.printers-ale.com",
    "phone": "7708364253",
    "created_at": "2018-07-24 01:33:16.216401",
    "updated_at": "2018-08-24 00:29:22.41065",
    "country": "United States",
    "longitude": "-85.1024965714286",
    "latitude": "33.6113894489796"
  },
  {
    "id": "2196",
    "name": "Southern Brewing Company",
    "brewery_type": "micro",
    "street": "231 Collins Industrial Blvd",
    "city": "Athens",
    "state": "Georgia",
    "postal_code": "30601-1517",
    "website_url": "http://www.sobrewco.com",
    "phone": "7065487183",
    "created_at": "2018-07-24 01:33:16.426119",
    "updated_at": "2018-08-24 00:29:29.429091",
    "country": "United States",
    "longitude": "-83.3500228701351",
    "latitude": "33.9811401213053"
  },
  {
    "id": "2201",
    "name": "SweetWater Brewing Co",
    "brewery_type": "regional",
    "street": "195 Ottley Dr NE",
    "city": "Atlanta",
    "state": "Georgia",
    "postal_code": "30324-3924",
    "website_url": "http://www.sweetwaterbrew.com",
    "phone": "4046912537",
    "created_at": "2018-07-24 01:33:16.488114",
    "updated_at": "2018-08-24 00:29:32.873246",
    "country": "United States",
    "longitude": "-84.3810721937623",
    "latitude": "33.80802235"
  },
  {
    "id": "2125",
    "name": "Brewery In Planning Suwanee",
    "brewery_type": "planning",
    "street": "",
    "city": "Duluth",
    "state": "Georgia",
    "postal_code": "30096-3282",
    "website_url": "",
    "phone": "6785717353",
    "created_at": "2018-07-24 01:33:15.505442",
    "updated_at": "2018-08-11 21:37:01.218115",
    "country": "United States",
    "longitude": "",
    "latitude": ""
  },
  {
    "id": "2165",
    "name": "Monday Night Brewing - Garage",
    "brewery_type": "micro",
    "street": "933 Lee St SW",
    "city": "Atlanta",
    "state": "Georgia",
    "postal_code": "30310",
    "website_url": "",
    "phone": "",
    "created_at": "2018-07-24 01:33:16.01386",
    "updated_at": "2018-08-24 00:29:14.426354",
    "country": "United States",
    "longitude": "-84.4161772352941",
    "latitude": "33.7290642941176"
  },
  {
    "id": "2122",
    "name": "Brewery in Planning - Johns Creek, GA",
    "brewery_type": "planning",
    "street": "",
    "city": "Johns Creek",
    "state": "Georgia",
    "postal_code": "30022",
    "website_url": "",
    "phone": "6787932162",
    "created_at": "2018-07-24 01:33:15.468788",
    "updated_at": "2018-08-11 21:37:01.153421",
    "country": "United States",
    "longitude": "",
    "latitude": ""
  },
  {
    "id": "2124",
    "name": "Brewery in Planning - Suwanee",
    "brewery_type": "planning",
    "street": "",
    "city": "Suwanee",
    "state": "Georgia",
    "postal_code": "30024-4515",
    "website_url": "",
    "phone": "6786898355",
    "created_at": "2018-07-24 01:33:15.493219",
    "updated_at": "2018-08-11 21:37:01.183565",
    "country": "United States",
    "longitude": "",
    "latitude": ""
  },
  {
    "id": "2110",
    "name": "400 North Brewing",
    "brewery_type": "planning",
    "street": "",
    "city": "Sugarhill",
    "state": "Georgia",
    "postal_code": "30518-7916",
    "website_url": "http://400northbrewing.com",
    "phone": "4047911119",
    "created_at": "2018-07-24 01:33:15.319855",
    "updated_at": "2018-08-11 21:37:00.707996",
    "country": "United States",
    "longitude": "",
    "latitude": ""
  },
  {
    "id": "2113",
    "name": "6 Bridges Brewing",
    "brewery_type": "planning",
    "street": "",
    "city": "Johns Creek",
    "state": "Georgia",
    "postal_code": "30097",
    "website_url": "http://www.sixbridgesbrewing.com",
    "phone": "7708460292",
    "created_at": "2018-07-24 01:33:15.358972",
    "updated_at": "2018-08-11 21:37:00.824592",
    "country": "United States",
    "longitude": "",
    "latitude": ""
  },
  {
    "id": "2116",
    "name": "Anheuser-Busch Inc â Cartersville",
    "brewery_type": "large",
    "street": "100 Busch Dr NE",
    "city": "Cartersville",
    "state": "Georgia",
    "postal_code": "30121-7217",
    "website_url": "",
    "phone": "7703862000",
    "created_at": "2018-07-24 01:33:15.396147",
    "updated_at": "2018-08-11 21:37:00.919537",
    "country": "United States",
    "longitude": "",
    "latitude": ""
  },
  {
    "id": "2117",
    "name": "Arches Brewing",
    "brewery_type": "micro",
    "street": "3361 Dogwood Dr",
    "city": "Hapeville",
    "state": "Georgia",
    "postal_code": "30354-1439",
    "website_url": "",
    "phone": "6786532739",
    "created_at": "2018-07-24 01:33:15.408243",
    "updated_at": "2018-08-11 21:37:00.962932",
    "country": "United States",
    "longitude": "",
    "latitude": ""
  },
  {
    "id": "2119",
    "name": "Braselton Brewing Company",
    "brewery_type": "planning",
    "street": "",
    "city": "Braselton",
    "state": "Georgia",
    "postal_code": "30517",
    "website_url": "",
    "phone": "7068701458",
    "created_at": "2018-07-24 01:33:15.4327",
    "updated_at": "2018-08-11 21:37:01.050129",
    "country": "United States",
    "longitude": "",
    "latitude": ""
  },
  {
    "id": "2120",
    "name": "Brewery in Planning - Buford",
    "brewery_type": "planning",
    "street": "",
    "city": "Buford",
    "state": "Georgia",
    "postal_code": "30515-0568",
    "website_url": "",
    "phone": "",
    "created_at": "2018-07-24 01:33:15.444806",
    "updated_at": "2018-08-11 21:37:01.091561",
    "country": "United States",
    "longitude": "",
    "latitude": ""
  },
  {
    "id": "2121",
    "name": "Brewery in Planning - Fayetteville",
    "brewery_type": "planning",
    "street": "",
    "city": "Fayetteville",
    "state": "Georgia",
    "postal_code": "30215-4628",
    "website_url": "",
    "phone": "4044529306",
    "created_at": "2018-07-24 01:33:15.456877",
    "updated_at": "2018-08-11 21:37:01.126728",
    "country": "United States",
    "longitude": "",
    "latitude": ""
  },
  {
    "id": "2111",
    "name": "5 Seasons Brewing Co - Prado",
    "brewery_type": "brewpub",
    "street": "5600 Roswell Rd",
    "city": "Sandy Springs",
    "state": "Georgia",
    "postal_code": "30342-1150",
    "website_url": "http://www.5seasonsbrewing.com",
    "phone": "4042555911",
    "created_at": "2018-07-24 01:33:15.334105",
    "updated_at": "2018-08-24 00:28:55.977147",
    "country": "United States",
    "longitude": "-84.3796711",
    "latitude": "33.9078086"
  },
  {
    "id": "2115",
    "name": "Akademia Brewing Company",
    "brewery_type": "brewpub",
    "street": "150 Crane Dr",
    "city": "Athens",
    "state": "Georgia",
    "postal_code": "30606-0600",
    "website_url": "http://www.AkademiaBC.com",
    "phone": "7064613208",
    "created_at": "2018-07-24 01:33:15.384296",
    "updated_at": "2018-08-24 00:28:57.600712",
    "country": "United States",
    "longitude": "-83.4715375370739",
    "latitude": "33.9427028863025"
  },
  {
    "id": "2118",
    "name": "BlueTarp Brewing Co",
    "brewery_type": "micro",
    "street": "731 E College Ave",
    "city": "Decatur",
    "state": "Georgia",
    "postal_code": "30030-5365",
    "website_url": "http://www.bluetarpbrew.com",
    "phone": "4046696740",
    "created_at": "2018-07-24 01:33:15.420193",
    "updated_at": "2018-08-24 00:28:58.688802",
    "country": "United States",
    "longitude": "-84.2835622",
    "latitude": "33.7740425"
  },
  {
    "id": "2216",
    "name": "Wild Leap Brewing Company",
    "brewery_type": "micro",
    "street": "308 Main St",
    "city": "Lagrange",
    "state": "Georgia",
    "postal_code": "30240-4504",
    "website_url": "http://www.wildleap.com",
    "phone": "7062986400",
    "created_at": "2018-07-24 01:33:16.695209",
    "updated_at": "2018-08-24 00:29:39.429899",
    "country": "United States",
    "longitude": "-85.0311916",
    "latitude": "33.037368"
  },
  {
    "id": "2126",
    "name": "Buck Bald Brewing Corporation",
    "brewery_type": "planning",
    "street": "",
    "city": "Blue Ridge",
    "state": "Georgia",
    "postal_code": "30513",
    "website_url": "http://www.buckbaldbrewing.com",
    "phone": "7703169971",
    "created_at": "2018-07-24 01:33:15.518076",
    "updated_at": "2018-08-11 21:37:01.258802",
    "country": "United States",
    "longitude": "",
    "latitude": ""
  },
  {
    "id": "2128",
    "name": "Cannon Brewpub",
    "brewery_type": "brewpub",
    "street": "1041 Broadway",
    "city": "Columbus",
    "state": "Georgia",
    "postal_code": "31901-5256",
    "website_url": "",
    "phone": "7066532337",
    "created_at": "2018-07-24 01:33:15.541834",
    "updated_at": "2018-08-11 21:37:01.334777",
    "country": "United States",
    "longitude": "",
    "latitude": ""
  },
  {
    "id": "2131",
    "name": "Coastal Empire Beer Co",
    "brewery_type": "micro",
    "street": "79 Ross Rd",
    "city": "Savannah",
    "state": "Georgia",
    "postal_code": "31405-1660",
    "website_url": "http://www.coastalempirebeer.com",
    "phone": "9124287911",
    "created_at": "2018-07-24 01:33:15.581469",
    "updated_at": "2018-08-11 21:37:01.426051",
    "country": "United States",
    "longitude": "",
    "latitude": ""
  },
  {
    "id": "2133",
    "name": "Creature Comforts Production Facility At Southern Mill",
    "brewery_type": "regional",
    "street": "355 Oneta St Bldg A100",
    "city": "Athens",
    "state": "Georgia",
    "postal_code": "30601",
    "website_url": "",
    "phone": "",
    "created_at": "2018-07-24 01:33:15.606098",
    "updated_at": "2018-08-11 21:37:01.484882",
    "country": "United States",
    "longitude": "",
    "latitude": ""
  },
  {
    "id": "2135",
    "name": "Dry County Brewing Company",
    "brewery_type": "micro",
    "street": "1500 Lockhart Drive",
    "city": "kennesaw",
    "state": "Georgia",
    "postal_code": "30144",
    "website_url": "http://www.DryCountyBrewCo.com",
    "phone": "4045799846",
    "created_at": "2018-07-24 01:33:15.630532",
    "updated_at": "2018-08-11 21:37:01.550554",
    "country": "United States",
    "longitude": "",
    "latitude": ""
  },
  {
    "id": "2136",
    "name": "Eagle Creek Brewing Company",
    "brewery_type": "micro",
    "street": "106 Savannah Ave Ste B",
    "city": "Statesboro",
    "state": "Georgia",
    "postal_code": "30458-7162",
    "website_url": "http://www.eaglecreekbrewingco.com",
    "phone": "9124892337",
    "created_at": "2018-07-24 01:33:15.643319",
    "updated_at": "2018-08-11 21:37:01.580171",
    "country": "United States",
    "longitude": "",
    "latitude": ""
  },
  {
    "id": "2137",
    "name": "Etowah Brewery",
    "brewery_type": "planning",
    "street": "",
    "city": "Dahlonega",
    "state": "Georgia",
    "postal_code": "30533",
    "website_url": "",
    "phone": "6785707349",
    "created_at": "2018-07-24 01:33:15.654878",
    "updated_at": "2018-08-11 21:37:01.613522",
    "country": "United States",
    "longitude": "",
    "latitude": ""
  },
  {
    "id": "2138",
    "name": "EuroBevs",
    "brewery_type": "contract",
    "street": "2255 Cumberland Pkwy SE",
    "city": "Atlanta",
    "state": "Georgia",
    "postal_code": "30339-4515",
    "website_url": "http://www.eurobevs.com",
    "phone": "7704371285",
    "created_at": "2018-07-24 01:33:15.667164",
    "updated_at": "2018-08-11 21:37:01.655959",
    "country": "United States",
    "longitude": "",
    "latitude": ""
  },
  {
    "id": "2141",
    "name": "Firewater Brewing Company",
    "brewery_type": "planning",
    "street": "",
    "city": "Kennesaw",
    "state": "Georgia",
    "postal_code": "30144",
    "website_url": "",
    "phone": "",
    "created_at": "2018-07-24 01:33:15.706068",
    "updated_at": "2018-08-11 21:37:01.788389",
    "country": "United States",
    "longitude": "",
    "latitude": ""
  },
  {
    "id": "2142",
    "name": "From The Earth Brewing Company",
    "brewery_type": "brewpub",
    "street": "1570 Holcomb Bridge Rd Suite 405",
    "city": "Roswell",
    "state": "Georgia",
    "postal_code": "30076",
    "website_url": "http://www.ftebrewing.com",
    "phone": "7709109799",
    "created_at": "2018-07-24 01:33:15.717852",
    "updated_at": "2018-08-11 21:37:01.822181",
    "country": "United States",
    "longitude": "",
    "latitude": ""
  },
  {
    "id": "2144",
    "name": "Georgia Beer Co",
    "brewery_type": "planning",
    "street": "",
    "city": "Valdosta",
    "state": "Georgia",
    "postal_code": "31601-9017",
    "website_url": "http://www.georgiabeerco.com",
    "phone": "9123995883",
    "created_at": "2018-07-24 01:33:15.743498",
    "updated_at": "2018-08-11 21:37:01.893856",
    "country": "United States",
    "longitude": "",
    "latitude": ""
  },
  {
    "id": "2145",
    "name": "Glover Park Brewery",
    "brewery_type": "planning",
    "street": "",
    "city": "Marietta",
    "state": "Georgia",
    "postal_code": "30060",
    "website_url": "",
    "phone": "",
    "created_at": "2018-07-24 01:33:15.756706",
    "updated_at": "2018-08-11 21:37:01.931348",
    "country": "United States",
    "longitude": "",
    "latitude": ""
  },
  {
    "id": "2146",
    "name": "Good Word Brewing & Public House",
    "brewery_type": "brewpub",
    "street": "3085 Main St Ste 520",
    "city": "Duluth",
    "state": "Georgia",
    "postal_code": "30096-3261",
    "website_url": "http://www.goodwordbrewing.com",
    "phone": "4049732077",
    "created_at": "2018-07-24 01:33:15.768936",
    "updated_at": "2018-08-11 21:37:01.965371",
    "country": "United States",
    "longitude": "",
    "latitude": ""
  },
  {
    "id": "2148",
    "name": "GRITS Brewing",
    "brewery_type": "planning",
    "street": "",
    "city": "Chamblee",
    "state": "Georgia",
    "postal_code": "30341-2024",
    "website_url": "",
    "phone": "",
    "created_at": "2018-07-24 01:33:15.794109",
    "updated_at": "2018-08-11 21:37:02.043168",
    "country": "United States",
    "longitude": "",
    "latitude": ""
  },
  {
    "id": "2150",
    "name": "Hop Soul Brewery",
    "brewery_type": "planning",
    "street": "",
    "city": "Brunswick",
    "state": "Georgia",
    "postal_code": "31520",
    "website_url": "http://www.hopsoulbrewery.com",
    "phone": "",
    "created_at": "2018-07-24 01:33:15.819094",
    "updated_at": "2018-08-11 21:37:02.116906",
    "country": "United States",
    "longitude": "",
    "latitude": ""
  },
  {
    "id": "2151",
    "name": "Hopstix",
    "brewery_type": "brewpub",
    "street": "3404 Pierce Dr NE",
    "city": "Chamblee",
    "state": "Georgia",
    "postal_code": "30341-2444",
    "website_url": "http://www.hopstix.com",
    "phone": "6788882306",
    "created_at": "2018-07-24 01:33:15.831521",
    "updated_at": "2018-08-11 21:37:02.153859",
    "country": "United States",
    "longitude": "",
    "latitude": ""
  },
  {
    "id": "2153",
    "name": "Ironwood Creek",
    "brewery_type": "planning",
    "street": "",
    "city": "Evans",
    "state": "Georgia",
    "postal_code": "30809-8239",
    "website_url": "",
    "phone": "",
    "created_at": "2018-07-24 01:33:15.859272",
    "updated_at": "2018-08-11 21:37:02.214648",
    "country": "United States",
    "longitude": "",
    "latitude": ""
  },
  {
    "id": "2158",
    "name": "Line Creek Brewing",
    "brewery_type": "micro",
    "street": "150 Huddleston Rd Ste 300",
    "city": "Peachtree City",
    "state": "Georgia",
    "postal_code": "30269",
    "website_url": "http://www.linecreekbrewing.com",
    "phone": "",
    "created_at": "2018-07-24 01:33:15.924748",
    "updated_at": "2018-08-11 21:37:02.453475",
    "country": "United States",
    "longitude": "",
    "latitude": ""
  },
  {
    "id": "2160",
    "name": "Mandatory Fun Brewing",
    "brewery_type": "planning",
    "street": "",
    "city": "Marietta",
    "state": "Georgia",
    "postal_code": "30064",
    "website_url": "http://www.vikingalchemist.com",
    "phone": "9517955337",
    "created_at": "2018-07-24 01:33:15.94987",
    "updated_at": "2018-08-11 21:37:02.513031",
    "country": "United States",
    "longitude": "",
    "latitude": ""
  },
  {
    "id": "2168",
    "name": "New Realm Brewing",
    "brewery_type": "brewpub",
    "street": "550 Somerset Ter NE Unit 101",
    "city": "Atlanta",
    "state": "Georgia",
    "postal_code": "30306-4317",
    "website_url": "http://www.newrealmbrewing.com",
    "phone": "4049682778",
    "created_at": "2018-07-24 01:33:16.051405",
    "updated_at": "2018-08-11 21:37:02.75996",
    "country": "United States",
    "longitude": "",
    "latitude": ""
  },
  {
    "id": "2170",
    "name": "Oconee Brewing Company",
    "brewery_type": "micro",
    "street": "202 N West St",
    "city": "Greensboro",
    "state": "Georgia",
    "postal_code": "30642-1124",
    "website_url": "http://www.oconeebrewingco.com",
    "phone": "7069201177",
    "created_at": "2018-07-24 01:33:16.078157",
    "updated_at": "2018-08-11 21:37:02.844115",
    "country": "United States",
    "longitude": "",
    "latitude": ""
  },
  {
    "id": "2171",
    "name": "O'Dempsey's Brewing Co",
    "brewery_type": "contract",
    "street": "205 Grosvenor Place, Nw",
    "city": "Atlanta",
    "state": "Georgia",
    "postal_code": "30328",
    "website_url": "http://www.odempseys.com",
    "phone": "4048450059",
    "created_at": "2018-07-24 01:33:16.09065",
    "updated_at": "2018-08-11 21:37:02.882991",
    "country": "United States",
    "longitude": "",
    "latitude": ""
  },
  {
    "id": "2172",
    "name": "Omaha Brewing Company",
    "brewery_type": "micro",
    "street": "265 Brew St",
    "city": "Omaha",
    "state": "Georgia",
    "postal_code": "31821-2258",
    "website_url": "http://www.omahabrewingcompany.com",
    "phone": "2298384779",
    "created_at": "2018-07-24 01:33:16.103833",
    "updated_at": "2018-08-11 21:37:02.91853",
    "country": "United States",
    "longitude": "",
    "latitude": ""
  },
  {
    "id": "2132",
    "name": "Creature Comforts Brewing Co.",
    "brewery_type": "regional",
    "street": "271 W Hancock Ave",
    "city": "Athens",
    "state": "Georgia",
    "postal_code": "30601-2727",
    "website_url": "http://www.creaturecomfortsbeer.com",
    "phone": "7064101043",
    "created_at": "2018-07-24 01:33:15.593582",
    "updated_at": "2018-08-24 00:29:00.88581",
    "country": "United States",
    "longitude": "-83.380087",
    "latitude": "33.9591987142857"
  },
  {
    "id": "2134",
    "name": "Currahee Brewing Company",
    "brewery_type": "micro",
    "street": "25 S Main St",
    "city": "Alpharetta",
    "state": "Georgia",
    "postal_code": "30009",
    "website_url": "",
    "phone": "",
    "created_at": "2018-07-24 01:33:15.618382",
    "updated_at": "2018-08-24 00:29:02.040773",
    "country": "United States",
    "longitude": "-84.2967826",
    "latitude": "34.0711104"
  },
  {
    "id": "2139",
    "name": "Eventide Brewing Co",
    "brewery_type": "micro",
    "street": "1015 Grant St SE",
    "city": "Atlanta",
    "state": "Georgia",
    "postal_code": "30315-2014",
    "website_url": "http://www.eventidebrewing.com",
    "phone": "4049074543",
    "created_at": "2018-07-24 01:33:15.680861",
    "updated_at": "2018-08-24 00:29:04.352122",
    "country": "United States",
    "longitude": "-84.3770629097993",
    "latitude": "33.72670205"
  },
  {
    "id": "2140",
    "name": "Fannin Brewing",
    "brewery_type": "micro",
    "street": "3758 E First St",
    "city": "Blue Ridge",
    "state": "Georgia",
    "postal_code": "30513-4514",
    "website_url": "http://www.fanninbrewingcompany.com",
    "phone": "7062582762",
    "created_at": "2018-07-24 01:33:15.69398",
    "updated_at": "2018-08-24 00:29:04.845927",
    "country": "United States",
    "longitude": "-84.3170747740377",
    "latitude": "34.8714261335704"
  },
  {
    "id": "2143",
    "name": "Gate City Brewing Company",
    "brewery_type": "micro",
    "street": "43 Magnolia St",
    "city": "Roswell",
    "state": "Georgia",
    "postal_code": "30075-4289",
    "website_url": "http://www.gatecitybrewingco.com",
    "phone": "6784040961",
    "created_at": "2018-07-24 01:33:15.730791",
    "updated_at": "2018-08-24 00:29:05.880754",
    "country": "United States",
    "longitude": "-84.3639530669006",
    "latitude": "34.0229342592006"
  },
  {
    "id": "2149",
    "name": "Grumpy Old Men Brewing",
    "brewery_type": "micro",
    "street": "1315 E Main St",
    "city": "Blue Ridge",
    "state": "Georgia",
    "postal_code": "30513-8506",
    "website_url": "http://www.grumpyoldmenbrewing.com",
    "phone": "7703318870",
    "created_at": "2018-07-24 01:33:15.806744",
    "updated_at": "2018-08-24 00:29:07.640356",
    "country": "United States",
    "longitude": "-84.3305083215193",
    "latitude": "34.8574713620201"
  },
  {
    "id": "2152",
    "name": "Ironmonger Brewing",
    "brewery_type": "micro",
    "street": "2129 Northwest Pkwy SE Ste 105",
    "city": "Marietta",
    "state": "Georgia",
    "postal_code": "30067-9223",
    "website_url": "http://www.ironmongerbrewing.com",
    "phone": "6787428551",
    "created_at": "2018-07-24 01:33:15.843473",
    "updated_at": "2018-08-24 00:29:08.63646",
    "country": "United States",
    "longitude": "-84.4869635256505",
    "latitude": "33.919593821209"
  },
  {
    "id": "2154",
    "name": "Jailhouse Brewing Co",
    "brewery_type": "micro",
    "street": "8 Cherry St",
    "city": "Hampton",
    "state": "Georgia",
    "postal_code": "30228-5575",
    "website_url": "http://www.jailhousebrewing.com",
    "phone": "4047297681",
    "created_at": "2018-07-24 01:33:15.872306",
    "updated_at": "2018-08-24 00:29:09.217584",
    "country": "United States",
    "longitude": "-84.282374",
    "latitude": "33.387534"
  },
  {
    "id": "2155",
    "name": "Jekyll Brewing",
    "brewery_type": "micro",
    "street": "2855 Marconi Dr Ste 350",
    "city": "Alpharetta",
    "state": "Georgia",
    "postal_code": "30005-2051",
    "website_url": "http://www.jekyllbrewing.com",
    "phone": "7705968788",
    "created_at": "2018-07-24 01:33:15.884802",
    "updated_at": "2018-08-24 00:29:09.789612",
    "country": "United States",
    "longitude": "-84.2536638",
    "latitude": "34.0816562"
  },
  {
    "id": "2156",
    "name": "Johnnie MacCracken's Celtic Firehouse Pub, Inc.",
    "brewery_type": "brewpub",
    "street": "15 Atlanta Street",
    "city": "Marietta",
    "state": "Georgia",
    "postal_code": "30060-1985",
    "website_url": "http://www.johnniemaccrackens.com",
    "phone": "7705907868",
    "created_at": "2018-07-24 01:33:15.897925",
    "updated_at": "2018-08-24 00:29:10.484087",
    "country": "United States",
    "longitude": "-84.5417592",
    "latitude": "33.9371282"
  },
  {
    "id": "2157",
    "name": "Left Nut Brewing Co",
    "brewery_type": "micro",
    "street": "2100 Atlanta Rd",
    "city": "Gainesville",
    "state": "Georgia",
    "postal_code": "30504-7168",
    "website_url": "http://www.leftnutbrewing.com",
    "phone": "6788276678",
    "created_at": "2018-07-24 01:33:15.911963",
    "updated_at": "2018-08-24 00:29:11.023348",
    "country": "United States",
    "longitude": "-83.8475963368642",
    "latitude": "34.25442345"
  },
  {
    "id": "2159",
    "name": "Macon Beer Company",
    "brewery_type": "proprietor",
    "street": "345 Oglethorpe St",
    "city": "Macon",
    "state": "Georgia",
    "postal_code": "31201-3274",
    "website_url": "http://www.maconbeer.com",
    "phone": "4782167117",
    "created_at": "2018-07-24 01:33:15.93706",
    "updated_at": "2018-08-24 00:29:12.157921",
    "country": "United States",
    "longitude": "-83.630297",
    "latitude": "32.828235"
  },
  {
    "id": "2163",
    "name": "MillerCoors Brewing Co - Albany",
    "brewery_type": "large",
    "street": "405 Cordele Rd",
    "city": "Albany",
    "state": "Georgia",
    "postal_code": "31705-2109",
    "website_url": "",
    "phone": "",
    "created_at": "2018-07-24 01:33:15.988112",
    "updated_at": "2018-08-24 00:29:13.337065",
    "country": "United States",
    "longitude": "-84.0820312571752",
    "latitude": "31.5854934285396"
  },
  {
    "id": "2164",
    "name": "Monday Night Brewing",
    "brewery_type": "micro",
    "street": "670 Trabert Ave NW",
    "city": "Atlanta",
    "state": "Georgia",
    "postal_code": "30318-4230",
    "website_url": "http://www.mondaynightbrewing.com",
    "phone": "4043527703",
    "created_at": "2018-07-24 01:33:16.001447",
    "updated_at": "2018-08-24 00:29:13.856727",
    "country": "United States",
    "longitude": "-84.4098921239911",
    "latitude": "33.79480405"
  },
  {
    "id": "2167",
    "name": "Moon River Brewing Co",
    "brewery_type": "brewpub",
    "street": "21 W Bay St",
    "city": "Savannah",
    "state": "Georgia",
    "postal_code": "31401-1106",
    "website_url": "http://www.moonriverbrewing.com",
    "phone": "9124470943",
    "created_at": "2018-07-24 01:33:16.039054",
    "updated_at": "2018-08-24 00:29:15.130503",
    "country": "United States",
    "longitude": "-81.0917857755102",
    "latitude": "32.0809857346939"
  },
  {
    "id": "2169",
    "name": "Ocmulgee Brewpub",
    "brewery_type": "brewpub",
    "street": "484 2nd St",
    "city": "Macon",
    "state": "Georgia",
    "postal_code": "31201-2734",
    "website_url": "http://www.ocmulgeebrewpub.com",
    "phone": "4782542848",
    "created_at": "2018-07-24 01:33:16.064633",
    "updated_at": "2018-08-24 00:29:16.236161",
    "country": "United States",
    "longitude": "-83.6293283305064",
    "latitude": "32.8360763024772"
  },
  {
    "id": "2173",
    "name": "Orpheus Brewing",
    "brewery_type": "micro",
    "street": "1440 Dutch Valley Pl NE Ste 2001",
    "city": "Atlanta",
    "state": "Georgia",
    "postal_code": "30324-5366",
    "website_url": "http://www.orpheusbrewing.com",
    "phone": "4043471777",
    "created_at": "2018-07-24 01:33:16.117014",
    "updated_at": "2018-08-24 00:29:18.35058",
    "country": "United States",
    "longitude": "-84.3685805104894",
    "latitude": "33.79314935"
  },
  {
    "id": "2174",
    "name": "Park Tavern Brewery",
    "brewery_type": "brewpub",
    "street": "500 10th St NE",
    "city": "Atlanta",
    "state": "Georgia",
    "postal_code": "30309-4272",
    "website_url": "http://www.parktavern.com",
    "phone": "4042490001",
    "created_at": "2018-07-24 01:33:16.129353",
    "updated_at": "2018-08-24 00:29:19.023828",
    "country": "United States",
    "longitude": "-84.377744",
    "latitude": "33.781867"
  },
  {
    "id": "2175",
    "name": "Perfect Fool Brewing Company",
    "brewery_type": "planning",
    "street": "",
    "city": "Atlanta",
    "state": "Georgia",
    "postal_code": "30319",
    "website_url": "",
    "phone": "",
    "created_at": "2018-07-24 01:33:16.141604",
    "updated_at": "2018-08-11 21:37:03.021113",
    "country": "United States",
    "longitude": "",
    "latitude": ""
  },
  {
    "id": "2177",
    "name": "Piedmont Brewery and Kitchen",
    "brewery_type": "brewpub",
    "street": "450-B Third Street",
    "city": "Macon",
    "state": "Georgia",
    "postal_code": "31201",
    "website_url": "http://www.piedmontbrerwery.com",
    "phone": "4782542337",
    "created_at": "2018-07-24 01:33:16.166936",
    "updated_at": "2018-08-11 21:37:03.094141",
    "country": "United States",
    "longitude": "",
    "latitude": ""
  },
  {
    "id": "2178",
    "name": "Pontoon Brewing Company",
    "brewery_type": "micro",
    "street": "8601 Dunwoody Pl Bld 500 Ste 500",
    "city": "Sandy Springs",
    "state": "Georgia",
    "postal_code": "30350-2551",
    "website_url": "http://www.pontoonbrewing.com",
    "phone": "7049293821",
    "created_at": "2018-07-24 01:33:16.17913",
    "updated_at": "2018-08-11 21:37:03.123593",
    "country": "United States",
    "longitude": "",
    "latitude": ""
  },
  {
    "id": "2184",
    "name": "Reformation Brewery",
    "brewery_type": "micro",
    "street": "500 Arnold Mill Way Ste A",
    "city": "Woodstock",
    "state": "Georgia",
    "postal_code": "30188-6842",
    "website_url": "http://www.reformationbrewery.com",
    "phone": "6783410828",
    "created_at": "2018-07-24 01:33:16.269212",
    "updated_at": "2018-08-11 21:37:03.297393",
    "country": "United States",
    "longitude": "",
    "latitude": ""
  },
  {
    "id": "2185",
    "name": "Rick Tanner's Grille & Bar/Cherry Street Brewing Cooperative",
    "brewery_type": "brewpub",
    "street": "5810 Bond St # E-2",
    "city": "Cumming",
    "state": "Georgia",
    "postal_code": "30040-0301",
    "website_url": "http://www.rtanners.com",
    "phone": "7702055512",
    "created_at": "2018-07-24 01:33:16.282822",
    "updated_at": "2018-08-11 21:37:03.329208",
    "country": "United States",
    "longitude": "",
    "latitude": ""
  },
  {
    "id": "2186",
    "name": "Riverwatch Brewery",
    "brewery_type": "micro",
    "street": "1150 5th St Bldg 61",
    "city": "Augusta",
    "state": "Georgia",
    "postal_code": "30901-5861",
    "website_url": "http://www.riverwatchbrewery.com",
    "phone": "7064217177",
    "created_at": "2018-07-24 01:33:16.295665",
    "updated_at": "2018-08-11 21:37:03.365231",
    "country": "United States",
    "longitude": "",
    "latitude": ""
  },
  {
    "id": "2188",
    "name": "Sabbath Brewing",
    "brewery_type": "planning",
    "street": "",
    "city": "Atlanta",
    "state": "Georgia",
    "postal_code": "30316",
    "website_url": "",
    "phone": "",
    "created_at": "2018-07-24 01:33:16.321033",
    "updated_at": "2018-08-11 21:37:03.436455",
    "country": "United States",
    "longitude": "",
    "latitude": ""
  },
  {
    "id": "2189",
    "name": "Savannah Beer Company",
    "brewery_type": "planning",
    "street": "",
    "city": "Savannah",
    "state": "Georgia",
    "postal_code": "31410",
    "website_url": "",
    "phone": "9124140187",
    "created_at": "2018-07-24 01:33:16.333304",
    "updated_at": "2018-08-11 21:37:03.473408",
    "country": "United States",
    "longitude": "",
    "latitude": ""
  },
  {
    "id": "2191",
    "name": "Scofflaw Brewing Co",
    "brewery_type": "micro",
    "street": "1738 Macarthur Blvd NW",
    "city": "Atlanta",
    "state": "Georgia",
    "postal_code": "30318-2022",
    "website_url": "http://www.scofflawbeer.com",
    "phone": "4049153392",
    "created_at": "2018-07-24 01:33:16.357049",
    "updated_at": "2018-08-11 21:37:03.541831",
    "country": "United States",
    "longitude": "",
    "latitude": ""
  },
  {
    "id": "2197",
    "name": "Southern Sky Brewing Co",
    "brewery_type": "micro",
    "street": "1590 N Roberts Rd NW Ste 208",
    "city": "Kennesaw",
    "state": "Georgia",
    "postal_code": "30144-3636",
    "website_url": "http://www.southernskybrewing.com",
    "phone": "7707028318",
    "created_at": "2018-07-24 01:33:16.438401",
    "updated_at": "2018-08-11 21:37:03.735497",
    "country": "United States",
    "longitude": "",
    "latitude": ""
  },
  {
    "id": "2202",
    "name": "Tantrum Brewing Company",
    "brewery_type": "planning",
    "street": "",
    "city": "Cleveland",
    "state": "Georgia",
    "postal_code": "30528-7804",
    "website_url": "http://www.tantrumbeer.com",
    "phone": "7068090808",
    "created_at": "2018-07-24 01:33:16.500633",
    "updated_at": "2018-08-11 21:37:03.858256",
    "country": "United States",
    "longitude": "",
    "latitude": ""
  },
  {
    "id": "2204",
    "name": "The Lost Druid",
    "brewery_type": "planning",
    "street": "",
    "city": "Atlanta",
    "state": "Georgia",
    "postal_code": "30307-2758",
    "website_url": "",
    "phone": "",
    "created_at": "2018-07-24 01:33:16.526829",
    "updated_at": "2018-08-11 21:37:03.918501",
    "country": "United States",
    "longitude": "",
    "latitude": ""
  },
  {
    "id": "2205",
    "name": "The Split Batch Brewery",
    "brewery_type": "planning",
    "street": "",
    "city": "Buford",
    "state": "Georgia",
    "postal_code": "30519-2236",
    "website_url": "http://www.splitbatchbrewery.com",
    "phone": "4049834303",
    "created_at": "2018-07-24 01:33:16.538883",
    "updated_at": "2018-08-11 21:37:03.951611",
    "country": "United States",
    "longitude": "",
    "latitude": ""
  },
  {
    "id": "2206",
    "name": "The Village Corner",
    "brewery_type": "brewpub",
    "street": "6655 James B Rivers Dr",
    "city": "Stone Mountain",
    "state": "Georgia",
    "postal_code": "30083-2232",
    "website_url": "http://www.germanresturant.com",
    "phone": "7704980329",
    "created_at": "2018-07-24 01:33:16.551021",
    "updated_at": "2018-08-11 21:37:03.989283",
    "country": "United States",
    "longitude": "",
    "latitude": ""
  },
  {
    "id": "2207",
    "name": "The Woodlands At SweetWater",
    "brewery_type": "micro",
    "street": "215 Ottley Dr",
    "city": "Atlanta",
    "state": "Georgia",
    "postal_code": "30324-3924",
    "website_url": "",
    "phone": "4046912537",
    "created_at": "2018-07-24 01:33:16.563879",
    "updated_at": "2018-08-11 21:37:04.020444",
    "country": "United States",
    "longitude": "",
    "latitude": ""
  },
  {
    "id": "2215",
    "name": "Wild Heaven Craft Beers",
    "brewery_type": "micro",
    "street": "135B Maple St",
    "city": "Decatur",
    "state": "Georgia",
    "postal_code": "30030-3953",
    "website_url": "http://www.wildheavencraftbeers.com",
    "phone": "4049978589",
    "created_at": "2018-07-24 01:33:16.682288",
    "updated_at": "2018-08-11 21:37:04.304674",
    "country": "United States",
    "longitude": "",
    "latitude": ""
  },
  {
    "id": "2180",
    "name": "Pretoria Fields Collective",
    "brewery_type": "micro",
    "street": "120 Pine Ave",
    "city": "Albany",
    "state": "Georgia",
    "postal_code": "31701-2529",
    "website_url": "http://www.pretoriafields.com",
    "phone": "2295181770",
    "created_at": "2018-07-24 01:33:16.20317",
    "updated_at": "2018-08-24 00:29:21.824512",
    "country": "United States",
    "longitude": "-84.1495930042213",
    "latitude": "31.5785829366279"
  },
  {
    "id": "2182",
    "name": "Red Brick Brewing Co / Atlanta Brewing Co",
    "brewery_type": "micro",
    "street": "2323 Defoor Hills Rd NW",
    "city": "Atlanta",
    "state": "Georgia",
    "postal_code": "30318-2207",
    "website_url": "http://www.atlantabrewing.com",
    "phone": "4043555558",
    "created_at": "2018-07-24 01:33:16.231242",
    "updated_at": "2018-08-24 00:29:22.92276",
    "country": "United States",
    "longitude": "-84.4345413838986",
    "latitude": "33.81830375"
  },
  {
    "id": "2183",
    "name": "Red Hare Brewing Company",
    "brewery_type": "micro",
    "street": "1998 Delk Industrial Blvd SE",
    "city": "Marietta",
    "state": "Georgia",
    "postal_code": "30067-8904",
    "website_url": "http://www.redharebrewing.com",
    "phone": "6784010600",
    "created_at": "2018-07-24 01:33:16.243494",
    "updated_at": "2018-08-24 00:29:23.424187",
    "country": "United States",
    "longitude": "-84.4957563035449",
    "latitude": "33.92440825"
  },
  {
    "id": "2187",
    "name": "Rome City Brewing Co",
    "brewery_type": "brewpub",
    "street": "325 Broad St",
    "city": "Rome",
    "state": "Georgia",
    "postal_code": "30161-3005",
    "website_url": "http://www.romebrewhouse.com",
    "phone": "7062048474",
    "created_at": "2018-07-24 01:33:16.307799",
    "updated_at": "2018-08-24 00:29:25.578211",
    "country": "United States",
    "longitude": "-85.1726223061224",
    "latitude": "34.2541039795918"
  },
  {
    "id": "2190",
    "name": "Savannah River Brewing Company",
    "brewery_type": "micro",
    "street": "813 5th St",
    "city": "Augusta",
    "state": "Georgia",
    "postal_code": "30901-2414",
    "website_url": "http://www.savannahriverbrew.com",
    "phone": "7064268212",
    "created_at": "2018-07-24 01:33:16.345409",
    "updated_at": "2018-08-24 00:29:26.129101",
    "country": "United States",
    "longitude": "-81.9628808233695",
    "latitude": "33.4653453607462"
  },
  {
    "id": "2192",
    "name": "Second Self Brewing",
    "brewery_type": "micro",
    "street": "1311 Logan Cir NW",
    "city": "Atlanta",
    "state": "Georgia",
    "postal_code": "30318-2858",
    "website_url": "http://secondselfbeer.com",
    "phone": "6789168035",
    "created_at": "2018-07-24 01:33:16.369183",
    "updated_at": "2018-08-24 00:29:27.234053",
    "country": "United States",
    "longitude": "-84.4300619376943",
    "latitude": "33.8055922"
  },
  {
    "id": "2193",
    "name": "Service Brewing Company",
    "brewery_type": "micro",
    "street": "574 Indian St",
    "city": "Savannah",
    "state": "Georgia",
    "postal_code": "31401-1121",
    "website_url": "http://www.servicebrewing.com",
    "phone": "8452425355",
    "created_at": "2018-07-24 01:33:16.381154",
    "updated_at": "2018-08-24 00:29:27.76557",
    "country": "United States",
    "longitude": "-81.0982782978329",
    "latitude": "32.0839717038974"
  },
  {
    "id": "2194",
    "name": "Slow Pour Brewing Company",
    "brewery_type": "micro",
    "street": "407 N Clayton St",
    "city": "Lawrenceville",
    "state": "Georgia",
    "postal_code": "30046-4818",
    "website_url": "http://www.slowpourbrewing.com",
    "phone": "4045108901",
    "created_at": "2018-07-24 01:33:16.393174",
    "updated_at": "2018-08-24 00:29:28.316635",
    "country": "United States",
    "longitude": "-83.9888958076867",
    "latitude": "33.9611674735289"
  },
  {
    "id": "2195",
    "name": "Southbound Brewing Co",
    "brewery_type": "micro",
    "street": "107 E Lathrop Ave",
    "city": "Savannah",
    "state": "Georgia",
    "postal_code": "31415-2182",
    "website_url": "http://www.southboundbrewingco.com",
    "phone": "",
    "created_at": "2018-07-24 01:33:16.41391",
    "updated_at": "2018-08-24 00:29:28.884287",
    "country": "United States",
    "longitude": "-81.111372",
    "latitude": "32.087032"
  },
  {
    "id": "2198",
    "name": "Stats Brewpub",
    "brewery_type": "brewpub",
    "street": "300 Marietta St NW",
    "city": "Atlanta",
    "state": "Georgia",
    "postal_code": "30313-1632",
    "website_url": "http://StatsATL.com",
    "phone": "7705700160",
    "created_at": "2018-07-24 01:33:16.450382",
    "updated_at": "2018-08-24 00:29:30.527771",
    "country": "United States",
    "longitude": "-84.3964736",
    "latitude": "33.7615549"
  },
  {
    "id": "2200",
    "name": "Strawn Brewing Co",
    "brewery_type": "micro",
    "street": "27 Word St",
    "city": "Fairburn",
    "state": "Georgia",
    "postal_code": "30213-1545",
    "website_url": "http://www.strawnbrewing.com",
    "phone": "6785453775",
    "created_at": "2018-07-24 01:33:16.4749",
    "updated_at": "2018-08-24 00:29:32.291815",
    "country": "United States",
    "longitude": "-84.5836887307548",
    "latitude": "33.5606219799361"
  },
  {
    "id": "2203",
    "name": "Terrapin Beer Co",
    "brewery_type": "large",
    "street": "265 Newton Bridge Rd",
    "city": "Athens",
    "state": "Georgia",
    "postal_code": "30607-1145",
    "website_url": "http://www.terrapinbeer.com",
    "phone": "7065493377",
    "created_at": "2018-07-24 01:33:16.514806",
    "updated_at": "2018-08-24 00:29:33.470263",
    "country": "United States",
    "longitude": "-83.3977928447205",
    "latitude": "33.9885289006211"
  },
  {
    "id": "2208",
    "name": "The Wrecking Bar Brewpub",
    "brewery_type": "brewpub",
    "street": "292 Moreland Ave NE",
    "city": "Atlanta",
    "state": "Georgia",
    "postal_code": "30307-1953",
    "website_url": "http://www.wreckingbarbrewpub.com",
    "phone": "4042212600",
    "created_at": "2018-07-24 01:33:16.577269",
    "updated_at": "2018-08-24 00:29:34.972766",
    "country": "United States",
    "longitude": "-84.3496422",
    "latitude": "33.762309"
  },
  {
    "id": "2209",
    "name": "Three Taverns Craft Brewery",
    "brewery_type": "micro",
    "street": "121 New St",
    "city": "Decatur",
    "state": "Georgia",
    "postal_code": "30030-4131",
    "website_url": "http://www.threetavernsbrewery.com",
    "phone": "4046003355",
    "created_at": "2018-07-24 01:33:16.593133",
    "updated_at": "2018-08-24 00:29:35.501827",
    "country": "United States",
    "longitude": "-84.2848807842216",
    "latitude": "33.7730551677064"
  },
  {
    "id": "2210",
    "name": "Torched Hop Brewing Company",
    "brewery_type": "brewpub",
    "street": "249 Ponce de Leon Ave NE",
    "city": "Atlanta",
    "state": "Georgia",
    "postal_code": "30308-1937",
    "website_url": "http://www.Torchedhopbrewing.com",
    "phone": "4048352040",
    "created_at": "2018-07-24 01:33:16.608911",
    "updated_at": "2018-08-24 00:29:36.17277",
    "country": "United States",
    "longitude": "-84.3792977599729",
    "latitude": "33.77232605"
  },
  {
    "id": "2211",
    "name": "Tucker Brewing Company",
    "brewery_type": "micro",
    "street": "2003 S Bibb Dr",
    "city": "Tucker",
    "state": "Georgia",
    "postal_code": "30084-6240",
    "website_url": "http://www.tuckerbrewing.com",
    "phone": "8337522400",
    "created_at": "2018-07-24 01:33:16.624197",
    "updated_at": "2018-08-24 00:29:36.652788",
    "country": "United States",
    "longitude": "-84.2075880909091",
    "latitude": "33.8426920909091"
  },
  {
    "id": "2212",
    "name": "Twain's Brewpub & Billiards",
    "brewery_type": "brewpub",
    "street": "211 E Trinity Pl",
    "city": "Decatur",
    "state": "Georgia",
    "postal_code": "30030-3414",
    "website_url": "http://www.twains.net",
    "phone": "4043730063",
    "created_at": "2018-07-24 01:33:16.639018",
    "updated_at": "2018-08-24 00:29:37.32718",
    "country": "United States",
    "longitude": "-84.294616",
    "latitude": "33.77228"
  },
  {
    "id": "2213",
    "name": "Two Tides Brewing Company",
    "brewery_type": "micro",
    "street": "12 West 41st St",
    "city": "Savannah",
    "state": "Georgia",
    "postal_code": "31401",
    "website_url": "http://www.twotidesbrewing.com",
    "phone": "9126670706",
    "created_at": "2018-07-24 01:33:16.653681",
    "updated_at": "2018-08-24 00:29:37.922285",
    "country": "United States",
    "longitude": "-81.1021609166667",
    "latitude": "32.054127"
  },
  {
    "id": "2214",
    "name": "Variant Brewing Company",
    "brewery_type": "micro",
    "street": "66 Norcross St",
    "city": "Roswell",
    "state": "Georgia",
    "postal_code": "30075-3866",
    "website_url": "",
    "phone": "6782428189",
    "created_at": "2018-07-24 01:33:16.669145",
    "updated_at": "2018-08-24 00:29:38.360634",
    "country": "United States",
    "longitude": "-84.35907858443",
    "latitude": "34.02576775"
  },
  {
    "id": "2112",
    "name": "5 Seasons Brewing Co - Westside",
    "brewery_type": "brewpub",
    "street": "1000 Marietta St NW Ste 204",
    "city": "Atlanta",
    "state": "Georgia",
    "postal_code": "30318-0683",
    "website_url": "http://www.5seasonsbrewing.com",
    "phone": "4048753232",
    "created_at": "2018-07-24 01:33:15.34686",
    "updated_at": "2018-08-11 21:37:00.787492",
    "country": "United States",
    "longitude": "",
    "latitude": ""
  },
  {
    "id": "2127",
    "name": "Burnt Hickory Brewery",
    "brewery_type": "micro",
    "street": "2260 Moon Station Ct NW Ste 210",
    "city": "Kennesaw",
    "state": "Georgia",
    "postal_code": "30144-5653",
    "website_url": "http://www.burnthickorybrewery.com",
    "phone": "7705148812",
    "created_at": "2018-07-24 01:33:15.529901",
    "updated_at": "2018-08-11 21:37:01.299848",
    "country": "United States",
    "longitude": "",
    "latitude": ""
  },
  {
    "id": "2147",
    "name": "Gordon Biersch Brewery Restaurant - Atlanta",
    "brewery_type": "brewpub",
    "street": "3242 Peachtree Rd NE",
    "city": "Atlanta",
    "state": "Georgia",
    "postal_code": "30305-2425",
    "website_url": "http://www.craftworksrestaurants.com",
    "phone": "4042640253",
    "created_at": "2018-07-24 01:33:15.782117",
    "updated_at": "2018-08-24 00:29:07.009128",
    "country": "United States",
    "longitude": "-84.3620936",
    "latitude": "33.8503143"
  },
  {
    "id": "2166",
    "name": "Monkey Wrench Brewing Company LLC",
    "brewery_type": "planning",
    "street": "",
    "city": "Snellville",
    "state": "Georgia",
    "postal_code": "30078-6503",
    "website_url": "http://www.monkeywrenchbrewing.com",
    "phone": "6785212142",
    "created_at": "2018-07-24 01:33:16.026441",
    "updated_at": "2018-08-11 21:37:02.676191",
    "country": "United States",
    "longitude": "",
    "latitude": ""
  },
  {
    "id": "2176",
    "name": "Phantom Horse Brewing",
    "brewery_type": "brewpub",
    "street": "56-A Fieldstone Village Dr",
    "city": "Rock Spring",
    "state": "Georgia",
    "postal_code": "30739",
    "website_url": "http://www.phantomhorsebrewing.com",
    "phone": "4233144978",
    "created_at": "2018-07-24 01:33:16.154862",
    "updated_at": "2018-08-11 21:37:03.064906",
    "country": "United States",
    "longitude": "",
    "latitude": ""
  },
  {
    "id": "2114",
    "name": "Abide Brewing Company",
    "brewery_type": "micro",
    "street": "110 Werz Industrial Blvd Ste 130",
    "city": "Newnan",
    "state": "Georgia",
    "postal_code": "30263-5802",
    "website_url": "http://www.abidebrewing.com",
    "phone": "6789726747",
    "created_at": "2018-07-24 01:33:15.371973",
    "updated_at": "2018-08-24 00:28:57.079679",
    "country": "United States",
    "longitude": "-84.7635664117647",
    "latitude": "33.4025703529412"
  },
  {
    "id": "2129",
    "name": "Chattabrewchee Southern Brewhouse",
    "brewery_type": "micro",
    "street": "709 4th Ave",
    "city": "West Point",
    "state": "Georgia",
    "postal_code": "31833-1506",
    "website_url": "http://www.chattabrewchee.com",
    "phone": "7065011151",
    "created_at": "2018-07-24 01:33:15.554137",
    "updated_at": "2018-08-24 00:28:59.773004",
    "country": "United States",
    "longitude": "-85.1853615243903",
    "latitude": "32.8762576310151"
  },
  {
    "id": "2130",
    "name": "Cherokee Brewing + Pizza Company",
    "brewery_type": "brewpub",
    "street": "207-B West Cuyler St",
    "city": "Dalton",
    "state": "Georgia",
    "postal_code": "30720",
    "website_url": "http://www.cherokeebrewingandpizza.com",
    "phone": "7065299478",
    "created_at": "2018-07-24 01:33:15.56808",
    "updated_at": "2018-08-24 00:29:00.324526",
    "country": "United States",
    "longitude": "-84.9694072096123",
    "latitude": "34.7697666359591"
  },
  {
    "id": "2161",
    "name": "Max Lager's Wood Fired Grill & Brewery",
    "brewery_type": "brewpub",
    "street": "320 Peachtree St NE",
    "city": "Atlanta",
    "state": "Georgia",
    "postal_code": "30308-3210",
    "website_url": "http://www.maxlagers.com",
    "phone": "4045254400",
    "created_at": "2018-07-24 01:33:15.962456",
    "updated_at": "2018-08-24 00:29:12.766776",
    "country": "United States",
    "longitude": "-84.3870607355802",
    "latitude": "33.76333225"
  },
  {
    "id": "2179",
    "name": "Porter Pizza & Brewery",
    "brewery_type": "brewpub",
    "street": "6370 Powers Ferry Rd NW",
    "city": "Sandy Springs",
    "state": "Georgia",
    "postal_code": "30339",
    "website_url": "http://www.porterpizzabrewery.com",
    "phone": "",
    "created_at": "2018-07-24 01:33:16.191071",
    "updated_at": "2018-08-24 00:29:21.253726",
    "country": "United States",
    "longitude": "-84.4304239",
    "latitude": "33.9043481"
  },
  {
    "id": "2181",
    "name": "Printer's Ale Manufacturing Co.",
    "brewery_type": "micro",
    "street": "940 Columbia Dr",
    "city": "Carrollton",
    "state": "Georgia",
    "postal_code": "30117-8780",
    "website_url": "http://www.printers-ale.com",
    "phone": "7708364253",
    "created_at": "2018-07-24 01:33:16.216401",
    "updated_at": "2018-08-24 00:29:22.41065",
    "country": "United States",
    "longitude": "-85.1024965714286",
    "latitude": "33.6113894489796"
  },
  {
    "id": "2196",
    "name": "Southern Brewing Company",
    "brewery_type": "micro",
    "street": "231 Collins Industrial Blvd",
    "city": "Athens",
    "state": "Georgia",
    "postal_code": "30601-1517",
    "website_url": "http://www.sobrewco.com",
    "phone": "7065487183",
    "created_at": "2018-07-24 01:33:16.426119",
    "updated_at": "2018-08-24 00:29:29.429091",
    "country": "United States",
    "longitude": "-83.3500228701351",
    "latitude": "33.9811401213053"
  },
  {
    "id": "2201",
    "name": "SweetWater Brewing Co",
    "brewery_type": "regional",
    "street": "195 Ottley Dr NE",
    "city": "Atlanta",
    "state": "Georgia",
    "postal_code": "30324-3924",
    "website_url": "http://www.sweetwaterbrew.com",
    "phone": "4046912537",
    "created_at": "2018-07-24 01:33:16.488114",
    "updated_at": "2018-08-24 00:29:32.873246",
    "country": "United States",
    "longitude": "-84.3810721937623",
    "latitude": "33.80802235"
  },
  {
    "id": "2125",
    "name": "Brewery In Planning Suwanee",
    "brewery_type": "planning",
    "street": "",
    "city": "Duluth",
    "state": "Georgia",
    "postal_code": "30096-3282",
    "website_url": "",
    "phone": "6785717353",
    "created_at": "2018-07-24 01:33:15.505442",
    "updated_at": "2018-08-11 21:37:01.218115",
    "country": "United States",
    "longitude": "",
    "latitude": ""
  },
  {
    "id": "2165",
    "name": "Monday Night Brewing - Garage",
    "brewery_type": "micro",
    "street": "933 Lee St SW",
    "city": "Atlanta",
    "state": "Georgia",
    "postal_code": "30310",
    "website_url": "",
    "phone": "",
    "created_at": "2018-07-24 01:33:16.01386",
    "updated_at": "2018-08-24 00:29:14.426354",
    "country": "United States",
    "longitude": "-84.4161772352941",
    "latitude": "33.7290642941176"
  },
  {
    "id": "2122",
    "name": "Brewery in Planning - Johns Creek, GA",
    "brewery_type": "planning",
    "street": "",
    "city": "Johns Creek",
    "state": "Georgia",
    "postal_code": "30022",
    "website_url": "",
    "phone": "6787932162",
    "created_at": "2018-07-24 01:33:15.468788",
    "updated_at": "2018-08-11 21:37:01.153421",
    "country": "United States",
    "longitude": "",
    "latitude": ""
  },
  {
    "id": "2124",
    "name": "Brewery in Planning - Suwanee",
    "brewery_type": "planning",
    "street": "",
    "city": "Suwanee",
    "state": "Georgia",
    "postal_code": "30024-4515",
    "website_url": "",
    "phone": "6786898355",
    "created_at": "2018-07-24 01:33:15.493219",
    "updated_at": "2018-08-11 21:37:01.183565",
    "country": "United States",
    "longitude": "",
    "latitude": ""
  },
  {
    "id": "2110",
    "name": "400 North Brewing",
    "brewery_type": "planning",
    "street": "",
    "city": "Sugarhill",
    "state": "Georgia",
    "postal_code": "30518-7916",
    "website_url": "http://400northbrewing.com",
    "phone": "4047911119",
    "created_at": "2018-07-24 01:33:15.319855",
    "updated_at": "2018-08-11 21:37:00.707996",
    "country": "United States",
    "longitude": "",
    "latitude": ""
  },
  {
    "id": "2113",
    "name": "6 Bridges Brewing",
    "brewery_type": "planning",
    "street": "",
    "city": "Johns Creek",
    "state": "Georgia",
    "postal_code": "30097",
    "website_url": "http://www.sixbridgesbrewing.com",
    "phone": "7708460292",
    "created_at": "2018-07-24 01:33:15.358972",
    "updated_at": "2018-08-11 21:37:00.824592",
    "country": "United States",
    "longitude": "",
    "latitude": ""
  },
  {
    "id": "2116",
    "name": "Anheuser-Busch Inc â Cartersville",
    "brewery_type": "large",
    "street": "100 Busch Dr NE",
    "city": "Cartersville",
    "state": "Georgia",
    "postal_code": "30121-7217",
    "website_url": "",
    "phone": "7703862000",
    "created_at": "2018-07-24 01:33:15.396147",
    "updated_at": "2018-08-11 21:37:00.919537",
    "country": "United States",
    "longitude": "",
    "latitude": ""
  },
  {
    "id": "2117",
    "name": "Arches Brewing",
    "brewery_type": "micro",
    "street": "3361 Dogwood Dr",
    "city": "Hapeville",
    "state": "Georgia",
    "postal_code": "30354-1439",
    "website_url": "",
    "phone": "6786532739",
    "created_at": "2018-07-24 01:33:15.408243",
    "updated_at": "2018-08-11 21:37:00.962932",
    "country": "United States",
    "longitude": "",
    "latitude": ""
  },
  {
    "id": "2119",
    "name": "Braselton Brewing Company",
    "brewery_type": "planning",
    "street": "",
    "city": "Braselton",
    "state": "Georgia",
    "postal_code": "30517",
    "website_url": "",
    "phone": "7068701458",
    "created_at": "2018-07-24 01:33:15.4327",
    "updated_at": "2018-08-11 21:37:01.050129",
    "country": "United States",
    "longitude": "",
    "latitude": ""
  },
  {
    "id": "2120",
    "name": "Brewery in Planning - Buford",
    "brewery_type": "planning",
    "street": "",
    "city": "Buford",
    "state": "Georgia",
    "postal_code": "30515-0568",
    "website_url": "",
    "phone": "",
    "created_at": "2018-07-24 01:33:15.444806",
    "updated_at": "2018-08-11 21:37:01.091561",
    "country": "United States",
    "longitude": "",
    "latitude": ""
  },
  {
    "id": "2121",
    "name": "Brewery in Planning - Fayetteville",
    "brewery_type": "planning",
    "street": "",
    "city": "Fayetteville",
    "state": "Georgia",
    "postal_code": "30215-4628",
    "website_url": "",
    "phone": "4044529306",
    "created_at": "2018-07-24 01:33:15.456877",
    "updated_at": "2018-08-11 21:37:01.126728",
    "country": "United States",
    "longitude": "",
    "latitude": ""
  },
  {
    "id": "2111",
    "name": "5 Seasons Brewing Co - Prado",
    "brewery_type": "brewpub",
    "street": "5600 Roswell Rd",
    "city": "Sandy Springs",
    "state": "Georgia",
    "postal_code": "30342-1150",
    "website_url": "http://www.5seasonsbrewing.com",
    "phone": "4042555911",
    "created_at": "2018-07-24 01:33:15.334105",
    "updated_at": "2018-08-24 00:28:55.977147",
    "country": "United States",
    "longitude": "-84.3796711",
    "latitude": "33.9078086"
  },
  {
    "id": "2115",
    "name": "Akademia Brewing Company",
    "brewery_type": "brewpub",
    "street": "150 Crane Dr",
    "city": "Athens",
    "state": "Georgia",
    "postal_code": "30606-0600",
    "website_url": "http://www.AkademiaBC.com",
    "phone": "7064613208",
    "created_at": "2018-07-24 01:33:15.384296",
    "updated_at": "2018-08-24 00:28:57.600712",
    "country": "United States",
    "longitude": "-83.4715375370739",
    "latitude": "33.9427028863025"
  },
  {
    "id": "2118",
    "name": "BlueTarp Brewing Co",
    "brewery_type": "micro",
    "street": "731 E College Ave",
    "city": "Decatur",
    "state": "Georgia",
    "postal_code": "30030-5365",
    "website_url": "http://www.bluetarpbrew.com",
    "phone": "4046696740",
    "created_at": "2018-07-24 01:33:15.420193",
    "updated_at": "2018-08-24 00:28:58.688802",
    "country": "United States",
    "longitude": "-84.2835622",
    "latitude": "33.7740425"
  },
  {
    "id": "2216",
    "name": "Wild Leap Brewing Company",
    "brewery_type": "micro",
    "street": "308 Main St",
    "city": "Lagrange",
    "state": "Georgia",
    "postal_code": "30240-4504",
    "website_url": "http://www.wildleap.com",
    "phone": "7062986400",
    "created_at": "2018-07-24 01:33:16.695209",
    "updated_at": "2018-08-24 00:29:39.429899",
    "country": "United States",
    "longitude": "-85.0311916",
    "latitude": "33.037368"
  },
  {
    "id": "2126",
    "name": "Buck Bald Brewing Corporation",
    "brewery_type": "planning",
    "street": "",
    "city": "Blue Ridge",
    "state": "Georgia",
    "postal_code": "30513",
    "website_url": "http://www.buckbaldbrewing.com",
    "phone": "7703169971",
    "created_at": "2018-07-24 01:33:15.518076",
    "updated_at": "2018-08-11 21:37:01.258802",
    "country": "United States",
    "longitude": "",
    "latitude": ""
  },
  {
    "id": "2128",
    "name": "Cannon Brewpub",
    "brewery_type": "brewpub",
    "street": "1041 Broadway",
    "city": "Columbus",
    "state": "Georgia",
    "postal_code": "31901-5256",
    "website_url": "",
    "phone": "7066532337",
    "created_at": "2018-07-24 01:33:15.541834",
    "updated_at": "2018-08-11 21:37:01.334777",
    "country": "United States",
    "longitude": "",
    "latitude": ""
  },
  {
    "id": "2131",
    "name": "Coastal Empire Beer Co",
    "brewery_type": "micro",
    "street": "79 Ross Rd",
    "city": "Savannah",
    "state": "Georgia",
    "postal_code": "31405-1660",
    "website_url": "http://www.coastalempirebeer.com",
    "phone": "9124287911",
    "created_at": "2018-07-24 01:33:15.581469",
    "updated_at": "2018-08-11 21:37:01.426051",
    "country": "United States",
    "longitude": "",
    "latitude": ""
  },
  {
    "id": "2133",
    "name": "Creature Comforts Production Facility At Southern Mill",
    "brewery_type": "regional",
    "street": "355 Oneta St Bldg A100",
    "city": "Athens",
    "state": "Georgia",
    "postal_code": "30601",
    "website_url": "",
    "phone": "",
    "created_at": "2018-07-24 01:33:15.606098",
    "updated_at": "2018-08-11 21:37:01.484882",
    "country": "United States",
    "longitude": "",
    "latitude": ""
  },
  {
    "id": "2135",
    "name": "Dry County Brewing Company",
    "brewery_type": "micro",
    "street": "1500 Lockhart Drive",
    "city": "kennesaw",
    "state": "Georgia",
    "postal_code": "30144",
    "website_url": "http://www.DryCountyBrewCo.com",
    "phone": "4045799846",
    "created_at": "2018-07-24 01:33:15.630532",
    "updated_at": "2018-08-11 21:37:01.550554",
    "country": "United States",
    "longitude": "",
    "latitude": ""
  },
  {
    "id": "2136",
    "name": "Eagle Creek Brewing Company",
    "brewery_type": "micro",
    "street": "106 Savannah Ave Ste B",
    "city": "Statesboro",
    "state": "Georgia",
    "postal_code": "30458-7162",
    "website_url": "http://www.eaglecreekbrewingco.com",
    "phone": "9124892337",
    "created_at": "2018-07-24 01:33:15.643319",
    "updated_at": "2018-08-11 21:37:01.580171",
    "country": "United States",
    "longitude": "",
    "latitude": ""
  },
  {
    "id": "2137",
    "name": "Etowah Brewery",
    "brewery_type": "planning",
    "street": "",
    "city": "Dahlonega",
    "state": "Georgia",
    "postal_code": "30533",
    "website_url": "",
    "phone": "6785707349",
    "created_at": "2018-07-24 01:33:15.654878",
    "updated_at": "2018-08-11 21:37:01.613522",
    "country": "United States",
    "longitude": "",
    "latitude": ""
  },
  {
    "id": "2138",
    "name": "EuroBevs",
    "brewery_type": "contract",
    "street": "2255 Cumberland Pkwy SE",
    "city": "Atlanta",
    "state": "Georgia",
    "postal_code": "30339-4515",
    "website_url": "http://www.eurobevs.com",
    "phone": "7704371285",
    "created_at": "2018-07-24 01:33:15.667164",
    "updated_at": "2018-08-11 21:37:01.655959",
    "country": "United States",
    "longitude": "",
    "latitude": ""
  },
  {
    "id": "2141",
    "name": "Firewater Brewing Company",
    "brewery_type": "planning",
    "street": "",
    "city": "Kennesaw",
    "state": "Georgia",
    "postal_code": "30144",
    "website_url": "",
    "phone": "",
    "created_at": "2018-07-24 01:33:15.706068",
    "updated_at": "2018-08-11 21:37:01.788389",
    "country": "United States",
    "longitude": "",
    "latitude": ""
  },
  {
    "id": "2142",
    "name": "From The Earth Brewing Company",
    "brewery_type": "brewpub",
    "street": "1570 Holcomb Bridge Rd Suite 405",
    "city": "Roswell",
    "state": "Georgia",
    "postal_code": "30076",
    "website_url": "http://www.ftebrewing.com",
    "phone": "7709109799",
    "created_at": "2018-07-24 01:33:15.717852",
    "updated_at": "2018-08-11 21:37:01.822181",
    "country": "United States",
    "longitude": "",
    "latitude": ""
  },
  {
    "id": "2144",
    "name": "Georgia Beer Co",
    "brewery_type": "planning",
    "street": "",
    "city": "Valdosta",
    "state": "Georgia",
    "postal_code": "31601-9017",
    "website_url": "http://www.georgiabeerco.com",
    "phone": "9123995883",
    "created_at": "2018-07-24 01:33:15.743498",
    "updated_at": "2018-08-11 21:37:01.893856",
    "country": "United States",
    "longitude": "",
    "latitude": ""
  },
  {
    "id": "2145",
    "name": "Glover Park Brewery",
    "brewery_type": "planning",
    "street": "",
    "city": "Marietta",
    "state": "Georgia",
    "postal_code": "30060",
    "website_url": "",
    "phone": "",
    "created_at": "2018-07-24 01:33:15.756706",
    "updated_at": "2018-08-11 21:37:01.931348",
    "country": "United States",
    "longitude": "",
    "latitude": ""
  },
  {
    "id": "2146",
    "name": "Good Word Brewing & Public House",
    "brewery_type": "brewpub",
    "street": "3085 Main St Ste 520",
    "city": "Duluth",
    "state": "Georgia",
    "postal_code": "30096-3261",
    "website_url": "http://www.goodwordbrewing.com",
    "phone": "4049732077",
    "created_at": "2018-07-24 01:33:15.768936",
    "updated_at": "2018-08-11 21:37:01.965371",
    "country": "United States",
    "longitude": "",
    "latitude": ""
  },
  {
    "id": "2148",
    "name": "GRITS Brewing",
    "brewery_type": "planning",
    "street": "",
    "city": "Chamblee",
    "state": "Georgia",
    "postal_code": "30341-2024",
    "website_url": "",
    "phone": "",
    "created_at": "2018-07-24 01:33:15.794109",
    "updated_at": "2018-08-11 21:37:02.043168",
    "country": "United States",
    "longitude": "",
    "latitude": ""
  },
  {
    "id": "2150",
    "name": "Hop Soul Brewery",
    "brewery_type": "planning",
    "street": "",
    "city": "Brunswick",
    "state": "Georgia",
    "postal_code": "31520",
    "website_url": "http://www.hopsoulbrewery.com",
    "phone": "",
    "created_at": "2018-07-24 01:33:15.819094",
    "updated_at": "2018-08-11 21:37:02.116906",
    "country": "United States",
    "longitude": "",
    "latitude": ""
  },
  {
    "id": "2151",
    "name": "Hopstix",
    "brewery_type": "brewpub",
    "street": "3404 Pierce Dr NE",
    "city": "Chamblee",
    "state": "Georgia",
    "postal_code": "30341-2444",
    "website_url": "http://www.hopstix.com",
    "phone": "6788882306",
    "created_at": "2018-07-24 01:33:15.831521",
    "updated_at": "2018-08-11 21:37:02.153859",
    "country": "United States",
    "longitude": "",
    "latitude": ""
  },
  {
    "id": "2153",
    "name": "Ironwood Creek",
    "brewery_type": "planning",
    "street": "",
    "city": "Evans",
    "state": "Georgia",
    "postal_code": "30809-8239",
    "website_url": "",
    "phone": "",
    "created_at": "2018-07-24 01:33:15.859272",
    "updated_at": "2018-08-11 21:37:02.214648",
    "country": "United States",
    "longitude": "",
    "latitude": ""
  },
  {
    "id": "2158",
    "name": "Line Creek Brewing",
    "brewery_type": "micro",
    "street": "150 Huddleston Rd Ste 300",
    "city": "Peachtree City",
    "state": "Georgia",
    "postal_code": "30269",
    "website_url": "http://www.linecreekbrewing.com",
    "phone": "",
    "created_at": "2018-07-24 01:33:15.924748",
    "updated_at": "2018-08-11 21:37:02.453475",
    "country": "United States",
    "longitude": "",
    "latitude": ""
  },
  {
    "id": "2160",
    "name": "Mandatory Fun Brewing",
    "brewery_type": "planning",
    "street": "",
    "city": "Marietta",
    "state": "Georgia",
    "postal_code": "30064",
    "website_url": "http://www.vikingalchemist.com",
    "phone": "9517955337",
    "created_at": "2018-07-24 01:33:15.94987",
    "updated_at": "2018-08-11 21:37:02.513031",
    "country": "United States",
    "longitude": "",
    "latitude": ""
  },
  {
    "id": "2168",
    "name": "New Realm Brewing",
    "brewery_type": "brewpub",
    "street": "550 Somerset Ter NE Unit 101",
    "city": "Atlanta",
    "state": "Georgia",
    "postal_code": "30306-4317",
    "website_url": "http://www.newrealmbrewing.com",
    "phone": "4049682778",
    "created_at": "2018-07-24 01:33:16.051405",
    "updated_at": "2018-08-11 21:37:02.75996",
    "country": "United States",
    "longitude": "",
    "latitude": ""
  },
  {
    "id": "2170",
    "name": "Oconee Brewing Company",
    "brewery_type": "micro",
    "street": "202 N West St",
    "city": "Greensboro",
    "state": "Georgia",
    "postal_code": "30642-1124",
    "website_url": "http://www.oconeebrewingco.com",
    "phone": "7069201177",
    "created_at": "2018-07-24 01:33:16.078157",
    "updated_at": "2018-08-11 21:37:02.844115",
    "country": "United States",
    "longitude": "",
    "latitude": ""
  },
  {
    "id": "2171",
    "name": "O'Dempsey's Brewing Co",
    "brewery_type": "contract",
    "street": "205 Grosvenor Place, Nw",
    "city": "Atlanta",
    "state": "Georgia",
    "postal_code": "30328",
    "website_url": "http://www.odempseys.com",
    "phone": "4048450059",
    "created_at": "2018-07-24 01:33:16.09065",
    "updated_at": "2018-08-11 21:37:02.882991",
    "country": "United States",
    "longitude": "",
    "latitude": ""
  },
  {
    "id": "2172",
    "name": "Omaha Brewing Company",
    "brewery_type": "micro",
    "street": "265 Brew St",
    "city": "Omaha",
    "state": "Georgia",
    "postal_code": "31821-2258",
    "website_url": "http://www.omahabrewingcompany.com",
    "phone": "2298384779",
    "created_at": "2018-07-24 01:33:16.103833",
    "updated_at": "2018-08-11 21:37:02.91853",
    "country": "United States",
    "longitude": "",
    "latitude": ""
  },
  {
    "id": "2132",
    "name": "Creature Comforts Brewing Co.",
    "brewery_type": "regional",
    "street": "271 W Hancock Ave",
    "city": "Athens",
    "state": "Georgia",
    "postal_code": "30601-2727",
    "website_url": "http://www.creaturecomfortsbeer.com",
    "phone": "7064101043",
    "created_at": "2018-07-24 01:33:15.593582",
    "updated_at": "2018-08-24 00:29:00.88581",
    "country": "United States",
    "longitude": "-83.380087",
    "latitude": "33.9591987142857"
  },
  {
    "id": "2134",
    "name": "Currahee Brewing Company",
    "brewery_type": "micro",
    "street": "25 S Main St",
    "city": "Alpharetta",
    "state": "Georgia",
    "postal_code": "30009",
    "website_url": "",
    "phone": "",
    "created_at": "2018-07-24 01:33:15.618382",
    "updated_at": "2018-08-24 00:29:02.040773",
    "country": "United States",
    "longitude": "-84.2967826",
    "latitude": "34.0711104"
  },
  {
    "id": "2139",
    "name": "Eventide Brewing Co",
    "brewery_type": "micro",
    "street": "1015 Grant St SE",
    "city": "Atlanta",
    "state": "Georgia",
    "postal_code": "30315-2014",
    "website_url": "http://www.eventidebrewing.com",
    "phone": "4049074543",
    "created_at": "2018-07-24 01:33:15.680861",
    "updated_at": "2018-08-24 00:29:04.352122",
    "country": "United States",
    "longitude": "-84.3770629097993",
    "latitude": "33.72670205"
  },
  {
    "id": "2140",
    "name": "Fannin Brewing",
    "brewery_type": "micro",
    "street": "3758 E First St",
    "city": "Blue Ridge",
    "state": "Georgia",
    "postal_code": "30513-4514",
    "website_url": "http://www.fanninbrewingcompany.com",
    "phone": "7062582762",
    "created_at": "2018-07-24 01:33:15.69398",
    "updated_at": "2018-08-24 00:29:04.845927",
    "country": "United States",
    "longitude": "-84.3170747740377",
    "latitude": "34.8714261335704"
  },
  {
    "id": "2143",
    "name": "Gate City Brewing Company",
    "brewery_type": "micro",
    "street": "43 Magnolia St",
    "city": "Roswell",
    "state": "Georgia",
    "postal_code": "30075-4289",
    "website_url": "http://www.gatecitybrewingco.com",
    "phone": "6784040961",
    "created_at": "2018-07-24 01:33:15.730791",
    "updated_at": "2018-08-24 00:29:05.880754",
    "country": "United States",
    "longitude": "-84.3639530669006",
    "latitude": "34.0229342592006"
  },
  {
    "id": "2149",
    "name": "Grumpy Old Men Brewing",
    "brewery_type": "micro",
    "street": "1315 E Main St",
    "city": "Blue Ridge",
    "state": "Georgia",
    "postal_code": "30513-8506",
    "website_url": "http://www.grumpyoldmenbrewing.com",
    "phone": "7703318870",
    "created_at": "2018-07-24 01:33:15.806744",
    "updated_at": "2018-08-24 00:29:07.640356",
    "country": "United States",
    "longitude": "-84.3305083215193",
    "latitude": "34.8574713620201"
  },
  {
    "id": "2152",
    "name": "Ironmonger Brewing",
    "brewery_type": "micro",
    "street": "2129 Northwest Pkwy SE Ste 105",
    "city": "Marietta",
    "state": "Georgia",
    "postal_code": "30067-9223",
    "website_url": "http://www.ironmongerbrewing.com",
    "phone": "6787428551",
    "created_at": "2018-07-24 01:33:15.843473",
    "updated_at": "2018-08-24 00:29:08.63646",
    "country": "United States",
    "longitude": "-84.4869635256505",
    "latitude": "33.919593821209"
  },
  {
    "id": "2154",
    "name": "Jailhouse Brewing Co",
    "brewery_type": "micro",
    "street": "8 Cherry St",
    "city": "Hampton",
    "state": "Georgia",
    "postal_code": "30228-5575",
    "website_url": "http://www.jailhousebrewing.com",
    "phone": "4047297681",
    "created_at": "2018-07-24 01:33:15.872306",
    "updated_at": "2018-08-24 00:29:09.217584",
    "country": "United States",
    "longitude": "-84.282374",
    "latitude": "33.387534"
  },
  {
    "id": "2155",
    "name": "Jekyll Brewing",
    "brewery_type": "micro",
    "street": "2855 Marconi Dr Ste 350",
    "city": "Alpharetta",
    "state": "Georgia",
    "postal_code": "30005-2051",
    "website_url": "http://www.jekyllbrewing.com",
    "phone": "7705968788",
    "created_at": "2018-07-24 01:33:15.884802",
    "updated_at": "2018-08-24 00:29:09.789612",
    "country": "United States",
    "longitude": "-84.2536638",
    "latitude": "34.0816562"
  },
  {
    "id": "2156",
    "name": "Johnnie MacCracken's Celtic Firehouse Pub, Inc.",
    "brewery_type": "brewpub",
    "street": "15 Atlanta Street",
    "city": "Marietta",
    "state": "Georgia",
    "postal_code": "30060-1985",
    "website_url": "http://www.johnniemaccrackens.com",
    "phone": "7705907868",
    "created_at": "2018-07-24 01:33:15.897925",
    "updated_at": "2018-08-24 00:29:10.484087",
    "country": "United States",
    "longitude": "-84.5417592",
    "latitude": "33.9371282"
  },
  {
    "id": "2157",
    "name": "Left Nut Brewing Co",
    "brewery_type": "micro",
    "street": "2100 Atlanta Rd",
    "city": "Gainesville",
    "state": "Georgia",
    "postal_code": "30504-7168",
    "website_url": "http://www.leftnutbrewing.com",
    "phone": "6788276678",
    "created_at": "2018-07-24 01:33:15.911963",
    "updated_at": "2018-08-24 00:29:11.023348",
    "country": "United States",
    "longitude": "-83.8475963368642",
    "latitude": "34.25442345"
  },
  {
    "id": "2159",
    "name": "Macon Beer Company",
    "brewery_type": "proprietor",
    "street": "345 Oglethorpe St",
    "city": "Macon",
    "state": "Georgia",
    "postal_code": "31201-3274",
    "website_url": "http://www.maconbeer.com",
    "phone": "4782167117",
    "created_at": "2018-07-24 01:33:15.93706",
    "updated_at": "2018-08-24 00:29:12.157921",
    "country": "United States",
    "longitude": "-83.630297",
    "latitude": "32.828235"
  },
  {
    "id": "2163",
    "name": "MillerCoors Brewing Co - Albany",
    "brewery_type": "large",
    "street": "405 Cordele Rd",
    "city": "Albany",
    "state": "Georgia",
    "postal_code": "31705-2109",
    "website_url": "",
    "phone": "",
    "created_at": "2018-07-24 01:33:15.988112",
    "updated_at": "2018-08-24 00:29:13.337065",
    "country": "United States",
    "longitude": "-84.0820312571752",
    "latitude": "31.5854934285396"
  },
  {
    "id": "2164",
    "name": "Monday Night Brewing",
    "brewery_type": "micro",
    "street": "670 Trabert Ave NW",
    "city": "Atlanta",
    "state": "Georgia",
    "postal_code": "30318-4230",
    "website_url": "http://www.mondaynightbrewing.com",
    "phone": "4043527703",
    "created_at": "2018-07-24 01:33:16.001447",
    "updated_at": "2018-08-24 00:29:13.856727",
    "country": "United States",
    "longitude": "-84.4098921239911",
    "latitude": "33.79480405"
  },
  {
    "id": "2167",
    "name": "Moon River Brewing Co",
    "brewery_type": "brewpub",
    "street": "21 W Bay St",
    "city": "Savannah",
    "state": "Georgia",
    "postal_code": "31401-1106",
    "website_url": "http://www.moonriverbrewing.com",
    "phone": "9124470943",
    "created_at": "2018-07-24 01:33:16.039054",
    "updated_at": "2018-08-24 00:29:15.130503",
    "country": "United States",
    "longitude": "-81.0917857755102",
    "latitude": "32.0809857346939"
  },
  {
    "id": "2169",
    "name": "Ocmulgee Brewpub",
    "brewery_type": "brewpub",
    "street": "484 2nd St",
    "city": "Macon",
    "state": "Georgia",
    "postal_code": "31201-2734",
    "website_url": "http://www.ocmulgeebrewpub.com",
    "phone": "4782542848",
    "created_at": "2018-07-24 01:33:16.064633",
    "updated_at": "2018-08-24 00:29:16.236161",
    "country": "United States",
    "longitude": "-83.6293283305064",
    "latitude": "32.8360763024772"
  },
  {
    "id": "2173",
    "name": "Orpheus Brewing",
    "brewery_type": "micro",
    "street": "1440 Dutch Valley Pl NE Ste 2001",
    "city": "Atlanta",
    "state": "Georgia",
    "postal_code": "30324-5366",
    "website_url": "http://www.orpheusbrewing.com",
    "phone": "4043471777",
    "created_at": "2018-07-24 01:33:16.117014",
    "updated_at": "2018-08-24 00:29:18.35058",
    "country": "United States",
    "longitude": "-84.3685805104894",
    "latitude": "33.79314935"
  },
  {
    "id": "2174",
    "name": "Park Tavern Brewery",
    "brewery_type": "brewpub",
    "street": "500 10th St NE",
    "city": "Atlanta",
    "state": "Georgia",
    "postal_code": "30309-4272",
    "website_url": "http://www.parktavern.com",
    "phone": "4042490001",
    "created_at": "2018-07-24 01:33:16.129353",
    "updated_at": "2018-08-24 00:29:19.023828",
    "country": "United States",
    "longitude": "-84.377744",
    "latitude": "33.781867"
  },
  {
    "id": "2175",
    "name": "Perfect Fool Brewing Company",
    "brewery_type": "planning",
    "street": "",
    "city": "Atlanta",
    "state": "Georgia",
    "postal_code": "30319",
    "website_url": "",
    "phone": "",
    "created_at": "2018-07-24 01:33:16.141604",
    "updated_at": "2018-08-11 21:37:03.021113",
    "country": "United States",
    "longitude": "",
    "latitude": ""
  },
  {
    "id": "2177",
    "name": "Piedmont Brewery and Kitchen",
    "brewery_type": "brewpub",
    "street": "450-B Third Street",
    "city": "Macon",
    "state": "Georgia",
    "postal_code": "31201",
    "website_url": "http://www.piedmontbrerwery.com",
    "phone": "4782542337",
    "created_at": "2018-07-24 01:33:16.166936",
    "updated_at": "2018-08-11 21:37:03.094141",
    "country": "United States",
    "longitude": "",
    "latitude": ""
  },
  {
    "id": "2178",
    "name": "Pontoon Brewing Company",
    "brewery_type": "micro",
    "street": "8601 Dunwoody Pl Bld 500 Ste 500",
    "city": "Sandy Springs",
    "state": "Georgia",
    "postal_code": "30350-2551",
    "website_url": "http://www.pontoonbrewing.com",
    "phone": "7049293821",
    "created_at": "2018-07-24 01:33:16.17913",
    "updated_at": "2018-08-11 21:37:03.123593",
    "country": "United States",
    "longitude": "",
    "latitude": ""
  },
  {
    "id": "2184",
    "name": "Reformation Brewery",
    "brewery_type": "micro",
    "street": "500 Arnold Mill Way Ste A",
    "city": "Woodstock",
    "state": "Georgia",
    "postal_code": "30188-6842",
    "website_url": "http://www.reformationbrewery.com",
    "phone": "6783410828",
    "created_at": "2018-07-24 01:33:16.269212",
    "updated_at": "2018-08-11 21:37:03.297393",
    "country": "United States",
    "longitude": "",
    "latitude": ""
  },
  {
    "id": "2185",
    "name": "Rick Tanner's Grille & Bar/Cherry Street Brewing Cooperative",
    "brewery_type": "brewpub",
    "street": "5810 Bond St # E-2",
    "city": "Cumming",
    "state": "Georgia",
    "postal_code": "30040-0301",
    "website_url": "http://www.rtanners.com",
    "phone": "7702055512",
    "created_at": "2018-07-24 01:33:16.282822",
    "updated_at": "2018-08-11 21:37:03.329208",
    "country": "United States",
    "longitude": "",
    "latitude": ""
  },
  {
    "id": "2186",
    "name": "Riverwatch Brewery",
    "brewery_type": "micro",
    "street": "1150 5th St Bldg 61",
    "city": "Augusta",
    "state": "Georgia",
    "postal_code": "30901-5861",
    "website_url": "http://www.riverwatchbrewery.com",
    "phone": "7064217177",
    "created_at": "2018-07-24 01:33:16.295665",
    "updated_at": "2018-08-11 21:37:03.365231",
    "country": "United States",
    "longitude": "",
    "latitude": ""
  },
  {
    "id": "2188",
    "name": "Sabbath Brewing",
    "brewery_type": "planning",
    "street": "",
    "city": "Atlanta",
    "state": "Georgia",
    "postal_code": "30316",
    "website_url": "",
    "phone": "",
    "created_at": "2018-07-24 01:33:16.321033",
    "updated_at": "2018-08-11 21:37:03.436455",
    "country": "United States",
    "longitude": "",
    "latitude": ""
  },
  {
    "id": "2189",
    "name": "Savannah Beer Company",
    "brewery_type": "planning",
    "street": "",
    "city": "Savannah",
    "state": "Georgia",
    "postal_code": "31410",
    "website_url": "",
    "phone": "9124140187",
    "created_at": "2018-07-24 01:33:16.333304",
    "updated_at": "2018-08-11 21:37:03.473408",
    "country": "United States",
    "longitude": "",
    "latitude": ""
  },
  {
    "id": "2191",
    "name": "Scofflaw Brewing Co",
    "brewery_type": "micro",
    "street": "1738 Macarthur Blvd NW",
    "city": "Atlanta",
    "state": "Georgia",
    "postal_code": "30318-2022",
    "website_url": "http://www.scofflawbeer.com",
    "phone": "4049153392",
    "created_at": "2018-07-24 01:33:16.357049",
    "updated_at": "2018-08-11 21:37:03.541831",
    "country": "United States",
    "longitude": "",
    "latitude": ""
  },
  {
    "id": "2197",
    "name": "Southern Sky Brewing Co",
    "brewery_type": "micro",
    "street": "1590 N Roberts Rd NW Ste 208",
    "city": "Kennesaw",
    "state": "Georgia",
    "postal_code": "30144-3636",
    "website_url": "http://www.southernskybrewing.com",
    "phone": "7707028318",
    "created_at": "2018-07-24 01:33:16.438401",
    "updated_at": "2018-08-11 21:37:03.735497",
    "country": "United States",
    "longitude": "",
    "latitude": ""
  },
  {
    "id": "2202",
    "name": "Tantrum Brewing Company",
    "brewery_type": "planning",
    "street": "",
    "city": "Cleveland",
    "state": "Georgia",
    "postal_code": "30528-7804",
    "website_url": "http://www.tantrumbeer.com",
    "phone": "7068090808",
    "created_at": "2018-07-24 01:33:16.500633",
    "updated_at": "2018-08-11 21:37:03.858256",
    "country": "United States",
    "longitude": "",
    "latitude": ""
  },
  {
    "id": "2204",
    "name": "The Lost Druid",
    "brewery_type": "planning",
    "street": "",
    "city": "Atlanta",
    "state": "Georgia",
    "postal_code": "30307-2758",
    "website_url": "",
    "phone": "",
    "created_at": "2018-07-24 01:33:16.526829",
    "updated_at": "2018-08-11 21:37:03.918501",
    "country": "United States",
    "longitude": "",
    "latitude": ""
  },
  {
    "id": "2205",
    "name": "The Split Batch Brewery",
    "brewery_type": "planning",
    "street": "",
    "city": "Buford",
    "state": "Georgia",
    "postal_code": "30519-2236",
    "website_url": "http://www.splitbatchbrewery.com",
    "phone": "4049834303",
    "created_at": "2018-07-24 01:33:16.538883",
    "updated_at": "2018-08-11 21:37:03.951611",
    "country": "United States",
    "longitude": "",
    "latitude": ""
  },
  {
    "id": "2206",
    "name": "The Village Corner",
    "brewery_type": "brewpub",
    "street": "6655 James B Rivers Dr",
    "city": "Stone Mountain",
    "state": "Georgia",
    "postal_code": "30083-2232",
    "website_url": "http://www.germanresturant.com",
    "phone": "7704980329",
    "created_at": "2018-07-24 01:33:16.551021",
    "updated_at": "2018-08-11 21:37:03.989283",
    "country": "United States",
    "longitude": "",
    "latitude": ""
  },
  {
    "id": "2207",
    "name": "The Woodlands At SweetWater",
    "brewery_type": "micro",
    "street": "215 Ottley Dr",
    "city": "Atlanta",
    "state": "Georgia",
    "postal_code": "30324-3924",
    "website_url": "",
    "phone": "4046912537",
    "created_at": "2018-07-24 01:33:16.563879",
    "updated_at": "2018-08-11 21:37:04.020444",
    "country": "United States",
    "longitude": "",
    "latitude": ""
  },
  {
    "id": "2215",
    "name": "Wild Heaven Craft Beers",
    "brewery_type": "micro",
    "street": "135B Maple St",
    "city": "Decatur",
    "state": "Georgia",
    "postal_code": "30030-3953",
    "website_url": "http://www.wildheavencraftbeers.com",
    "phone": "4049978589",
    "created_at": "2018-07-24 01:33:16.682288",
    "updated_at": "2018-08-11 21:37:04.304674",
    "country": "United States",
    "longitude": "",
    "latitude": ""
  },
  {
    "id": "2180",
    "name": "Pretoria Fields Collective",
    "brewery_type": "micro",
    "street": "120 Pine Ave",
    "city": "Albany",
    "state": "Georgia",
    "postal_code": "31701-2529",
    "website_url": "http://www.pretoriafields.com",
    "phone": "2295181770",
    "created_at": "2018-07-24 01:33:16.20317",
    "updated_at": "2018-08-24 00:29:21.824512",
    "country": "United States",
    "longitude": "-84.1495930042213",
    "latitude": "31.5785829366279"
  },
  {
    "id": "2182",
    "name": "Red Brick Brewing Co / Atlanta Brewing Co",
    "brewery_type": "micro",
    "street": "2323 Defoor Hills Rd NW",
    "city": "Atlanta",
    "state": "Georgia",
    "postal_code": "30318-2207",
    "website_url": "http://www.atlantabrewing.com",
    "phone": "4043555558",
    "created_at": "2018-07-24 01:33:16.231242",
    "updated_at": "2018-08-24 00:29:22.92276",
    "country": "United States",
    "longitude": "-84.4345413838986",
    "latitude": "33.81830375"
  },
  {
    "id": "2183",
    "name": "Red Hare Brewing Company",
    "brewery_type": "micro",
    "street": "1998 Delk Industrial Blvd SE",
    "city": "Marietta",
    "state": "Georgia",
    "postal_code": "30067-8904",
    "website_url": "http://www.redharebrewing.com",
    "phone": "6784010600",
    "created_at": "2018-07-24 01:33:16.243494",
    "updated_at": "2018-08-24 00:29:23.424187",
    "country": "United States",
    "longitude": "-84.4957563035449",
    "latitude": "33.92440825"
  },
  {
    "id": "2187",
    "name": "Rome City Brewing Co",
    "brewery_type": "brewpub",
    "street": "325 Broad St",
    "city": "Rome",
    "state": "Georgia",
    "postal_code": "30161-3005",
    "website_url": "http://www.romebrewhouse.com",
    "phone": "7062048474",
    "created_at": "2018-07-24 01:33:16.307799",
    "updated_at": "2018-08-24 00:29:25.578211",
    "country": "United States",
    "longitude": "-85.1726223061224",
    "latitude": "34.2541039795918"
  },
  {
    "id": "2190",
    "name": "Savannah River Brewing Company",
    "brewery_type": "micro",
    "street": "813 5th St",
    "city": "Augusta",
    "state": "Georgia",
    "postal_code": "30901-2414",
    "website_url": "http://www.savannahriverbrew.com",
    "phone": "7064268212",
    "created_at": "2018-07-24 01:33:16.345409",
    "updated_at": "2018-08-24 00:29:26.129101",
    "country": "United States",
    "longitude": "-81.9628808233695",
    "latitude": "33.4653453607462"
  },
  {
    "id": "2192",
    "name": "Second Self Brewing",
    "brewery_type": "micro",
    "street": "1311 Logan Cir NW",
    "city": "Atlanta",
    "state": "Georgia",
    "postal_code": "30318-2858",
    "website_url": "http://secondselfbeer.com",
    "phone": "6789168035",
    "created_at": "2018-07-24 01:33:16.369183",
    "updated_at": "2018-08-24 00:29:27.234053",
    "country": "United States",
    "longitude": "-84.4300619376943",
    "latitude": "33.8055922"
  },
  {
    "id": "2193",
    "name": "Service Brewing Company",
    "brewery_type": "micro",
    "street": "574 Indian St",
    "city": "Savannah",
    "state": "Georgia",
    "postal_code": "31401-1121",
    "website_url": "http://www.servicebrewing.com",
    "phone": "8452425355",
    "created_at": "2018-07-24 01:33:16.381154",
    "updated_at": "2018-08-24 00:29:27.76557",
    "country": "United States",
    "longitude": "-81.0982782978329",
    "latitude": "32.0839717038974"
  },
  {
    "id": "2194",
    "name": "Slow Pour Brewing Company",
    "brewery_type": "micro",
    "street": "407 N Clayton St",
    "city": "Lawrenceville",
    "state": "Georgia",
    "postal_code": "30046-4818",
    "website_url": "http://www.slowpourbrewing.com",
    "phone": "4045108901",
    "created_at": "2018-07-24 01:33:16.393174",
    "updated_at": "2018-08-24 00:29:28.316635",
    "country": "United States",
    "longitude": "-83.9888958076867",
    "latitude": "33.9611674735289"
  },
  {
    "id": "2195",
    "name": "Southbound Brewing Co",
    "brewery_type": "micro",
    "street": "107 E Lathrop Ave",
    "city": "Savannah",
    "state": "Georgia",
    "postal_code": "31415-2182",
    "website_url": "http://www.southboundbrewingco.com",
    "phone": "",
    "created_at": "2018-07-24 01:33:16.41391",
    "updated_at": "2018-08-24 00:29:28.884287",
    "country": "United States",
    "longitude": "-81.111372",
    "latitude": "32.087032"
  },
  {
    "id": "2198",
    "name": "Stats Brewpub",
    "brewery_type": "brewpub",
    "street": "300 Marietta St NW",
    "city": "Atlanta",
    "state": "Georgia",
    "postal_code": "30313-1632",
    "website_url": "http://StatsATL.com",
    "phone": "7705700160",
    "created_at": "2018-07-24 01:33:16.450382",
    "updated_at": "2018-08-24 00:29:30.527771",
    "country": "United States",
    "longitude": "-84.3964736",
    "latitude": "33.7615549"
  },
  {
    "id": "2200",
    "name": "Strawn Brewing Co",
    "brewery_type": "micro",
    "street": "27 Word St",
    "city": "Fairburn",
    "state": "Georgia",
    "postal_code": "30213-1545",
    "website_url": "http://www.strawnbrewing.com",
    "phone": "6785453775",
    "created_at": "2018-07-24 01:33:16.4749",
    "updated_at": "2018-08-24 00:29:32.291815",
    "country": "United States",
    "longitude": "-84.5836887307548",
    "latitude": "33.5606219799361"
  },
  {
    "id": "2203",
    "name": "Terrapin Beer Co",
    "brewery_type": "large",
    "street": "265 Newton Bridge Rd",
    "city": "Athens",
    "state": "Georgia",
    "postal_code": "30607-1145",
    "website_url": "http://www.terrapinbeer.com",
    "phone": "7065493377",
    "created_at": "2018-07-24 01:33:16.514806",
    "updated_at": "2018-08-24 00:29:33.470263",
    "country": "United States",
    "longitude": "-83.3977928447205",
    "latitude": "33.9885289006211"
  },
  {
    "id": "2208",
    "name": "The Wrecking Bar Brewpub",
    "brewery_type": "brewpub",
    "street": "292 Moreland Ave NE",
    "city": "Atlanta",
    "state": "Georgia",
    "postal_code": "30307-1953",
    "website_url": "http://www.wreckingbarbrewpub.com",
    "phone": "4042212600",
    "created_at": "2018-07-24 01:33:16.577269",
    "updated_at": "2018-08-24 00:29:34.972766",
    "country": "United States",
    "longitude": "-84.3496422",
    "latitude": "33.762309"
  },
  {
    "id": "2209",
    "name": "Three Taverns Craft Brewery",
    "brewery_type": "micro",
    "street": "121 New St",
    "city": "Decatur",
    "state": "Georgia",
    "postal_code": "30030-4131",
    "website_url": "http://www.threetavernsbrewery.com",
    "phone": "4046003355",
    "created_at": "2018-07-24 01:33:16.593133",
    "updated_at": "2018-08-24 00:29:35.501827",
    "country": "United States",
    "longitude": "-84.2848807842216",
    "latitude": "33.7730551677064"
  },
  {
    "id": "2210",
    "name": "Torched Hop Brewing Company",
    "brewery_type": "brewpub",
    "street": "249 Ponce de Leon Ave NE",
    "city": "Atlanta",
    "state": "Georgia",
    "postal_code": "30308-1937",
    "website_url": "http://www.Torchedhopbrewing.com",
    "phone": "4048352040",
    "created_at": "2018-07-24 01:33:16.608911",
    "updated_at": "2018-08-24 00:29:36.17277",
    "country": "United States",
    "longitude": "-84.3792977599729",
    "latitude": "33.77232605"
  },
  {
    "id": "2211",
    "name": "Tucker Brewing Company",
    "brewery_type": "micro",
    "street": "2003 S Bibb Dr",
    "city": "Tucker",
    "state": "Georgia",
    "postal_code": "30084-6240",
    "website_url": "http://www.tuckerbrewing.com",
    "phone": "8337522400",
    "created_at": "2018-07-24 01:33:16.624197",
    "updated_at": "2018-08-24 00:29:36.652788",
    "country": "United States",
    "longitude": "-84.2075880909091",
    "latitude": "33.8426920909091"
  },
  {
    "id": "2212",
    "name": "Twain's Brewpub & Billiards",
    "brewery_type": "brewpub",
    "street": "211 E Trinity Pl",
    "city": "Decatur",
    "state": "Georgia",
    "postal_code": "30030-3414",
    "website_url": "http://www.twains.net",
    "phone": "4043730063",
    "created_at": "2018-07-24 01:33:16.639018",
    "updated_at": "2018-08-24 00:29:37.32718",
    "country": "United States",
    "longitude": "-84.294616",
    "latitude": "33.77228"
  },
  {
    "id": "2213",
    "name": "Two Tides Brewing Company",
    "brewery_type": "micro",
    "street": "12 West 41st St",
    "city": "Savannah",
    "state": "Georgia",
    "postal_code": "31401",
    "website_url": "http://www.twotidesbrewing.com",
    "phone": "9126670706",
    "created_at": "2018-07-24 01:33:16.653681",
    "updated_at": "2018-08-24 00:29:37.922285",
    "country": "United States",
    "longitude": "-81.1021609166667",
    "latitude": "32.054127"
  },
  {
    "id": "2214",
    "name": "Variant Brewing Company",
    "brewery_type": "micro",
    "street": "66 Norcross St",
    "city": "Roswell",
    "state": "Georgia",
    "postal_code": "30075-3866",
    "website_url": "",
    "phone": "6782428189",
    "created_at": "2018-07-24 01:33:16.669145",
    "updated_at": "2018-08-24 00:29:38.360634",
    "country": "United States",
    "longitude": "-84.35907858443",
    "latitude": "34.02576775"
  },
  {
    "id": "2112",
    "name": "5 Seasons Brewing Co - Westside",
    "brewery_type": "brewpub",
    "street": "1000 Marietta St NW Ste 204",
    "city": "Atlanta",
    "state": "Georgia",
    "postal_code": "30318-0683",
    "website_url": "http://www.5seasonsbrewing.com",
    "phone": "4048753232",
    "created_at": "2018-07-24 01:33:15.34686",
    "updated_at": "2018-08-11 21:37:00.787492",
    "country": "United States",
    "longitude": "",
    "latitude": ""
  },
  {
    "id": "2127",
    "name": "Burnt Hickory Brewery",
    "brewery_type": "micro",
    "street": "2260 Moon Station Ct NW Ste 210",
    "city": "Kennesaw",
    "state": "Georgia",
    "postal_code": "30144-5653",
    "website_url": "http://www.burnthickorybrewery.com",
    "phone": "7705148812",
    "created_at": "2018-07-24 01:33:15.529901",
    "updated_at": "2018-08-11 21:37:01.299848",
    "country": "United States",
    "longitude": "",
    "latitude": ""
  },
  {
    "id": "2147",
    "name": "Gordon Biersch Brewery Restaurant - Atlanta",
    "brewery_type": "brewpub",
    "street": "3242 Peachtree Rd NE",
    "city": "Atlanta",
    "state": "Georgia",
    "postal_code": "30305-2425",
    "website_url": "http://www.craftworksrestaurants.com",
    "phone": "4042640253",
    "created_at": "2018-07-24 01:33:15.782117",
    "updated_at": "2018-08-24 00:29:07.009128",
    "country": "United States",
    "longitude": "-84.3620936",
    "latitude": "33.8503143"
  },
  {
    "id": "2166",
    "name": "Monkey Wrench Brewing Company LLC",
    "brewery_type": "planning",
    "street": "",
    "city": "Snellville",
    "state": "Georgia",
    "postal_code": "30078-6503",
    "website_url": "http://www.monkeywrenchbrewing.com",
    "phone": "6785212142",
    "created_at": "2018-07-24 01:33:16.026441",
    "updated_at": "2018-08-11 21:37:02.676191",
    "country": "United States",
    "longitude": "",
    "latitude": ""
  },
  {
    "id": "2176",
    "name": "Phantom Horse Brewing",
    "brewery_type": "brewpub",
    "street": "56-A Fieldstone Village Dr",
    "city": "Rock Spring",
    "state": "Georgia",
    "postal_code": "30739",
    "website_url": "http://www.phantomhorsebrewing.com",
    "phone": "4233144978",
    "created_at": "2018-07-24 01:33:16.154862",
    "updated_at": "2018-08-11 21:37:03.064906",
    "country": "United States",
    "longitude": "",
    "latitude": ""
  }
]