[
  {
    "id": "2219",
    "name": "Beer Lab HI",
    "brewery_type": "micro",
    "street": "1010 University Ave Ste B1",
    "city": "Honolulu",
    "state": "Hawaii",
    "postal_code": "96826-1537",
    "website_url": "http://www.beerlabhi.com",
    "phone": "8088880913",
    "created_at": "2018-07-24 01:33:16.739352",
    "updated_at": "2018-08-24 00:29:40.482139",
    "country": "United States",
    "longitude": "-157.821878401556",
    "latitude": "21.2921440645306"
  },
  {
    "id": "2227",
    "name": "Home of the Brave Brewing Company",
    "brewery_type": "brewpub",
    "street": "909 Waimanu St",
    "city": "Honolulu",
    "state": "Hawaii",
    "postal_code": "96814-3309",
    "website_url": "http://www.hotbbc.com",
    "phone": "8083968112",
    "created_at": "2018-07-24 01:33:16.84281",
    "updated_at": "2018-08-24 00:29:42.938923",
    "country": "United States",
    "longitude": "-157.853596637989",
    "latitude": "21.2987568898793"
  },
  {
    "id": "2220",
    "name": "Big Island Brewhaus",
    "brewery_type": "brewpub",
    "street": "64-1066 Mamalahoa Hwy Unit 5",
    "city": "Kamuela",
    "state": "Hawaii",
    "postal_code": "96743-7309",
    "website_url": "http://www.bigislandbrewhaus.com",
    "phone": "8088871717",
    "created_at": "2018-07-24 01:33:16.755608",
    "updated_at": "2018-08-11 21:37:04.422685",
    "country": "United States",
    "longitude": "",
    "latitude": ""
  },
  {
    "id": "2221",
    "name": "Brewery In Planning - Honolulu HI",
    "brewery_type": "planning",
    "street": "",
    "city": "Kailua",
    "state": "Hawaii",
    "postal_code": "96734-4059",
    "website_url": "",
    "phone": "",
    "created_at": "2018-07-24 01:33:16.76795",
    "updated_at": "2018-08-11 21:37:04.457994",
    "country": "United States",
    "longitude": "",
    "latitude": ""
  },
  {
    "id": "2223",
    "name": "Brewery in Planning - Kunia, HI",
    "brewery_type": "planning",
    "street": "",
    "city": "Kunia",
    "state": "Hawaii",
    "postal_code": "96759",
    "website_url": "",
    "phone": "8082225728",
    "created_at": "2018-07-24 01:33:16.793482",
    "updated_at": "2018-08-11 21:37:04.485447",
    "country": "United States",
    "longitude": "",
    "latitude": ""
  },
  {
    "id": "2225",
    "name": "Gordon Biersch Brewery Restaurant - Honolulu",
    "brewery_type": "brewpub",
    "street": "1 Aloha Tower Dr Ste 1123",
    "city": "Honolulu",
    "state": "Hawaii",
    "postal_code": "96813-4815",
    "website_url": "http://www.gordonbiersch.com/restaurant",
    "phone": "8085994877",
    "created_at": "2018-07-24 01:33:16.817681",
    "updated_at": "2018-08-11 21:37:04.514858",
    "country": "United States",
    "longitude": "",
    "latitude": ""
  },
  {
    "id": "2226",
    "name": "Hawaii Nui Brewing",
    "brewery_type": "micro",
    "street": "275 E Kawili St",
    "city": "Hilo",
    "state": "Hawaii",
    "postal_code": "96720-5074",
    "website_url": "http://www.hawaiinuibrewing.com",
    "phone": "8089348211",
    "created_at": "2018-07-24 01:33:16.830675",
    "updated_at": "2018-08-24 00:29:42.298411",
    "country": "United States",
    "longitude": "-155.069788476413",
    "latitude": "19.7058759551431"
  },
  {
    "id": "2229",
    "name": "Inu Island Ales",
    "brewery_type": "micro",
    "street": "46-147 Kahuhipa St STE E",
    "city": "Kaneohe",
    "state": "Hawaii",
    "postal_code": "96744",
    "website_url": "http://www.inuislandales.com",
    "phone": "4088888586",
    "created_at": "2018-07-24 01:33:16.868228",
    "updated_at": "2018-08-11 21:37:04.635736",
    "country": "United States",
    "longitude": "",
    "latitude": ""
  },
  {
    "id": "2231",
    "name": "Kauai Island Brewery",
    "brewery_type": "brewpub",
    "street": "4350 Waialo Rd",
    "city": "Port Allen",
    "state": "Hawaii",
    "postal_code": "96705",
    "website_url": "http://www.kauaiislandbrewing.com",
    "phone": "8083350006",
    "created_at": "2018-07-24 01:33:16.893251",
    "updated_at": "2018-08-11 21:37:04.691717",
    "country": "United States",
    "longitude": "",
    "latitude": ""
  },
  {
    "id": "2237",
    "name": "Ola Brew Co.",
    "brewery_type": "micro",
    "street": "74-5598 Luhia St Ste A",
    "city": "Kailua Kona",
    "state": "Hawaii",
    "postal_code": "96740-3151",
    "website_url": "http://www.olabrewco.com",
    "phone": "8083393565",
    "created_at": "2018-07-24 01:33:16.970298",
    "updated_at": "2018-08-11 21:37:04.876341",
    "country": "United States",
    "longitude": "",
    "latitude": ""
  },
  {
    "id": "2228",
    "name": "Honolulu BeerWorks",
    "brewery_type": "brewpub",
    "street": "328 Cooke St",
    "city": "Honolulu",
    "state": "Hawaii",
    "postal_code": "96813-5531",
    "website_url": "http://www.honolulubeerworks.com",
    "phone": "8085892337",
    "created_at": "2018-07-24 01:33:16.855501",
    "updated_at": "2018-08-24 00:29:43.508456",
    "country": "United States",
    "longitude": "-157.860634014391",
    "latitude": "21.296906034391"
  },
  {
    "id": "2230",
    "name": "Kauai Beer Company",
    "brewery_type": "brewpub",
    "street": "4265 Rice St",
    "city": "Lihue",
    "state": "Hawaii",
    "postal_code": "96766",
    "website_url": "http://www.kauaibeer.com",
    "phone": "8082452337",
    "created_at": "2018-07-24 01:33:16.880712",
    "updated_at": "2018-08-24 00:29:44.819931",
    "country": "United States",
    "longitude": "-159.3647876",
    "latitude": "21.9722854"
  },
  {
    "id": "2232",
    "name": "Kohola Brewery",
    "brewery_type": "micro",
    "street": "910 Honoapiilani Hwy",
    "city": "Lahaina",
    "state": "Hawaii",
    "postal_code": "96761-1507",
    "website_url": "http://www.koholabrewery.com",
    "phone": "8088683198",
    "created_at": "2018-07-24 01:33:16.906234",
    "updated_at": "2018-08-24 00:29:46.115813",
    "country": "United States",
    "longitude": "-156.653963",
    "latitude": "20.845329"
  },
  {
    "id": "2233",
    "name": "Kona Brewing Co",
    "brewery_type": "regional",
    "street": "74-5612 Pawai Pl",
    "city": "Kailua Kona",
    "state": "Hawaii",
    "postal_code": "96740-1617",
    "website_url": "http://www.konabrewingco.com",
    "phone": "8083341133",
    "created_at": "2018-07-24 01:33:16.918662",
    "updated_at": "2018-08-24 00:29:46.663772",
    "country": "United States",
    "longitude": "-155.997661",
    "latitude": "19.643069"
  },
  {
    "id": "2234",
    "name": "Lanikai Brewing Co",
    "brewery_type": "micro",
    "street": "175-C Hamakua Dr",
    "city": "Kailua",
    "state": "Hawaii",
    "postal_code": "96734",
    "website_url": "",
    "phone": "",
    "created_at": "2018-07-24 01:33:16.931421",
    "updated_at": "2018-08-24 00:29:47.185939",
    "country": "United States",
    "longitude": "-157.740326634477",
    "latitude": "21.3904428646501"
  },
  {
    "id": "2235",
    "name": "Maui Brewing Co - Production",
    "brewery_type": "regional",
    "street": "605 Lipoa Pkwy",
    "city": "Kihei",
    "state": "Hawaii",
    "postal_code": "96753-6947",
    "website_url": "http://www.mauibrewingco.com",
    "phone": "8082133002",
    "created_at": "2018-07-24 01:33:16.943545",
    "updated_at": "2018-08-24 00:29:47.907688",
    "country": "United States",
    "longitude": "-156.4402410984",
    "latitude": "20.7496156609264"
  },
  {
    "id": "2236",
    "name": "Maui Brewing Co, Brewpub",
    "brewery_type": "brewpub",
    "street": "4405 Honoapiilani Hwy Ste 217",
    "city": "Lahaina",
    "state": "Hawaii",
    "postal_code": "96761-9272",
    "website_url": "http://www.mauibrewingco.com",
    "phone": "8086693474",
    "created_at": "2018-07-24 01:33:16.95697",
    "updated_at": "2018-08-24 00:29:48.421688",
    "country": "United States",
    "longitude": "-156.653963",
    "latitude": "20.845329"
  },
  {
    "id": "2238",
    "name": "Stewbum",
    "brewery_type": "brewpub",
    "street": "96 N King St",
    "city": "Honolulu",
    "state": "Hawaii",
    "postal_code": "96817-5109",
    "website_url": "http://www.stewbumandstonewall.com",
    "phone": "8086646684",
    "created_at": "2018-07-24 01:33:16.982777",
    "updated_at": "2018-08-24 00:29:49.433349",
    "country": "United States",
    "longitude": "-157.8634762",
    "latitude": "21.3117151333333"
  },
  {
    "id": "2240",
    "name": "Waikiki Brewing Company",
    "brewery_type": "brewpub",
    "street": "1945 Kalakaua Ave",
    "city": "Honolulu",
    "state": "Hawaii",
    "postal_code": "96815-1851",
    "website_url": "http://www.waikikibrewing.com",
    "phone": "",
    "created_at": "2018-07-24 01:33:17.006812",
    "updated_at": "2018-08-24 00:29:50.49679",
    "country": "United States",
    "longitude": "-157.8334964",
    "latitude": "21.2858755"
  },
  {
    "id": "2241",
    "name": "Waikiki Brewing Company, Kaka'ako",
    "brewery_type": "micro",
    "street": "831 Queen St",
    "city": "Honolulu",
    "state": "Hawaii",
    "postal_code": "96813-5203",
    "website_url": "",
    "phone": "",
    "created_at": "2018-07-24 01:33:17.018806",
    "updated_at": "2018-08-24 00:29:51.101823",
    "country": "United States",
    "longitude": "-157.8559270982",
    "latitude": "21.299644317727"
  },
  {
    "id": "2239",
    "name": "Taps and Apps",
    "brewery_type": "brewpub",
    "street": "95-1830 Meheula Pkwy Ste C-6",
    "city": "Mililani",
    "state": "Hawaii",
    "postal_code": "96789-6311",
    "website_url": "http://www.tapsandappsbrewpub.com",
    "phone": "8086268277",
    "created_at": "2018-07-24 01:33:16.994541",
    "updated_at": "2018-08-11 21:37:04.942801",
    "country": "United States",
    "longitude": "",
    "latitude": ""
  },
  {
    "id": "2218",
    "name": "Aloha Beer Co",
    "brewery_type": "brewpub",
    "street": "700 Queen St",
    "city": "Honolulu",
    "state": "Hawaii",
    "postal_code": "96813-5110",
    "website_url": "http://www.alohabeer.com",
    "phone": "8085455959",
    "created_at": "2018-07-24 01:33:16.726778",
    "updated_at": "2018-08-24 00:29:39.918896",
    "country": "United States",
    "longitude": "-157.857248",
    "latitude": "21.301249"
  },
  {
    "id": "2219",
    "name": "Beer Lab HI",
    "brewery_type": "micro",
    "street": "1010 University Ave Ste B1",
    "city": "Honolulu",
    "state": "Hawaii",
    "postal_code": "96826-1537",
    "website_url": "http://www.beerlabhi.com",
    "phone": "8088880913",
    "created_at": "2018-07-24 01:33:16.739352",
    "updated_at": "2018-08-24 00:29:40.482139",
    "country": "United States",
    "longitude": "-157.821878401556",
    "latitude": "21.2921440645306"
  },
  {
    "id": "2227",
    "name": "Home of the Brave Brewing Company",
    "brewery_type": "brewpub",
    "street": "909 Waimanu St",
    "city": "Honolulu",
    "state": "Hawaii",
    "postal_code": "96814-3309",
    "website_url": "http://www.hotbbc.com",
    "phone": "8083968112",
    "created_at": "2018-07-24 01:33:16.84281",
    "updated_at": "2018-08-24 00:29:42.938923",
    "country": "United States",
    "longitude": "-157.853596637989",
    "latitude": "21.2987568898793"
  },
  {
    "id": "2220",
    "name": "Big Island Brewhaus",
    "brewery_type": "brewpub",
    "street": "64-1066 Mamalahoa Hwy Unit 5",
    "city": "Kamuela",
    "state": "Hawaii",
    "postal_code": "96743-7309",
    "website_url": "http://www.bigislandbrewhaus.com",
    "phone": "8088871717",
    "created_at": "2018-07-24 01:33:16.755608",
    "updated_at": "2018-08-11 21:37:04.422685",
    "country": "United States",
    "longitude": "",
    "latitude": ""
  },
  {
    "id": "2221",
    "name": "Brewery In Planning - Honolulu HI",
    "brewery_type": "planning",
    "street": "",
    "city": "Kailua",
    "state": "Hawaii",
    "postal_code": "96734-4059",
    "website_url": "",
    "phone": "",
    "created_at": "2018-07-24 01:33:16.76795",
    "updated_at": "2018-08-11 21:37:04.457994",
    "country": "United States",
    "longitude": "",
    "latitude": ""
  },
  {
    "id": "2223",
    "name": "Brewery in Planning - Kunia, HI",
    "brewery_type": "planning",
    "street": "",
    "city": "Kunia",
    "state": "Hawaii",
    "postal_code": "96759",
    "website_url": "",
    "phone": "8082225728",
    "created_at": "2018-07-24 01:33:16.793482",
    "updated_at": "2018-08-11 21:37:04.485447",
    "country": "United States",
    "longitude": "",
    "latitude": ""
  },
  {
    "id": "2225",
    "name": "Gordon Biersch Brewery Restaurant - Honolulu",
    "brewery_type": "brewpub",
    "street": "1 Aloha Tower Dr Ste 1123",
    "city": "Honolulu",
    "state": "Hawaii",
    "postal_code": "96813-4815",
    "website_url": "http://www.gordonbiersch.com/restaurant",
    "phone": "8085994877",
    "created_at": "2018-07-24 01:33:16.817681",
    "updated_at": "2018-08-11 21:37:04.514858",
    "country": "United States",
    "longitude": "",
    "latitude": ""
  },
  {
    "id": "2226",
    "name": "Hawaii Nui Brewing",
    "brewery_type": "micro",
    "street": "275 E Kawili St",
    "city": "Hilo",
    "state": "Hawaii",
    "postal_code": "96720-5074",
    "website_url": "http://www.hawaiinuibrewing.com",
    "phone": "8089348211",
    "created_at": "2018-07-24 01:33:16.830675",
    "updated_at": "2018-08-24 00:29:42.298411",
    "country": "United States",
    "longitude": "-155.069788476413",
    "latitude": "19.7058759551431"
  },
  {
    "id": "2229",
    "name": "Inu Island Ales",
    "brewery_type": "micro",
    "street": "46-147 Kahuhipa St STE E",
    "city": "Kaneohe",
    "state": "Hawaii",
    "postal_code": "96744",
    "website_url": "http://www.inuislandales.com",
    "phone": "4088888586",
    "created_at": "2018-07-24 01:33:16.868228",
    "updated_at": "2018-08-11 21:37:04.635736",
    "country": "United States",
    "longitude": "",
    "latitude": ""
  },
  {
    "id": "2231",
    "name": "Kauai Island Brewery",
    "brewery_type": "brewpub",
    "street": "4350 Waialo Rd",
    "city": "Port Allen",
    "state": "Hawaii",
    "postal_code": "96705",
    "website_url": "http://www.kauaiislandbrewing.com",
    "phone": "8083350006",
    "created_at": "2018-07-24 01:33:16.893251",
    "updated_at": "2018-08-11 21:37:04.691717",
    "country": "United States",
    "longitude": "",
    "latitude": ""
  },
  {
    "id": "2237",
    "name": "Ola Brew Co.",
    "brewery_type": "micro",
    "street": "74-5598 Luhia St Ste A",
    "city": "Kailua Kona",
    "state": "Hawaii",
    "postal_code": "96740-3151",
    "website_url": "http://www.olabrewco.com",
    "phone": "8083393565",
    "created_at": "2018-07-24 01:33:16.970298",
    "updated_at": "2018-08-11 21:37:04.876341",
    "country": "United States",
    "longitude": "",
    "latitude": ""
  },
  {
    "id": "2228",
    "name": "Honolulu BeerWorks",
    "brewery_type": "brewpub",
    "street": "328 Cooke St",
    "city": "Honolulu",
    "state": "Hawaii",
    "postal_code": "96813-5531",
    "website_url": "http://www.honolulubeerworks.com",
    "phone": "8085892337",
    "created_at": "2018-07-24 01:33:16.855501",
    "updated_at": "2018-08-24 00:29:43.508456",
    "country": "United States",
    "longitude": "-157.860634014391",
    "latitude": "21.296906034391"
  },
  {
    "id": "2230",
    "name": "Kauai Beer Company",
    "brewery_type": "brewpub",
    "street": "4265 Rice St",
    "city": "Lihue",
    "state": "Hawaii",
    "postal_code": "96766",
    "website_url": "http://www.kauaibeer.com",
    "phone": "8082452337",
    "created_at": "2018-07-24 01:33:16.880712",
    "updated_at": "2018-08-24 00:29:44.819931",
    "country": "United States",
    "longitude": "-159.3647876",
    "latitude": "21.9722854"
  },
  {
    "id": "2232",
    "name": "Kohola Brewery",
    "brewery_type": "micro",
    "street": "910 Honoapiilani Hwy",
    "city": "Lahaina",
    "state": "Hawaii",
    "postal_code": "96761-1507",
    "website_url": "http://www.koholabrewery.com",
    "phone": "8088683198",
    "created_at": "2018-07-24 01:33:16.906234",
    "updated_at": "2018-08-24 00:29:46.115813",
    "country": "United States",
    "longitude": "-156.653963",
    "latitude": "20.845329"
  },
  {
    "id": "2233",
    "name": "Kona Brewing Co",
    "brewery_type": "regional",
    "street": "74-5612 Pawai Pl",
    "city": "Kailua Kona",
    "state": "Hawaii",
    "postal_code": "96740-1617",
    "website_url": "http://www.konabrewingco.com",
    "phone": "8083341133",
    "created_at": "2018-07-24 01:33:16.918662",
    "updated_at": "2018-08-24 00:29:46.663772",
    "country": "United States",
    "longitude": "-155.997661",
    "latitude": "19.643069"
  },
  {
    "id": "2234",
    "name": "Lanikai Brewing Co",
    "brewery_type": "micro",
    "street": "175-C Hamakua Dr",
    "city": "Kailua",
    "state": "Hawaii",
    "postal_code": "96734",
    "website_url": "",
    "phone": "",
    "created_at": "2018-07-24 01:33:16.931421",
    "updated_at": "2018-08-24 00:29:47.185939",
    "country": "United States",
    "longitude": "-157.740326634477",
    "latitude": "21.3904428646501"
  },
  {
    "id": "2235",
    "name": "Maui Brewing Co - Production",
    "brewery_type": "regional",
    "street": "605 Lipoa Pkwy",
    "city": "Kihei",
    "state": "Hawaii",
    "postal_code": "96753-6947",
    "website_url": "http://www.mauibrewingco.com",
    "phone": "8082133002",
    "created_at": "2018-07-24 01:33:16.943545",
    "updated_at": "2018-08-24 00:29:47.907688",
    "country": "United States",
    "longitude": "-156.4402410984",
    "latitude": "20.7496156609264"
  },
  {
    "id": "2236",
    "name": "Maui Brewing Co, Brewpub",
    "brewery_type": "brewpub",
    "street": "4405 Honoapiilani Hwy Ste 217",
    "city": "Lahaina",
    "state": "Hawaii",
    "postal_code": "96761-9272",
    "website_url": "http://www.mauibrewingco.com",
    "phone": "8086693474",
    "created_at": "2018-07-24 01:33:16.95697",
    "updated_at": "2018-08-24 00:29:48.421688",
    "country": "United States",
    "longitude": "-156.653963",
    "latitude": "20.845329"
  },
  {
    "id": "2238",
    "name": "Stewbum",
    "brewery_type": "brewpub",
    "street": "96 N King St",
    "city": "Honolulu",
    "state": "Hawaii",
    "postal_code": "96817-5109",
    "website_url": "http://www.stewbumandstonewall.com",
    "phone": "8086646684",
    "created_at": "2018-07-24 01:33:16.982777",
    "updated_at": "2018-08-24 00:29:49.433349",
    "country": "United States",
    "longitude": "-157.8634762",
    "latitude": "21.3117151333333"
  },
  {
    "id": "2240",
    "name": "Waikiki Brewing Company",
    "brewery_type": "brewpub",
    "street": "1945 Kalakaua Ave",
    "city": "Honolulu",
    "state": "Hawaii",
    "postal_code": "96815-1851",
    "website_url": "http://www.waikikibrewing.com",
    "phone": "",
    "created_at": "2018-07-24 01:33:17.006812",
    "updated_at": "2018-08-24 00:29:50.49679",
    "country": "United States",
    "longitude": "-157.8334964",
    "latitude": "21.2858755"
  },
  {
    "id": "2241",
    "name": "Waikiki Brewing Company, Kaka'ako",
    "brewery_type": "micro",
    "street": "831 Queen St",
    "city": "Honolulu",
    "state": "Hawaii",
    "postal_code": "96813-5203",
    "website_url": "",
    "phone": "",
    "created_at": "2018-07-24 01:33:17.018806",
    "updated_at": "2018-08-24 00:29:51.101823",
    "country": "United States",
    "longitude": "-157.8559270982",
    "latitude": "21.299644317727"
  },
  {
    "id": "2239",
    "name": "Taps and Apps",
    "brewery_type": "brewpub",
    "street": "95-1830 Meheula Pkwy Ste C-6",
    "city": "Mililani",
    "state": "Hawaii",
    "postal_code": "96789-6311",
    "website_url": "http://www.tapsandappsbrewpub.com",
    "phone": "8086268277",
    "created_at": "2018-07-24 01:33:16.994541",
    "updated_at": "2018-08-11 21:37:04.942801",
    "country": "United States",
    "longitude": "",
    "latitude": ""
  },
  {
    "id": "2218",
    "name": "Aloha Beer Co",
    "brewery_type": "brewpub",
    "street": "700 Queen St",
    "city": "Honolulu",
    "state": "Hawaii",
    "postal_code": "96813-5110",
    "website_url": "http://www.alohabeer.com",
    "phone": "8085455959",
    "created_at": "2018-07-24 01:33:16.726778",
    "updated_at": "2018-08-24 00:29:39.918896",
    "country": "United States",
    "longitude": "-157.857248",
    "latitude": "21.301249"
  }
]