[
  {
    "id": "2564",
    "name": "18th Street Brewery",
    "brewery_type": "micro",
    "street": "5725 Miller Ave",
    "city": "Gary",
    "state": "Indiana",
    "postal_code": "46403-2871",
    "website_url": "http://www.18thstreetbrewery.com",
    "phone": "",
    "created_at": "2018-07-24 01:33:21.193756",
    "updated_at": "2018-08-24 00:32:25.536345",
    "country": "United States",
    "longitude": "-87.2688778553589",
    "latitude": "41.5992834347567"
  },
  {
    "id": "2568",
    "name": "95ate5 Brewpub",
    "brewery_type": "brewpub",
    "street": "9585 N Industrial Dr",
    "city": "Saint John",
    "state": "Indiana",
    "postal_code": "46373",
    "website_url": "http://www.95ate5.com",
    "phone": "2193656506",
    "created_at": "2018-07-24 01:33:21.246175",
    "updated_at": "2018-08-24 00:32:26.66408",
    "country": "United States",
    "longitude": "-87.4638030517554",
    "latitude": "41.4440024584439"
  },
  {
    "id": "2599",
    "name": "Burn'Em Brewing",
    "brewery_type": "brewpub",
    "street": "718 Freyer Rd",
    "city": "Michigan City",
    "state": "Indiana",
    "postal_code": "46360-1911",
    "website_url": "http://www.burnembrewing.com",
    "phone": "2193938606",
    "created_at": "2018-07-24 01:33:21.625741",
    "updated_at": "2018-08-24 00:32:40.359916",
    "country": "United States",
    "longitude": "-86.8297919071235",
    "latitude": "41.7384971691983"
  },
  {
    "id": "2616",
    "name": "Danny Boy Beer Works",
    "brewery_type": "brewpub",
    "street": "12702 Meeting House Rd",
    "city": "Carmel",
    "state": "Indiana",
    "postal_code": "46032-7292",
    "website_url": "http://www.dannyboybeerworks.com",
    "phone": "3176698080",
    "created_at": "2018-07-24 01:33:21.831255",
    "updated_at": "2018-08-24 00:32:45.430083",
    "country": "United States",
    "longitude": "-86.1971767",
    "latitude": "39.971556"
  },
  {
    "id": "2618",
    "name": "Deer Creek Brewery",
    "brewery_type": "micro",
    "street": "17661 Cumberland Rd",
    "city": "Noblesville",
    "state": "Indiana",
    "postal_code": "46060-",
    "website_url": "http://www.deercreekbrewery.com",
    "phone": "3176748266",
    "created_at": "2018-07-24 01:33:21.855333",
    "updated_at": "2018-08-24 00:32:46.570815",
    "country": "United States",
    "longitude": "-85.9962796",
    "latitude": "40.0443978"
  },
  {
    "id": "2650",
    "name": "Iechyd Da Brewing",
    "brewery_type": "brewpub",
    "street": "317 N Main St",
    "city": "Elkhart",
    "state": "Indiana",
    "postal_code": "46516-3034",
    "website_url": "http://www.iechyddabrewingcompany.com",
    "phone": "5742930506",
    "created_at": "2018-07-24 01:33:22.264397",
    "updated_at": "2018-08-24 00:33:00.890925",
    "country": "United States",
    "longitude": "-85.9753133158581",
    "latitude": "41.69004065"
  },
  {
    "id": "2662",
    "name": "Metazoa Brewing Co.",
    "brewery_type": "micro",
    "street": "140 S College Ave",
    "city": "Indianapolis",
    "state": "Indiana",
    "postal_code": "46202-4004",
    "website_url": "http://www.metazoa.beer",
    "phone": "3175082274",
    "created_at": "2018-07-24 01:33:22.42209",
    "updated_at": "2018-08-24 00:33:06.897602",
    "country": "United States",
    "longitude": "-86.1458502485116",
    "latitude": "39.7645504924982"
  },
  {
    "id": "2666",
    "name": "New Albanian Bank Street Brewhouse",
    "brewery_type": "brewpub",
    "street": "415 Bank St",
    "city": "New Albany",
    "state": "Indiana",
    "postal_code": "47150-3407",
    "website_url": "http://www.newalbanian.com",
    "phone": "8127259585",
    "created_at": "2018-07-24 01:33:22.471346",
    "updated_at": "2018-08-24 00:33:08.442191",
    "country": "United States",
    "longitude": "-85.822208424036",
    "latitude": "38.2865673227507"
  },
  {
    "id": "2684",
    "name": "RAM Restaurant and Brewery - Indianapolis",
    "brewery_type": "brewpub",
    "street": "140 S Illinois St",
    "city": "Indianapolis",
    "state": "Indiana",
    "postal_code": "46204",
    "website_url": "http://www.theram.com",
    "phone": "3179559900",
    "created_at": "2018-07-24 01:33:22.692664",
    "updated_at": "2018-08-24 00:33:17.348374",
    "country": "United States",
    "longitude": "-86.1605094727252",
    "latitude": "39.76475755"
  },
  {
    "id": "2692",
    "name": "Shoreline Brewery",
    "brewery_type": "brewpub",
    "street": "208 Wabash St",
    "city": "Michigan City",
    "state": "Indiana",
    "postal_code": "46360-3244",
    "website_url": "http://www.shorelinebrewery.com",
    "phone": "2198794677",
    "created_at": "2018-07-24 01:33:22.793861",
    "updated_at": "2018-08-24 00:33:21.449196",
    "country": "United States",
    "longitude": "-86.9062196842105",
    "latitude": "41.7193131052632"
  },
  {
    "id": "2708",
    "name": "The Red Yeti",
    "brewery_type": "brewpub",
    "street": "256 Spring St",
    "city": "Jeffersonville",
    "state": "Indiana",
    "postal_code": "47130-3340",
    "website_url": "http://www.redyetijeff.com",
    "phone": "8122885788",
    "created_at": "2018-07-24 01:33:22.988612",
    "updated_at": "2018-08-24 00:33:29.74378",
    "country": "United States",
    "longitude": "-85.7401585",
    "latitude": "38.2718249"
  },
  {
    "id": "2722",
    "name": "Upland Brewing Co - Bloomington Brewpub",
    "brewery_type": "regional",
    "street": "350 W 11th St",
    "city": "Bloomington",
    "state": "Indiana",
    "postal_code": "47404-3720",
    "website_url": "http://www.uplandbeer.com",
    "phone": "8123362337",
    "created_at": "2018-07-24 01:33:23.175347",
    "updated_at": "2018-08-24 00:33:37.761726",
    "country": "United States",
    "longitude": "-86.5374792673344",
    "latitude": "39.173423"
  },
  {
    "id": "2725",
    "name": "Wasser Brewing Company",
    "brewery_type": "brewpub",
    "street": "102 E Franklin St",
    "city": "Greencastle",
    "state": "Indiana",
    "postal_code": "46135-1220",
    "website_url": "http://www.wasserbrewing.com",
    "phone": "7653019363",
    "created_at": "2018-07-24 01:33:23.21051",
    "updated_at": "2018-08-24 00:33:39.585081",
    "country": "United States",
    "longitude": "-86.8633102289789",
    "latitude": "39.6446717121844"
  },
  {
    "id": "2578",
    "name": "Big Leaf Brewing",
    "brewery_type": "micro",
    "street": "1320 Durkees Ferry Rd",
    "city": "West Terre Haute",
    "state": "Indiana",
    "postal_code": "47885-9626",
    "website_url": "",
    "phone": "8122812187",
    "created_at": "2018-07-24 01:33:21.37049",
    "updated_at": "2018-08-11 21:37:17.678485",
    "country": "United States",
    "longitude": "",
    "latitude": ""
  },
  {
    "id": "2680",
    "name": "Pokro Brewing Company, The",
    "brewery_type": "micro",
    "street": "311 N Broad St",
    "city": "Griffith",
    "state": "Indiana",
    "postal_code": "46319-2222",
    "website_url": "http://www.pokrobrewing.com",
    "phone": "2199247950",
    "created_at": "2018-07-24 01:33:22.643436",
    "updated_at": "2018-08-24 00:33:14.975229",
    "country": "United States",
    "longitude": "-87.4275573320627",
    "latitude": "41.5266943049435"
  },
  {
    "id": "2731",
    "name": "Zorn Brew Works",
    "brewery_type": "micro",
    "street": "605 E 9th St",
    "city": "Michigan City",
    "state": "Indiana",
    "postal_code": "46360-3651",
    "website_url": "http://www.zornbrewworks.com",
    "phone": "2193316322",
    "created_at": "2018-07-24 01:33:23.284022",
    "updated_at": "2018-08-24 00:33:41.836535",
    "country": "United States",
    "longitude": "-86.8921678567784",
    "latitude": "41.714577"
  },
  {
    "id": "2563",
    "name": "10-56 Brewing Company",
    "brewery_type": "micro",
    "street": "400 Brown Cir",
    "city": "Knox",
    "state": "Indiana",
    "postal_code": "46534",
    "website_url": "",
    "phone": "6308165790",
    "created_at": "2018-07-24 01:33:21.181405",
    "updated_at": "2018-08-24 00:32:24.965914",
    "country": "United States",
    "longitude": "-86.627954",
    "latitude": "41.289715"
  },
  {
    "id": "2567",
    "name": "450 North Brewing Company @ Simmons Winery",
    "brewery_type": "brewpub",
    "street": "8111 E 450 N",
    "city": "Columbus",
    "state": "Indiana",
    "postal_code": "47203-8106",
    "website_url": "http://www.450northbrewing.com",
    "phone": "8125460091",
    "created_at": "2018-07-24 01:33:21.233798",
    "updated_at": "2018-08-11 21:37:17.328664",
    "country": "United States",
    "longitude": "",
    "latitude": ""
  },
  {
    "id": "2569",
    "name": "Auburn Brewing Company",
    "brewery_type": "planning",
    "street": "",
    "city": "Auburn ",
    "state": "Indiana",
    "postal_code": "46706",
    "website_url": "",
    "phone": "2609081074",
    "created_at": "2018-07-24 01:33:21.258501",
    "updated_at": "2018-08-11 21:37:17.381698",
    "country": "United States",
    "longitude": "",
    "latitude": ""
  },
  {
    "id": "2573",
    "name": "Bad Dad Brewery",
    "brewery_type": "micro",
    "street": "407 W. Washington St. Ste. C",
    "city": "Fairmount",
    "state": "Indiana",
    "postal_code": "46928",
    "website_url": "http://www.baddadbrewery.com",
    "phone": "7654990941",
    "created_at": "2018-07-24 01:33:21.307776",
    "updated_at": "2018-08-11 21:37:17.537502",
    "country": "United States",
    "longitude": "",
    "latitude": ""
  },
  {
    "id": "2574",
    "name": "Bare Hands Brewery",
    "brewery_type": "micro",
    "street": "12804 Sandy Ct",
    "city": "Granger",
    "state": "Indiana",
    "postal_code": "46530-4309",
    "website_url": "http://www.barehandsbrewbrewery.com",
    "phone": "5742772258",
    "created_at": "2018-07-24 01:33:21.320461",
    "updated_at": "2018-08-11 21:37:17.565345",
    "country": "United States",
    "longitude": "",
    "latitude": ""
  },
  {
    "id": "2575",
    "name": "Barley Island Brewing Co",
    "brewery_type": "brewpub",
    "street": "639 E Conner St",
    "city": "Noblesville",
    "state": "Indiana",
    "postal_code": "46060-2532",
    "website_url": "http://www.barleyisland.com",
    "phone": "3177705280",
    "created_at": "2018-07-24 01:33:21.333123",
    "updated_at": "2018-08-11 21:37:17.592968",
    "country": "United States",
    "longitude": "",
    "latitude": ""
  },
  {
    "id": "2584",
    "name": "Blind Owl Brewery",
    "brewery_type": "brewpub",
    "street": "5014 E 62nd St",
    "city": "Indianapolis",
    "state": "Indiana",
    "postal_code": "46220-5228",
    "website_url": "http://www.blindowlbrewery.com",
    "phone": "3179241000",
    "created_at": "2018-07-24 01:33:21.442829",
    "updated_at": "2018-08-11 21:37:17.855152",
    "country": "United States",
    "longitude": "",
    "latitude": ""
  },
  {
    "id": "2586",
    "name": "Bloomington Brewing Co - Production Facility",
    "brewery_type": "micro",
    "street": "2234 West Industrial Drive",
    "city": "Bloomington",
    "state": "Indiana",
    "postal_code": "47404",
    "website_url": "http://www.bbcbloomington.com",
    "phone": "8126992005",
    "created_at": "2018-07-24 01:33:21.466759",
    "updated_at": "2018-08-11 21:37:17.906925",
    "country": "United States",
    "longitude": "",
    "latitude": ""
  },
  {
    "id": "2587",
    "name": "Books & Brews",
    "brewery_type": "brewpub",
    "street": "9402 Uptown Dr Ste 1400",
    "city": "Indianapolis",
    "state": "Indiana",
    "postal_code": "46256-1076",
    "website_url": "http://www.booksnbrews.com",
    "phone": "3172885136",
    "created_at": "2018-07-24 01:33:21.479289",
    "updated_at": "2018-08-11 21:37:17.937773",
    "country": "United States",
    "longitude": "",
    "latitude": ""
  },
  {
    "id": "2588",
    "name": "Brew Link Brewing",
    "brewery_type": "proprietor",
    "street": "212 E. Main",
    "city": "Plainfield",
    "state": "Indiana",
    "postal_code": "46168-9659",
    "website_url": "http://www.brewlinkbrewing.com",
    "phone": "3172037788",
    "created_at": "2018-07-24 01:33:21.491182",
    "updated_at": "2018-08-11 21:37:17.967009",
    "country": "United States",
    "longitude": "",
    "latitude": ""
  },
  {
    "id": "2589",
    "name": "Brewery In Planning - Carmel IN",
    "brewery_type": "planning",
    "street": "",
    "city": "Carmel",
    "state": "Indiana",
    "postal_code": "46033-9732",
    "website_url": "",
    "phone": "",
    "created_at": "2018-07-24 01:33:21.503276",
    "updated_at": "2018-08-11 21:37:17.995986",
    "country": "United States",
    "longitude": "",
    "latitude": ""
  },
  {
    "id": "2590",
    "name": "Brewery in Planning - Elkhart, IN",
    "brewery_type": "planning",
    "street": "",
    "city": "Elkhart",
    "state": "Indiana",
    "postal_code": "46516",
    "website_url": "http://sty.stedman@hotmail.com",
    "phone": "9705979865",
    "created_at": "2018-07-24 01:33:21.515907",
    "updated_at": "2018-08-11 21:37:18.027337",
    "country": "United States",
    "longitude": "",
    "latitude": ""
  },
  {
    "id": "2591",
    "name": "Brewery in Planning - Fort Wayne, IN",
    "brewery_type": "planning",
    "street": "",
    "city": "Fort Wayne",
    "state": "Indiana",
    "postal_code": "46808",
    "website_url": "http://www.dotandlinebrewing.com",
    "phone": "2604822720",
    "created_at": "2018-07-24 01:33:21.527986",
    "updated_at": "2018-08-11 21:37:18.057294",
    "country": "United States",
    "longitude": "",
    "latitude": ""
  },
  {
    "id": "2592",
    "name": "Brewery in Planning - Franklin",
    "brewery_type": "planning",
    "street": "",
    "city": "Franklin",
    "state": "Indiana",
    "postal_code": "46131-7078",
    "website_url": "",
    "phone": "",
    "created_at": "2018-07-24 01:33:21.540301",
    "updated_at": "2018-08-11 21:37:18.086419",
    "country": "United States",
    "longitude": "",
    "latitude": ""
  },
  {
    "id": "2593",
    "name": "Brewery In Planning - Indianapolis",
    "brewery_type": "planning",
    "street": "",
    "city": "Indianapolis",
    "state": "Indiana",
    "postal_code": "46236",
    "website_url": "",
    "phone": "3178230521",
    "created_at": "2018-07-24 01:33:21.551933",
    "updated_at": "2018-08-11 21:37:18.115842",
    "country": "United States",
    "longitude": "",
    "latitude": ""
  },
  {
    "id": "2594",
    "name": "Brewery in Planning - Noblesville",
    "brewery_type": "planning",
    "street": "",
    "city": "Noblesville",
    "state": "Indiana",
    "postal_code": "46062-6491",
    "website_url": "",
    "phone": "",
    "created_at": "2018-07-24 01:33:21.564468",
    "updated_at": "2018-08-11 21:37:18.142951",
    "country": "United States",
    "longitude": "",
    "latitude": ""
  },
  {
    "id": "2595",
    "name": "Broad Ripple Brewing Co",
    "brewery_type": "brewpub",
    "street": "842 E 65th St",
    "city": "Indianapolis",
    "state": "Indiana",
    "postal_code": "46220-1674",
    "website_url": "",
    "phone": "3172532739",
    "created_at": "2018-07-24 01:33:21.576523",
    "updated_at": "2018-08-11 21:37:18.170799",
    "country": "United States",
    "longitude": "",
    "latitude": ""
  },
  {
    "id": "2597",
    "name": "Brugge Brasserie",
    "brewery_type": "brewpub",
    "street": "1011A E Westfield Blvd",
    "city": "Indianapolis",
    "state": "Indiana",
    "postal_code": "46220-",
    "website_url": "http://www.bruggebrasserie.com",
    "phone": "3172550978",
    "created_at": "2018-07-24 01:33:21.601564",
    "updated_at": "2018-08-11 21:37:18.2259",
    "country": "United States",
    "longitude": "",
    "latitude": ""
  },
  {
    "id": "2600",
    "name": "Byway Brewing Company",
    "brewery_type": "brewpub",
    "street": "2825 Carlson Dr",
    "city": "Hammond",
    "state": "Indiana",
    "postal_code": "46323-1183",
    "website_url": "http://www.bywaybrewing.beer",
    "phone": "2198445458",
    "created_at": "2018-07-24 01:33:21.638197",
    "updated_at": "2018-08-11 21:37:18.308304",
    "country": "United States",
    "longitude": "",
    "latitude": ""
  },
  {
    "id": "2602",
    "name": "Carbon Brewing Company",
    "brewery_type": "planning",
    "street": "",
    "city": "Brazil",
    "state": "Indiana",
    "postal_code": "47834-7046",
    "website_url": "http://www.carbonbrewing.com",
    "phone": "",
    "created_at": "2018-07-24 01:33:21.663897",
    "updated_at": "2018-08-11 21:37:18.370171",
    "country": "United States",
    "longitude": "",
    "latitude": ""
  },
  {
    "id": "2603",
    "name": "Carson's Brewery",
    "brewery_type": "micro",
    "street": "2404 Lynch Rd",
    "city": "Evansville",
    "state": "Indiana",
    "postal_code": "47711-2953",
    "website_url": "http://www.carsonsbrewery.com",
    "phone": "8127598229",
    "created_at": "2018-07-24 01:33:21.675705",
    "updated_at": "2018-08-11 21:37:18.402156",
    "country": "United States",
    "longitude": "",
    "latitude": ""
  },
  {
    "id": "2604",
    "name": "Cedar Creek Brewing Co.",
    "brewery_type": "micro",
    "street": "3820 Leonard Rd",
    "city": "Martinsville",
    "state": "Indiana",
    "postal_code": "46151-5600",
    "website_url": "http://www.drinkatthecreek.com",
    "phone": "7653429000",
    "created_at": "2018-07-24 01:33:21.687648",
    "updated_at": "2018-08-11 21:37:18.42965",
    "country": "United States",
    "longitude": "",
    "latitude": ""
  },
  {
    "id": "2607",
    "name": "Chapman's Brewing Company",
    "brewery_type": "planning",
    "street": "",
    "city": "Wabash",
    "state": "Indiana",
    "postal_code": "46992-3131",
    "website_url": "http://www.chapmansbrewing.com",
    "phone": "",
    "created_at": "2018-07-24 01:33:21.723264",
    "updated_at": "2018-08-11 21:37:18.519047",
    "country": "United States",
    "longitude": "",
    "latitude": ""
  },
  {
    "id": "2609",
    "name": "Chilly Water Brewing Company",
    "brewery_type": "brewpub",
    "street": "719 Virginia Ave Ste 105",
    "city": "Indianapolis",
    "state": "Indiana",
    "postal_code": "46203-1976",
    "website_url": "http://www.chillywaterbrewing.com",
    "phone": "3179640518",
    "created_at": "2018-07-24 01:33:21.747073",
    "updated_at": "2018-08-11 21:37:18.571863",
    "country": "United States",
    "longitude": "",
    "latitude": ""
  },
  {
    "id": "2610",
    "name": "Civilian Brewing Corps",
    "brewery_type": "planning",
    "street": "",
    "city": "Bloomington",
    "state": "Indiana",
    "postal_code": "47403-9658",
    "website_url": "",
    "phone": "",
    "created_at": "2018-07-24 01:33:21.758546",
    "updated_at": "2018-08-11 21:37:18.598344",
    "country": "United States",
    "longitude": "",
    "latitude": ""
  },
  {
    "id": "2611",
    "name": "Crasian Brewing Co",
    "brewery_type": "micro",
    "street": "207 S Railroad St Ste B",
    "city": "Brookston",
    "state": "Indiana",
    "postal_code": "47923-8137",
    "website_url": "http://www.crasianbrewing.com",
    "phone": "7655638339",
    "created_at": "2018-07-24 01:33:21.770646",
    "updated_at": "2018-08-11 21:37:18.625897",
    "country": "United States",
    "longitude": "",
    "latitude": ""
  },
  {
    "id": "2565",
    "name": "18th Street Brewery",
    "brewery_type": "micro",
    "street": "5417 Oakley Ave",
    "city": "Hammond",
    "state": "Indiana",
    "postal_code": "46320-1817",
    "website_url": "",
    "phone": "",
    "created_at": "2018-07-24 01:33:21.206464",
    "updated_at": "2018-08-24 00:32:26.04772",
    "country": "United States",
    "longitude": "-87.517422",
    "latitude": "41.6155679591837"
  },
  {
    "id": "2570",
    "name": "Back Alley Brewing Co",
    "brewery_type": "micro",
    "street": "211 S Main St",
    "city": "Goshen",
    "state": "Indiana",
    "postal_code": "46526-3722",
    "website_url": "",
    "phone": "5743704049",
    "created_at": "2018-07-24 01:33:21.270579",
    "updated_at": "2018-08-24 00:32:27.21677",
    "country": "United States",
    "longitude": "-85.8345786228952",
    "latitude": "41.5846197132255"
  },
  {
    "id": "2571",
    "name": "Back Road Brewery",
    "brewery_type": "micro",
    "street": "308 Perry St",
    "city": "La Porte",
    "state": "Indiana",
    "postal_code": "46350-3216",
    "website_url": "http://www.backroadbrewery.com",
    "phone": "2193627623",
    "created_at": "2018-07-24 01:33:21.28274",
    "updated_at": "2018-08-24 00:32:27.818292",
    "country": "United States",
    "longitude": "-86.7264913749377",
    "latitude": "41.6118881995748"
  },
  {
    "id": "2572",
    "name": "Backstep Brewing Company",
    "brewery_type": "micro",
    "street": "125 N Green St",
    "city": "Crawfordsville",
    "state": "Indiana",
    "postal_code": "47933-1708",
    "website_url": "http://www.backstepbrewingcompany.com",
    "phone": "7652302337",
    "created_at": "2018-07-24 01:33:21.295919",
    "updated_at": "2018-08-24 00:32:28.50907",
    "country": "United States",
    "longitude": "-86.8999860658783",
    "latitude": "40.0420771233299"
  },
  {
    "id": "2579",
    "name": "Big Lug Canteen",
    "brewery_type": "brewpub",
    "street": "1435 E 86th St",
    "city": "Indianapolis",
    "state": "Indiana",
    "postal_code": "46240-1911",
    "website_url": "",
    "phone": "",
    "created_at": "2018-07-24 01:33:21.382331",
    "updated_at": "2018-08-24 00:32:32.613285",
    "country": "United States",
    "longitude": "-86.079957",
    "latitude": "39.912628"
  },
  {
    "id": "2580",
    "name": "Birdboy Brewing Co",
    "brewery_type": "micro",
    "street": "210 E Collins Rd",
    "city": "Fort Wayne",
    "state": "Indiana",
    "postal_code": "46825-5304",
    "website_url": "http://www.birdboybrewing.com",
    "phone": "2605795508",
    "created_at": "2018-07-24 01:33:21.394898",
    "updated_at": "2018-08-24 00:32:33.183225",
    "country": "United States",
    "longitude": "-85.1390014183181",
    "latitude": "41.1218779162426"
  },
  {
    "id": "2581",
    "name": "Black Acre Brewing Co",
    "brewery_type": "brewpub",
    "street": "5632 E Washington St",
    "city": "Indianapolis",
    "state": "Indiana",
    "postal_code": "46219-6428",
    "website_url": "http://www.blackacrebrewing.com",
    "phone": "3177973316",
    "created_at": "2018-07-24 01:33:21.407155",
    "updated_at": "2018-08-24 00:32:34.043997",
    "country": "United States",
    "longitude": "-86.1452662",
    "latitude": "39.7668669"
  },
  {
    "id": "2582",
    "name": "Black Circle Brewing Co",
    "brewery_type": "micro",
    "street": "2201 E 46th St",
    "city": "Indianapolis",
    "state": "Indiana",
    "postal_code": "46205",
    "website_url": "http://www.blackcirclebrewing.com",
    "phone": "3174260143",
    "created_at": "2018-07-24 01:33:21.418706",
    "updated_at": "2018-08-24 00:32:34.601077",
    "country": "United States",
    "longitude": "-86.123944",
    "latitude": "39.8398813"
  },
  {
    "id": "2583",
    "name": "Black Swan Brewpub",
    "brewery_type": "brewpub",
    "street": "2067 E Hadley Rd",
    "city": "Plainfield",
    "state": "Indiana",
    "postal_code": "46168-7484",
    "website_url": "http://www.blackswanbrewpub.com",
    "phone": "3178387444",
    "created_at": "2018-07-24 01:33:21.430119",
    "updated_at": "2018-08-24 00:32:35.091677",
    "country": "United States",
    "longitude": "-86.374141",
    "latitude": "39.674729"
  },
  {
    "id": "2585",
    "name": "Bloomington Brewing Co",
    "brewery_type": "brewpub",
    "street": "1795 E 10th St",
    "city": "Bloomington",
    "state": "Indiana",
    "postal_code": "47407-6955",
    "website_url": "",
    "phone": "8123392256",
    "created_at": "2018-07-24 01:33:21.454417",
    "updated_at": "2018-08-24 00:32:36.100798",
    "country": "United States",
    "longitude": "-86.511366725",
    "latitude": "39.1720504"
  },
  {
    "id": "2598",
    "name": "Bulldog Brewing",
    "brewery_type": "brewpub",
    "street": "1409 119th St",
    "city": "Whiting",
    "state": "Indiana",
    "postal_code": "46394-1714",
    "website_url": "http://www.bulldogbrewingco.com",
    "phone": "2196555284",
    "created_at": "2018-07-24 01:33:21.613796",
    "updated_at": "2018-08-24 00:32:39.781341",
    "country": "United States",
    "longitude": "-87.4951351",
    "latitude": "41.679491"
  },
  {
    "id": "2601",
    "name": "Cannon Ball Brewing Company",
    "brewery_type": "brewpub",
    "street": "1702 Bellefontaine St",
    "city": "Indianapolis",
    "state": "Indiana",
    "postal_code": "46202-1813",
    "website_url": "http://www.cannonballbrewingindy.com",
    "phone": "3174265978",
    "created_at": "2018-07-24 01:33:21.65114",
    "updated_at": "2018-08-24 00:32:40.880681",
    "country": "United States",
    "longitude": "-86.142456030303",
    "latitude": "39.790467979798"
  },
  {
    "id": "2605",
    "name": "Centerpoint Brewing",
    "brewery_type": "micro",
    "street": "1125 E Brookside Ave",
    "city": "Indianapolis",
    "state": "Indiana",
    "postal_code": "46202-3587",
    "website_url": "http://www.centerpointbrewing.com",
    "phone": "3176028386",
    "created_at": "2018-07-24 01:33:21.699264",
    "updated_at": "2018-08-24 00:32:41.848794",
    "country": "United States",
    "longitude": "-86.1374046530612",
    "latitude": "39.7812903061225"
  },
  {
    "id": "2606",
    "name": "Central State Brewing",
    "brewery_type": "micro",
    "street": "4001 E 26th St",
    "city": "Indianapolis",
    "state": "Indiana",
    "postal_code": "46218",
    "website_url": "http://centralstatebrewing.com",
    "phone": "3174079855",
    "created_at": "2018-07-24 01:33:21.711386",
    "updated_at": "2018-08-24 00:32:42.401908",
    "country": "United States",
    "longitude": "-86.099105",
    "latitude": "39.805091"
  },
  {
    "id": "2608",
    "name": "Chapman's Brewing Company",
    "brewery_type": "brewpub",
    "street": "300 Industrial Dr",
    "city": "Angola",
    "state": "Indiana",
    "postal_code": "46703-1053",
    "website_url": "http://www.chapmansbrewing.com",
    "phone": "2603195495",
    "created_at": "2018-07-24 01:33:21.735207",
    "updated_at": "2018-08-24 00:32:42.926823",
    "country": "United States",
    "longitude": "-85.0016478242249",
    "latitude": "41.6483625562721"
  },
  {
    "id": "2612",
    "name": "Creatures Of Habit Brewing Co",
    "brewery_type": "planning",
    "street": "",
    "city": "Anderson",
    "state": "Indiana",
    "postal_code": "46016-1749",
    "website_url": "http://facebook.com/CreaturesBrew/",
    "phone": "7654000116",
    "created_at": "2018-07-24 01:33:21.782804",
    "updated_at": "2018-08-11 21:37:18.65323",
    "country": "United States",
    "longitude": "",
    "latitude": ""
  },
  {
    "id": "2613",
    "name": "Creek Bottom Brew LLC",
    "brewery_type": "planning",
    "street": "",
    "city": "Oldenburg",
    "state": "Indiana",
    "postal_code": "47036-9765",
    "website_url": "http://www.creekbottombrew.com",
    "phone": "8122124817",
    "created_at": "2018-07-24 01:33:21.795258",
    "updated_at": "2018-08-11 21:37:18.680351",
    "country": "United States",
    "longitude": "",
    "latitude": ""
  },
  {
    "id": "2615",
    "name": "Crown Brewing Co",
    "brewery_type": "brewpub",
    "street": "211 S East St",
    "city": "Crown Point",
    "state": "Indiana",
    "postal_code": "46307-4058",
    "website_url": "http://www.crownbrewing.com",
    "phone": "2196634545",
    "created_at": "2018-07-24 01:33:21.819405",
    "updated_at": "2018-08-11 21:37:18.746345",
    "country": "United States",
    "longitude": "",
    "latitude": ""
  },
  {
    "id": "2619",
    "name": "Deviate Brewing Co",
    "brewery_type": "micro",
    "street": "4004 W 96th St",
    "city": "Indianapolis",
    "state": "Indiana",
    "postal_code": "46268-2909",
    "website_url": "http://www.deviatebrewing.com",
    "phone": "",
    "created_at": "2018-07-24 01:33:21.867049",
    "updated_at": "2018-08-11 21:37:18.855791",
    "country": "United States",
    "longitude": "",
    "latitude": ""
  },
  {
    "id": "2620",
    "name": "Devil's Trumpet Brewing Co",
    "brewery_type": "micro",
    "street": "8250 Utah St",
    "city": "Merrillville",
    "state": "Indiana",
    "postal_code": "46410-6578",
    "website_url": "http://www.thedevilstrumpet.com",
    "phone": "2195767118",
    "created_at": "2018-07-24 01:33:21.886622",
    "updated_at": "2018-08-11 21:37:18.895699",
    "country": "United States",
    "longitude": "",
    "latitude": ""
  },
  {
    "id": "2621",
    "name": "Donum Dei Brewery",
    "brewery_type": "brewpub",
    "street": "3211 Grant Line Rd Ste 3",
    "city": "New Albany",
    "state": "Indiana",
    "postal_code": "47150-2175",
    "website_url": "",
    "phone": "5025412950",
    "created_at": "2018-07-24 01:33:21.899214",
    "updated_at": "2018-08-11 21:37:18.932009",
    "country": "United States",
    "longitude": "",
    "latitude": ""
  },
  {
    "id": "2623",
    "name": "Feed Store Beer Co",
    "brewery_type": "planning",
    "street": "",
    "city": "Bloomfield",
    "state": "Indiana",
    "postal_code": "47424-1137",
    "website_url": "http://www.feedstorebeer.com",
    "phone": "8123814343",
    "created_at": "2018-07-24 01:33:21.922561",
    "updated_at": "2018-08-11 21:37:18.996837",
    "country": "United States",
    "longitude": "",
    "latitude": ""
  },
  {
    "id": "2624",
    "name": "Field Brewing",
    "brewery_type": "planning",
    "street": "",
    "city": "Westfield",
    "state": "Indiana",
    "postal_code": "46074-9494",
    "website_url": "http://www.fieldbrewing.com",
    "phone": "3174300253",
    "created_at": "2018-07-24 01:33:21.934456",
    "updated_at": "2018-08-11 21:37:19.026984",
    "country": "United States",
    "longitude": "",
    "latitude": ""
  },
  {
    "id": "2625",
    "name": "Figure Eight Brewing Co",
    "brewery_type": "brewpub",
    "street": "150 Washington St",
    "city": "Valparaiso",
    "state": "Indiana",
    "postal_code": "46383-5507",
    "website_url": "http://www.figureeightbrewing.com",
    "phone": "2194772000",
    "created_at": "2018-07-24 01:33:21.946301",
    "updated_at": "2018-08-11 21:37:19.054683",
    "country": "United States",
    "longitude": "",
    "latitude": ""
  },
  {
    "id": "2633",
    "name": "George Ringler & Company",
    "brewery_type": "planning",
    "street": "",
    "city": "Danville",
    "state": "Indiana",
    "postal_code": "46122-1623",
    "website_url": "",
    "phone": "3176268353",
    "created_at": "2018-07-24 01:33:22.049281",
    "updated_at": "2018-08-11 21:37:19.311269",
    "country": "United States",
    "longitude": "",
    "latitude": ""
  },
  {
    "id": "2634",
    "name": "GnomeTown Brewing Co",
    "brewery_type": "brewpub",
    "street": "203 E Berry St Ste 104",
    "city": "Fort Wayne",
    "state": "Indiana",
    "postal_code": "46802",
    "website_url": "http://www.gnometownbrewing.com",
    "phone": "2604220070",
    "created_at": "2018-07-24 01:33:22.062005",
    "updated_at": "2018-08-11 21:37:19.337111",
    "country": "United States",
    "longitude": "",
    "latitude": ""
  },
  {
    "id": "2637",
    "name": "Granite City Food & Brewery",
    "brewery_type": "brewpub",
    "street": "150 W 96th St",
    "city": "Indianapolis",
    "state": "Indiana",
    "postal_code": "46260-4802",
    "website_url": "",
    "phone": "",
    "created_at": "2018-07-24 01:33:22.101679",
    "updated_at": "2018-08-11 21:37:19.433591",
    "country": "United States",
    "longitude": "",
    "latitude": ""
  },
  {
    "id": "2640",
    "name": "Granite City Food & Brewery (#27)",
    "brewery_type": "brewpub",
    "street": "150 W 96th St",
    "city": "Indianapolis",
    "state": "Indiana",
    "postal_code": "46260-4802",
    "website_url": "http://www.gcfb.net",
    "phone": "3172187185",
    "created_at": "2018-07-24 01:33:22.138596",
    "updated_at": "2018-08-11 21:37:19.518641",
    "country": "United States",
    "longitude": "",
    "latitude": ""
  },
  {
    "id": "2642",
    "name": "Guggman Haus Brewing Co.",
    "brewery_type": "planning",
    "street": "",
    "city": "Indianapolis",
    "state": "Indiana",
    "postal_code": "46202-2158",
    "website_url": "http://www.guggmanhausbrewing.com",
    "phone": "8122302554",
    "created_at": "2018-07-24 01:33:22.162939",
    "updated_at": "2018-08-11 21:37:19.573413",
    "country": "United States",
    "longitude": "",
    "latitude": ""
  },
  {
    "id": "2644",
    "name": "Heavenly Goat Brewing Company",
    "brewery_type": "brewpub",
    "street": "7321 Heritage Square Dr Ste 190",
    "city": "Granger",
    "state": "Indiana",
    "postal_code": "46530-5660",
    "website_url": "http://www.heavenlygoatbrew.com",
    "phone": "5742178428",
    "created_at": "2018-07-24 01:33:22.189262",
    "updated_at": "2018-08-11 21:37:19.625122",
    "country": "United States",
    "longitude": "",
    "latitude": ""
  },
  {
    "id": "2645",
    "name": "Herrmann Brewthers, LLC",
    "brewery_type": "planning",
    "street": "",
    "city": "Fishers",
    "state": "Indiana",
    "postal_code": "46038-2313",
    "website_url": "",
    "phone": "3179641390",
    "created_at": "2018-07-24 01:33:22.201325",
    "updated_at": "2018-08-11 21:37:19.65366",
    "country": "United States",
    "longitude": "",
    "latitude": ""
  },
  {
    "id": "2647",
    "name": "Hop Quest Brewing Company",
    "brewery_type": "planning",
    "street": "",
    "city": "Wheatfield",
    "state": "Indiana",
    "postal_code": "46392",
    "website_url": "",
    "phone": "2198636393",
    "created_at": "2018-07-24 01:33:22.227254",
    "updated_at": "2018-08-11 21:37:19.680617",
    "country": "United States",
    "longitude": "",
    "latitude": ""
  },
  {
    "id": "2655",
    "name": "LaOtto Brewing LLC",
    "brewery_type": "brewpub",
    "street": "202 S Main St",
    "city": "Laotto",
    "state": "Indiana",
    "postal_code": "46763-4800",
    "website_url": "",
    "phone": "2608973360",
    "created_at": "2018-07-24 01:33:22.327235",
    "updated_at": "2018-08-11 21:37:19.916041",
    "country": "United States",
    "longitude": "",
    "latitude": ""
  },
  {
    "id": "2657",
    "name": "Liter House",
    "brewery_type": "planning",
    "street": "",
    "city": "Indianapolis",
    "state": "Indiana",
    "postal_code": "46220",
    "website_url": "",
    "phone": "3176940580",
    "created_at": "2018-07-24 01:33:22.352009",
    "updated_at": "2018-08-11 21:37:19.972354",
    "country": "United States",
    "longitude": "",
    "latitude": ""
  },
  {
    "id": "2658",
    "name": "Mad Anthony Brewing Co",
    "brewery_type": "micro",
    "street": "2002 Broadway",
    "city": "Fort Wayne",
    "state": "Indiana",
    "postal_code": "46802-3710",
    "website_url": "http://www.madbrew.com",
    "phone": "2604262537",
    "created_at": "2018-07-24 01:33:22.367",
    "updated_at": "2018-08-11 21:37:19.998204",
    "country": "United States",
    "longitude": "",
    "latitude": ""
  },
  {
    "id": "2617",
    "name": "Daredevil Brewing Company",
    "brewery_type": "micro",
    "street": "1151 Main St",
    "city": "Indianapolis",
    "state": "Indiana",
    "postal_code": "46224-6976",
    "website_url": "http://www.daredevilbeer.com",
    "phone": "",
    "created_at": "2018-07-24 01:33:21.843332",
    "updated_at": "2018-08-24 00:32:46.065055",
    "country": "United States",
    "longitude": "-86.64727",
    "latitude": "39.844367"
  },
  {
    "id": "2622",
    "name": "Evil Czech Brewery",
    "brewery_type": "brewpub",
    "street": "3703 N Main St",
    "city": "Mishawaka",
    "state": "Indiana",
    "postal_code": "46545-3111",
    "website_url": "",
    "phone": "",
    "created_at": "2018-07-24 01:33:21.911064",
    "updated_at": "2018-08-24 00:32:48.656777",
    "country": "United States",
    "longitude": "-86.1823337",
    "latitude": "41.6939205"
  },
  {
    "id": "2626",
    "name": "Flat 12 Bierwerks",
    "brewery_type": "micro",
    "street": "414 Dorman St",
    "city": "Indianapolis",
    "state": "Indiana",
    "postal_code": "46202-3648",
    "website_url": "http://www.flat12.me",
    "phone": "3174265851",
    "created_at": "2018-07-24 01:33:21.958138",
    "updated_at": "2018-08-24 00:32:49.831944",
    "country": "United States",
    "longitude": "-86.13847",
    "latitude": "39.7726148571429"
  },
  {
    "id": "2627",
    "name": "Flix Brewhouse",
    "brewery_type": "brewpub",
    "street": "2206 E 116th St",
    "city": "Carmel",
    "state": "Indiana",
    "postal_code": "46032-3215",
    "website_url": "",
    "phone": "5122442739",
    "created_at": "2018-07-24 01:33:21.970209",
    "updated_at": "2018-08-24 00:32:50.421785",
    "country": "United States",
    "longitude": "-86.0897644",
    "latitude": "39.9567195"
  },
  {
    "id": "2629",
    "name": "Fountain Square Brewing Co",
    "brewery_type": "micro",
    "street": "1301 Barth Ave",
    "city": "Indianapolis",
    "state": "Indiana",
    "postal_code": "46203-1872",
    "website_url": "http://www.fountainsquarebrewing.com",
    "phone": "3174931410",
    "created_at": "2018-07-24 01:33:21.995428",
    "updated_at": "2018-08-24 00:32:51.581119",
    "country": "United States",
    "longitude": "-86.1404227",
    "latitude": "39.7496885"
  },
  {
    "id": "2630",
    "name": "Four Day Ray Brewing",
    "brewery_type": "brewpub",
    "street": "11671 Lantern Rd",
    "city": "Fishers",
    "state": "Indiana",
    "postal_code": "46038-2952",
    "website_url": "http://www.fourdayray.com",
    "phone": "3173430200",
    "created_at": "2018-07-24 01:33:22.009944",
    "updated_at": "2018-08-24 00:32:52.126571",
    "country": "United States",
    "longitude": "-86.013396",
    "latitude": "39.956908"
  },
  {
    "id": "2631",
    "name": "Four Fathers Brewing",
    "brewery_type": "micro",
    "street": "1555 W Lincolnway Ste 105",
    "city": "Valparaiso",
    "state": "Indiana",
    "postal_code": "46385-3801",
    "website_url": "http://www.fourfathersbrewing.com",
    "phone": "2194649712",
    "created_at": "2018-07-24 01:33:22.023382",
    "updated_at": "2018-08-24 00:32:52.694671",
    "country": "United States",
    "longitude": "-87.0790657249009",
    "latitude": "41.4732834349405"
  },
  {
    "id": "2632",
    "name": "Function Brewing Co",
    "brewery_type": "brewpub",
    "street": "108 E 6th St",
    "city": "Bloomington",
    "state": "Indiana",
    "postal_code": "47408-3311",
    "website_url": "http://www.functionbrewing.com",
    "phone": "8126761000",
    "created_at": "2018-07-24 01:33:22.03612",
    "updated_at": "2018-08-24 00:32:53.267082",
    "country": "United States",
    "longitude": "-86.5333707175402",
    "latitude": "39.1674678070357"
  },
  {
    "id": "2635",
    "name": "Goshen Brewing Company",
    "brewery_type": "brewpub",
    "street": "315 W Washington St",
    "city": "Goshen",
    "state": "Indiana",
    "postal_code": "46526-3732",
    "website_url": "http://www.goshenbrewing.com",
    "phone": "5749715324",
    "created_at": "2018-07-24 01:33:22.074019",
    "updated_at": "2018-08-24 00:32:54.345138",
    "country": "United States",
    "longitude": "-85.8386783",
    "latitude": "41.585178"
  },
  {
    "id": "2636",
    "name": "Grand Junction Brewing Co",
    "brewery_type": "brewpub",
    "street": "110 S Union St",
    "city": "Westfield",
    "state": "Indiana",
    "postal_code": "46074-9458",
    "website_url": "http://www.grandjunctionbrewing.com",
    "phone": "3178045168",
    "created_at": "2018-07-24 01:33:22.087784",
    "updated_at": "2018-08-24 00:32:54.809413",
    "country": "United States",
    "longitude": "-86.1275556",
    "latitude": "40.0424222"
  },
  {
    "id": "2638",
    "name": "Granite City Food & Brewery (#24)",
    "brewery_type": "brewpub",
    "street": "3809 Coldwater Rd",
    "city": "Fort Wayne",
    "state": "Indiana",
    "postal_code": "46805-1101",
    "website_url": "http://www.gcfb.net",
    "phone": "2604713030",
    "created_at": "2018-07-24 01:33:22.114317",
    "updated_at": "2018-08-24 00:32:56.05705",
    "country": "United States",
    "longitude": "-85.1358185730587",
    "latitude": "41.1113216"
  },
  {
    "id": "2641",
    "name": "Great Crescent Brewery",
    "brewery_type": "micro",
    "street": "315 Importing St",
    "city": "Aurora",
    "state": "Indiana",
    "postal_code": "47001-1415",
    "website_url": "http://www.gcbeer.com",
    "phone": "8126559079",
    "created_at": "2018-07-24 01:33:22.150555",
    "updated_at": "2018-08-24 00:32:57.743275",
    "country": "United States",
    "longitude": "-84.9005125714286",
    "latitude": "39.0576022857143"
  },
  {
    "id": "2643",
    "name": "Half Moon Restaurant & Brewery",
    "brewery_type": "brewpub",
    "street": "4051 S Lafountain St",
    "city": "Kokomo",
    "state": "Indiana",
    "postal_code": "46902-6913",
    "website_url": "",
    "phone": "7654552739",
    "created_at": "2018-07-24 01:33:22.177203",
    "updated_at": "2018-08-24 00:32:58.384738",
    "country": "United States",
    "longitude": "-86.1281745",
    "latitude": "40.4362867"
  },
  {
    "id": "2648",
    "name": "Hop River Brewing Company",
    "brewery_type": "micro",
    "street": "1515 N Harrison St",
    "city": "Fort Wayne",
    "state": "Indiana",
    "postal_code": "46808-2729",
    "website_url": "http://www.hopriverbrewing.com",
    "phone": "",
    "created_at": "2018-07-24 01:33:22.239418",
    "updated_at": "2018-08-24 00:32:59.476415",
    "country": "United States",
    "longitude": "-85.1434574",
    "latitude": "41.0882767"
  },
  {
    "id": "2649",
    "name": "Hunter's Brewing",
    "brewery_type": "brewpub",
    "street": "1535 S Calumet Rd",
    "city": "Chesterton",
    "state": "Indiana",
    "postal_code": "46304-3301",
    "website_url": "",
    "phone": "2197286729",
    "created_at": "2018-07-24 01:33:22.251698",
    "updated_at": "2018-08-24 00:33:00.044826",
    "country": "United States",
    "longitude": "-87.0475184046949",
    "latitude": "41.5971593002097"
  },
  {
    "id": "2651",
    "name": "Indiana City Brewing",
    "brewery_type": "micro",
    "street": "24 Shelby Street",
    "city": "Indianapolis",
    "state": "Indiana",
    "postal_code": "46202-3941",
    "website_url": "http://indianacitybeer.com",
    "phone": "3176431103",
    "created_at": "2018-07-24 01:33:22.27712",
    "updated_at": "2018-08-24 00:33:01.388787",
    "country": "United States",
    "longitude": "-86.141258",
    "latitude": "39.7661102"
  },
  {
    "id": "2652",
    "name": "Ironwood Brewing Co LLC",
    "brewery_type": "micro",
    "street": "6 Roosevelt Rd",
    "city": "Valparaiso",
    "state": "Indiana",
    "postal_code": "46383-5136",
    "website_url": "http://www.ironwoodbrewing.beer",
    "phone": "2194054644",
    "created_at": "2018-07-24 01:33:22.289556",
    "updated_at": "2018-08-24 00:33:02.046774",
    "country": "United States",
    "longitude": "-87.046457",
    "latitude": "41.4684063333333"
  },
  {
    "id": "2653",
    "name": "Junk Ditch Brewing Company",
    "brewery_type": "micro",
    "street": "1825 W Main St",
    "city": "Fort Wayne",
    "state": "Indiana",
    "postal_code": "46808-3715",
    "website_url": "http://junkditchbrewingco.com",
    "phone": "2604600460",
    "created_at": "2018-07-24 01:33:22.301382",
    "updated_at": "2018-08-24 00:33:02.762527",
    "country": "United States",
    "longitude": "-85.1669014",
    "latitude": "41.0779727"
  },
  {
    "id": "2654",
    "name": "Lafayette Brewing Co",
    "brewery_type": "brewpub",
    "street": "622 Main St",
    "city": "Lafayette",
    "state": "Indiana",
    "postal_code": "47901-1451",
    "website_url": "http://www.lafayettebrewingco.com",
    "phone": "7657422591",
    "created_at": "2018-07-24 01:33:22.313928",
    "updated_at": "2018-08-24 00:33:03.340898",
    "country": "United States",
    "longitude": "-86.8899492425727",
    "latitude": "40.4192173219319"
  },
  {
    "id": "2656",
    "name": "Lil' Charlie's Restaurant & Brewery",
    "brewery_type": "contract",
    "street": "504 E Pearl St",
    "city": "Batesville",
    "state": "Indiana",
    "postal_code": "47006-1585",
    "website_url": "http://www.lilcharlies.com",
    "phone": "8129346392",
    "created_at": "2018-07-24 01:33:22.339654",
    "updated_at": "2018-08-24 00:33:04.529419",
    "country": "United States",
    "longitude": "-85.2161451812081",
    "latitude": "39.295641966443"
  },
  {
    "id": "2660",
    "name": "Main Street Brewing Inc/Turonis Pizza",
    "brewery_type": "brewpub",
    "street": "408 N Main St",
    "city": "Evansville",
    "state": "Indiana",
    "postal_code": "47711-5418",
    "website_url": "",
    "phone": "8124249871",
    "created_at": "2018-07-24 01:33:22.396448",
    "updated_at": "2018-08-24 00:33:05.743193",
    "country": "United States",
    "longitude": "-87.5639952653061",
    "latitude": "37.9812209387755"
  },
  {
    "id": "2661",
    "name": "MashCraft Brewing",
    "brewery_type": "micro",
    "street": "1140 N State Road 135 Ste M",
    "city": "Greenwood",
    "state": "Indiana",
    "postal_code": "46142-1016",
    "website_url": "http://www.mashcraft.com",
    "phone": "3172154578",
    "created_at": "2018-07-24 01:33:22.409444",
    "updated_at": "2018-08-11 21:37:20.383615",
    "country": "United States",
    "longitude": "",
    "latitude": ""
  },
  {
    "id": "2663",
    "name": "Misconduct Brewing",
    "brewery_type": "planning",
    "street": "",
    "city": "Carmel",
    "state": "Indiana",
    "postal_code": "46033-9414",
    "website_url": "",
    "phone": "",
    "created_at": "2018-07-24 01:33:22.434799",
    "updated_at": "2018-08-11 21:37:20.446179",
    "country": "United States",
    "longitude": "",
    "latitude": ""
  },
  {
    "id": "2665",
    "name": "Nailers Brewing Company",
    "brewery_type": "brewpub",
    "street": "6001 N US Highway 31",
    "city": "Whiteland",
    "state": "Indiana",
    "postal_code": "46184",
    "website_url": "",
    "phone": "3172813132",
    "created_at": "2018-07-24 01:33:22.459038",
    "updated_at": "2018-08-11 21:37:20.51021",
    "country": "United States",
    "longitude": "",
    "latitude": ""
  },
  {
    "id": "2667",
    "name": "New Albanian Brewing Co",
    "brewery_type": "brewpub",
    "street": "3312 Plaza Dr",
    "city": "New Albany",
    "state": "Indiana",
    "postal_code": "47150-2478",
    "website_url": "http://www.newalbanian.com",
    "phone": "8129442577",
    "created_at": "2018-07-24 01:33:22.483882",
    "updated_at": "2018-08-11 21:37:20.568078",
    "country": "United States",
    "longitude": "",
    "latitude": ""
  },
  {
    "id": "2669",
    "name": "New Corner Brewing Company",
    "brewery_type": "micro",
    "street": "1900 W Mt Pleasant Blvd Ste G",
    "city": "Muncie",
    "state": "Indiana",
    "postal_code": "47302-9566",
    "website_url": "http://www.newcornerbrewing.com",
    "phone": "7657304376",
    "created_at": "2018-07-24 01:33:22.508099",
    "updated_at": "2018-08-11 21:37:20.626778",
    "country": "United States",
    "longitude": "",
    "latitude": ""
  },
  {
    "id": "2673",
    "name": "Oaken Barrel Brewing Co",
    "brewery_type": "brewpub",
    "street": "50 Airport Pkwy Ste L",
    "city": "Greenwood",
    "state": "Indiana",
    "postal_code": "46143-1438",
    "website_url": "http://www.oakenbarrel.com",
    "phone": "3178872287",
    "created_at": "2018-07-24 01:33:22.55685",
    "updated_at": "2018-08-11 21:37:20.740855",
    "country": "United States",
    "longitude": "",
    "latitude": ""
  },
  {
    "id": "2675",
    "name": "Opocofi Brewing Company",
    "brewery_type": "planning",
    "street": "",
    "city": "Franklin",
    "state": "Indiana",
    "postal_code": "46131-8901",
    "website_url": "",
    "phone": "",
    "created_at": "2018-07-24 01:33:22.581006",
    "updated_at": "2018-08-11 21:37:20.797217",
    "country": "United States",
    "longitude": "",
    "latitude": ""
  },
  {
    "id": "2678",
    "name": "Planetary Brewing Company",
    "brewery_type": "micro",
    "street": "500 Polk St Ste 22",
    "city": "Greenwood",
    "state": "Indiana",
    "postal_code": "46143-1638",
    "website_url": "http://www.planetarybrewing.com",
    "phone": "3172154941",
    "created_at": "2018-07-24 01:33:22.618617",
    "updated_at": "2018-08-11 21:37:20.902708",
    "country": "United States",
    "longitude": "",
    "latitude": ""
  },
  {
    "id": "2681",
    "name": "Power House Brewing Co's Columbus Bar",
    "brewery_type": "brewpub",
    "street": "2735 N State Road 9",
    "city": "Columbus",
    "state": "Indiana",
    "postal_code": "47203-9648",
    "website_url": "http://www.powerhousebrewingco.com",
    "phone": "8123758800",
    "created_at": "2018-07-24 01:33:22.655264",
    "updated_at": "2018-08-11 21:37:20.992278",
    "country": "United States",
    "longitude": "",
    "latitude": ""
  },
  {
    "id": "2682",
    "name": "Quaff On Brewing",
    "brewery_type": "micro",
    "street": "1934 State Road 135 N",
    "city": "Nashville",
    "state": "Indiana",
    "postal_code": "47448-8418",
    "website_url": "http://www.quaffon.com",
    "phone": "8129886006",
    "created_at": "2018-07-24 01:33:22.667583",
    "updated_at": "2018-08-11 21:37:21.023436",
    "country": "United States",
    "longitude": "",
    "latitude": ""
  },
  {
    "id": "2685",
    "name": "Rebelle Brewing",
    "brewery_type": "planning",
    "street": "",
    "city": "Noblesville",
    "state": "Indiana",
    "postal_code": "46060",
    "website_url": "",
    "phone": "",
    "created_at": "2018-07-24 01:33:22.704568",
    "updated_at": "2018-08-11 21:37:21.106738",
    "country": "United States",
    "longitude": "",
    "latitude": ""
  },
  {
    "id": "2686",
    "name": "Redemption Alewerks",
    "brewery_type": "brewpub",
    "street": "7035 E 96th St Ste K",
    "city": "Indianapolis",
    "state": "Indiana",
    "postal_code": "46250-3303",
    "website_url": "http://www.redemptionalewerks.com",
    "phone": "3173483330",
    "created_at": "2018-07-24 01:33:22.719778",
    "updated_at": "2018-08-11 21:37:21.151077",
    "country": "United States",
    "longitude": "",
    "latitude": ""
  },
  {
    "id": "2688",
    "name": "Round Town Brewery",
    "brewery_type": "micro",
    "street": "950 S White River Pky West Dr Ste 100",
    "city": "Indianapolis",
    "state": "Indiana",
    "postal_code": "46221-1373",
    "website_url": "http://www.roundtownbrewery.com",
    "phone": "3174931375",
    "created_at": "2018-07-24 01:33:22.74426",
    "updated_at": "2018-08-11 21:37:21.216524",
    "country": "United States",
    "longitude": "",
    "latitude": ""
  },
  {
    "id": "2689",
    "name": "Salt Creek Brewery",
    "brewery_type": "brewpub",
    "street": "466 Old State Road 37 N",
    "city": "Bedford",
    "state": "Indiana",
    "postal_code": "47421-8068",
    "website_url": "http://www.saltcreeekbrewery.beer",
    "phone": "8122778277",
    "created_at": "2018-07-24 01:33:22.756772",
    "updated_at": "2018-08-11 21:37:21.249493",
    "country": "United States",
    "longitude": "",
    "latitude": ""
  },
  {
    "id": "2697",
    "name": "Studebaker Brewing Company",
    "brewery_type": "planning",
    "street": "",
    "city": "South Bend",
    "state": "Indiana",
    "postal_code": "46601",
    "website_url": "http://www.studebakerbrewingco.com",
    "phone": "5742349077",
    "created_at": "2018-07-24 01:33:22.855136",
    "updated_at": "2018-08-11 21:37:21.50892",
    "country": "United States",
    "longitude": "",
    "latitude": ""
  },
  {
    "id": "2698",
    "name": "Summit City Brwerks",
    "brewery_type": "brewpub",
    "street": "1501 E Berry #106",
    "city": "Fort Wayne",
    "state": "Indiana",
    "postal_code": "46803",
    "website_url": "http://www.summitcitybrewerks.com",
    "phone": "2604150782",
    "created_at": "2018-07-24 01:33:22.86698",
    "updated_at": "2018-08-11 21:37:21.540441",
    "country": "United States",
    "longitude": "",
    "latitude": ""
  },
  {
    "id": "2701",
    "name": "Sun King Brewing Co",
    "brewery_type": "planning",
    "street": "",
    "city": "Fishers",
    "state": "Indiana",
    "postal_code": "46037",
    "website_url": "",
    "phone": "",
    "created_at": "2018-07-24 01:33:22.902742",
    "updated_at": "2018-08-11 21:37:21.636505",
    "country": "United States",
    "longitude": "",
    "latitude": ""
  },
  {
    "id": "2704",
    "name": "Teays River Brewing",
    "brewery_type": "brewpub",
    "street": "3000 S 9th St Ste A",
    "city": "Lafayette",
    "state": "Indiana",
    "postal_code": "47909-6702",
    "website_url": "http://www.teaysriverbrewing.com",
    "phone": "7657466614",
    "created_at": "2018-07-24 01:33:22.938977",
    "updated_at": "2018-08-11 21:37:21.725644",
    "country": "United States",
    "longitude": "",
    "latitude": ""
  },
  {
    "id": "2664",
    "name": "Moontown Brewing",
    "brewery_type": "brewpub",
    "street": "345 S Bowers St",
    "city": "Whitestown",
    "state": "Indiana",
    "postal_code": "46075",
    "website_url": "http://www.moontownbeer.com",
    "phone": "5742503114",
    "created_at": "2018-07-24 01:33:22.446476",
    "updated_at": "2018-08-24 00:33:07.374291",
    "country": "United States",
    "longitude": "-86.346903",
    "latitude": "39.9940992857143"
  },
  {
    "id": "2668",
    "name": "New Boswell Brewing Co",
    "brewery_type": "micro",
    "street": "410 N 10th St",
    "city": "Richmond",
    "state": "Indiana",
    "postal_code": "47374",
    "website_url": "http://www.newboswell.com",
    "phone": "7655467856",
    "created_at": "2018-07-24 01:33:22.49614",
    "updated_at": "2018-08-24 00:33:09.018983",
    "country": "United States",
    "longitude": "-84.8891681111111",
    "latitude": "39.8330654444444"
  },
  {
    "id": "2670",
    "name": "New Oberpfalz Brewing",
    "brewery_type": "brewpub",
    "street": "121 E Main St",
    "city": "Griffith",
    "state": "Indiana",
    "postal_code": "46319-2243",
    "website_url": "http://www.newoberpfalz.com",
    "phone": "3127381308",
    "created_at": "2018-07-24 01:33:22.520594",
    "updated_at": "2018-08-24 00:33:10.121422",
    "country": "United States",
    "longitude": "-87.4272757058824",
    "latitude": "41.5227021176471"
  },
  {
    "id": "2671",
    "name": "Noble Order Brewing Company",
    "brewery_type": "brewpub",
    "street": "3407 National Rd W",
    "city": "Richmond",
    "state": "Indiana",
    "postal_code": "47374-4416",
    "website_url": "http://www.nobleorderbrewing.com",
    "phone": "7659659463",
    "created_at": "2018-07-24 01:33:22.532884",
    "updated_at": "2018-08-24 00:33:10.685346",
    "country": "United States",
    "longitude": "-84.9488231864361",
    "latitude": "39.82198693506"
  },
  {
    "id": "2672",
    "name": "Norris English Pub",
    "brewery_type": "brewpub",
    "street": "202 E Seminary St",
    "city": "Liberty",
    "state": "Indiana",
    "postal_code": "47353-1206",
    "website_url": "http://www.norrisenglishpub.com",
    "phone": "7652232337",
    "created_at": "2018-07-24 01:33:22.544803",
    "updated_at": "2018-08-24 00:33:11.219605",
    "country": "United States",
    "longitude": "-84.9250813333333",
    "latitude": "39.6344325"
  },
  {
    "id": "2674",
    "name": "Off Square Brewing",
    "brewery_type": "brewpub",
    "street": "11000 Delaware Pkwy",
    "city": "Crown Point",
    "state": "Indiana",
    "postal_code": "46307-7895",
    "website_url": "http://www.offsquarebrewing.com",
    "phone": "2193108898",
    "created_at": "2018-07-24 01:33:22.568791",
    "updated_at": "2018-08-24 00:33:12.241151",
    "country": "United States",
    "longitude": "-87.329728",
    "latitude": "41.417636"
  },
  {
    "id": "2676",
    "name": "Pax Verum Brewing",
    "brewery_type": "micro",
    "street": "908 N Main St",
    "city": "Lapel",
    "state": "Indiana",
    "postal_code": "46051-",
    "website_url": "http://www.paxverum.com",
    "phone": "3172858819",
    "created_at": "2018-07-24 01:33:22.593399",
    "updated_at": "2018-08-24 00:33:12.824856",
    "country": "United States",
    "longitude": "-85.8480295714286",
    "latitude": "40.0686987959184"
  },
  {
    "id": "2677",
    "name": "Peoples Brewing Co",
    "brewery_type": "micro",
    "street": "2006 N 9th Street Rd",
    "city": "Lafayette",
    "state": "Indiana",
    "postal_code": "47904-1036",
    "website_url": "http://www.peoplesbrew.com",
    "phone": "7657924677",
    "created_at": "2018-07-24 01:33:22.606057",
    "updated_at": "2018-08-24 00:33:13.328719",
    "country": "United States",
    "longitude": "-86.885995",
    "latitude": "40.437006875"
  },
  {
    "id": "2683",
    "name": "Raintree Brewing Company",
    "brewery_type": "micro",
    "street": "500 Church Street",
    "city": "New Harmony",
    "state": "Indiana",
    "postal_code": "47631",
    "website_url": "http://www.raintreebrewing.com",
    "phone": "",
    "created_at": "2018-07-24 01:33:22.679982",
    "updated_at": "2018-08-24 00:33:16.808826",
    "country": "United States",
    "longitude": "-87.9348109",
    "latitude": "38.1299262"
  },
  {
    "id": "2687",
    "name": "Rock Bottom Brewery - Indianapolis",
    "brewery_type": "brewpub",
    "street": "10 W Washington St",
    "city": "Indianapolis",
    "state": "Indiana",
    "postal_code": "46204-3402",
    "website_url": "http://www.rockbottom.com",
    "phone": "3176818180",
    "created_at": "2018-07-24 01:33:22.731919",
    "updated_at": "2018-08-24 00:33:18.509444",
    "country": "United States",
    "longitude": "-86.1584705",
    "latitude": "39.76717025"
  },
  {
    "id": "2690",
    "name": "Scarlet Lane Brewing Company LLC",
    "brewery_type": "micro",
    "street": "7724 Depot St",
    "city": "McCordsville",
    "state": "Indiana",
    "postal_code": "46055-6173",
    "website_url": "http://www.scarletlanebrew.com",
    "phone": "",
    "created_at": "2018-07-24 01:33:22.768924",
    "updated_at": "2018-08-24 00:33:20.24577",
    "country": "United States",
    "longitude": "-85.9243815918367",
    "latitude": "39.8947728571429"
  },
  {
    "id": "2691",
    "name": "Schnitz Brewery",
    "brewery_type": "brewpub",
    "street": "2031 Newton St",
    "city": "Jasper",
    "state": "Indiana",
    "postal_code": "47546-1600",
    "website_url": "http://www.schnitzbrewery.com",
    "phone": "8128482739",
    "created_at": "2018-07-24 01:33:22.781445",
    "updated_at": "2018-08-24 00:33:20.851802",
    "country": "United States",
    "longitude": "-86.937703",
    "latitude": "38.405985"
  },
  {
    "id": "2693",
    "name": "South Bend Brew Werks",
    "brewery_type": "brewpub",
    "street": "216 S Michigan St",
    "city": "South Bend",
    "state": "Indiana",
    "postal_code": "46601-2002",
    "website_url": "http://www.southbendbrewwerks.com",
    "phone": "5743340356",
    "created_at": "2018-07-24 01:33:22.806117",
    "updated_at": "2018-08-24 00:33:22.084443",
    "country": "United States",
    "longitude": "-86.2528557156014",
    "latitude": "41.6261185524131"
  },
  {
    "id": "2694",
    "name": "St John Malt Brothers Brewing",
    "brewery_type": "brewpub",
    "street": "9607 Wicker Ave",
    "city": "Saint John",
    "state": "Indiana",
    "postal_code": "46373-9487",
    "website_url": "http://www.sjmaltbros.com",
    "phone": "2196274294",
    "created_at": "2018-07-24 01:33:22.818334",
    "updated_at": "2018-08-24 00:33:22.623149",
    "country": "United States",
    "longitude": "-87.4699816326531",
    "latitude": "41.4450700816327"
  },
  {
    "id": "2695",
    "name": "St. Benedict's Brew Works",
    "brewery_type": "micro",
    "street": "860 E 10th St",
    "city": "Ferdinand",
    "state": "Indiana",
    "postal_code": "47532-9240",
    "website_url": "http://www.saintbenedictsbrewworks.com",
    "phone": "8129982337",
    "created_at": "2018-07-24 01:33:22.830417",
    "updated_at": "2018-08-24 00:33:23.172434",
    "country": "United States",
    "longitude": "-86.8541949090441",
    "latitude": "38.2242288957333"
  },
  {
    "id": "2696",
    "name": "St. Joseph Brewery & Public House",
    "brewery_type": "brewpub",
    "street": "540 N College Ave",
    "city": "Indianapolis",
    "state": "Indiana",
    "postal_code": "46202-3504",
    "website_url": "http://www.saintjoseph.beer.com",
    "phone": "3176025670",
    "created_at": "2018-07-24 01:33:22.842495",
    "updated_at": "2018-08-24 00:33:23.833136",
    "country": "United States",
    "longitude": "-86.1449174",
    "latitude": "39.8095687"
  },
  {
    "id": "2699",
    "name": "Sun King Brewery",
    "brewery_type": "micro",
    "street": "7848 E 96th St",
    "city": "Fishers",
    "state": "Indiana",
    "postal_code": "46037-9629",
    "website_url": "",
    "phone": "3174361926",
    "created_at": "2018-07-24 01:33:22.879047",
    "updated_at": "2018-08-24 00:33:25.052736",
    "country": "United States",
    "longitude": "-86.0242557",
    "latitude": "39.9282185"
  },
  {
    "id": "2700",
    "name": "Sun King Brewing Co",
    "brewery_type": "regional",
    "street": "135 N College Ave",
    "city": "Indianapolis",
    "state": "Indiana",
    "postal_code": "46202-3801",
    "website_url": "",
    "phone": "3176023702",
    "created_at": "2018-07-24 01:33:22.890863",
    "updated_at": "2018-08-24 00:33:25.585564",
    "country": "United States",
    "longitude": "-86.1449174",
    "latitude": "39.8095687"
  },
  {
    "id": "2703",
    "name": "Taxman Brewing Co",
    "brewery_type": "micro",
    "street": "13 S Baldwin St",
    "city": "Bargersville",
    "state": "Indiana",
    "postal_code": "46106-9089",
    "website_url": "http://www.taxmanbrewing.com",
    "phone": "",
    "created_at": "2018-07-24 01:33:22.926826",
    "updated_at": "2018-08-24 00:33:26.773104",
    "country": "United States",
    "longitude": "-86.1671619863068",
    "latitude": "39.5214854792612"
  },
  {
    "id": "2705",
    "name": "Terre Haute Brewing Company",
    "brewery_type": "brewpub",
    "street": "401 S 9th St",
    "city": "Terre Haute",
    "state": "Indiana",
    "postal_code": "47807-4417",
    "website_url": "http://www.terrehautebrewingcompany.com",
    "phone": "8128143071",
    "created_at": "2018-07-24 01:33:22.951348",
    "updated_at": "2018-08-24 00:33:28.085322",
    "country": "United States",
    "longitude": "-87.404517",
    "latitude": "39.462286"
  },
  {
    "id": "2706",
    "name": "The Guardian Brewing Company",
    "brewery_type": "micro",
    "street": "514 E Jackson Street",
    "city": "Muncie",
    "state": "Indiana",
    "postal_code": "47305",
    "website_url": "http://www.theguardianbrewingco.com",
    "phone": "7652738918",
    "created_at": "2018-07-24 01:33:22.963669",
    "updated_at": "2018-08-24 00:33:28.613086",
    "country": "United States",
    "longitude": "-85.3814878571429",
    "latitude": "40.1928128571429"
  },
  {
    "id": "2707",
    "name": "The Koontz Lake Brewing Company",
    "brewery_type": "brewpub",
    "street": "7747 N State Road 23",
    "city": "Walkerton",
    "state": "Indiana",
    "postal_code": "46574-9360",
    "website_url": "",
    "phone": "5745862019",
    "created_at": "2018-07-24 01:33:22.976255",
    "updated_at": "2018-08-11 21:37:21.818516",
    "country": "United States",
    "longitude": "",
    "latitude": ""
  },
  {
    "id": "2710",
    "name": "Thr3e Wise Men Brewing Co",
    "brewery_type": "brewpub",
    "street": "1021 Broad Ripple Ave",
    "city": "Indianapolis",
    "state": "Indiana",
    "postal_code": "46220-2034",
    "website_url": "",
    "phone": "3172555151",
    "created_at": "2018-07-24 01:33:23.017259",
    "updated_at": "2018-08-11 21:37:21.909033",
    "country": "United States",
    "longitude": "",
    "latitude": ""
  },
  {
    "id": "2711",
    "name": "Three Floyds Brewing Co",
    "brewery_type": "regional",
    "street": "9750 Indiana Pkwy",
    "city": "Munster",
    "state": "Indiana",
    "postal_code": "46321-4004",
    "website_url": "http://www.3floyds.com",
    "phone": "2199223565",
    "created_at": "2018-07-24 01:33:23.035133",
    "updated_at": "2018-08-11 21:37:21.943027",
    "country": "United States",
    "longitude": "",
    "latitude": ""
  },
  {
    "id": "2712",
    "name": "Three Pints Brewpub",
    "brewery_type": "brewpub",
    "street": "610 W Mitchell Ave",
    "city": "Martinsville",
    "state": "Indiana",
    "postal_code": "46151-2734",
    "website_url": "http://www.threepints.com",
    "phone": "7653499888",
    "created_at": "2018-07-24 01:33:23.048177",
    "updated_at": "2018-08-11 21:37:21.973652",
    "country": "United States",
    "longitude": "",
    "latitude": ""
  },
  {
    "id": "2714",
    "name": "Tin Man Brewing Kokomo",
    "brewery_type": "micro",
    "street": "500 N Buckeye St Ste A",
    "city": "Kokomo",
    "state": "Indiana",
    "postal_code": "46901-4544",
    "website_url": "",
    "phone": "5125176164",
    "created_at": "2018-07-24 01:33:23.073517",
    "updated_at": "2018-08-11 21:37:22.058211",
    "country": "United States",
    "longitude": "",
    "latitude": ""
  },
  {
    "id": "2715",
    "name": "Traders Brewing Company",
    "brewery_type": "micro",
    "street": "8587  ZIONSVILLE ROAD",
    "city": "INDIANAPOLIS",
    "state": "Indiana",
    "postal_code": "46268",
    "website_url": "http://www.tradersbrewingcompany.com",
    "phone": "3172807505",
    "created_at": "2018-07-24 01:33:23.085663",
    "updated_at": "2018-08-11 21:37:22.088739",
    "country": "United States",
    "longitude": "",
    "latitude": ""
  },
  {
    "id": "2716",
    "name": "Triton Brewing Company",
    "brewery_type": "micro",
    "street": "5764 Wheeler Rd",
    "city": "Indianapolis",
    "state": "Indiana",
    "postal_code": "46216-1038",
    "website_url": "http://www.tritonbrewing.com",
    "phone": "3177352706",
    "created_at": "2018-07-24 01:33:23.098006",
    "updated_at": "2018-08-11 21:37:22.118846",
    "country": "United States",
    "longitude": "",
    "latitude": ""
  },
  {
    "id": "2717",
    "name": "Trubble Brewing",
    "brewery_type": "micro",
    "street": "2725 Broadway",
    "city": "Fort Wayne",
    "state": "Indiana",
    "postal_code": "46807-1111",
    "website_url": "http://www.trubblebrewing.com",
    "phone": "2602676082",
    "created_at": "2018-07-24 01:33:23.111062",
    "updated_at": "2018-08-11 21:37:22.149089",
    "country": "United States",
    "longitude": "",
    "latitude": ""
  },
  {
    "id": "2720",
    "name": "Union Brewing",
    "brewery_type": "micro",
    "street": "622 S Rangeline Rd Ste Q",
    "city": "Carmel",
    "state": "Indiana",
    "postal_code": "46032-2152",
    "website_url": "http://www.unionbrewingco.com",
    "phone": "3175644466",
    "created_at": "2018-07-24 01:33:23.148044",
    "updated_at": "2018-08-11 21:37:22.239186",
    "country": "United States",
    "longitude": "",
    "latitude": ""
  },
  {
    "id": "2721",
    "name": "Upland Brewing Co",
    "brewery_type": "micro",
    "street": "4060 W Profile Pkwy",
    "city": "Bloomington",
    "state": "Indiana",
    "postal_code": "47404-2554",
    "website_url": "",
    "phone": "8123362337",
    "created_at": "2018-07-24 01:33:23.161262",
    "updated_at": "2018-08-11 21:37:22.272557",
    "country": "United States",
    "longitude": "",
    "latitude": ""
  },
  {
    "id": "2723",
    "name": "Wabash Brewing",
    "brewery_type": "micro",
    "street": "5328 W 79th St",
    "city": "Indianapolis",
    "state": "Indiana",
    "postal_code": "46268-1631",
    "website_url": "http://www.wabashbrew.com",
    "phone": "3179384458",
    "created_at": "2018-07-24 01:33:23.18716",
    "updated_at": "2018-08-11 21:37:22.335461",
    "country": "United States",
    "longitude": "",
    "latitude": ""
  },
  {
    "id": "2724",
    "name": "WarPigs USA Brewing Co.",
    "brewery_type": "contract",
    "street": "9750 Indiana Pkwy",
    "city": "Munster",
    "state": "Indiana",
    "postal_code": "46321-4004",
    "website_url": "http://warpigs.com",
    "phone": "2199223565",
    "created_at": "2018-07-24 01:33:23.19888",
    "updated_at": "2018-08-11 21:37:22.365813",
    "country": "United States",
    "longitude": "",
    "latitude": ""
  },
  {
    "id": "2726",
    "name": "Westwind Brewery Co.",
    "brewery_type": "planning",
    "street": "",
    "city": "Elkhart",
    "state": "Indiana",
    "postal_code": "46514-2204",
    "website_url": "http://www.westwindbrewery.com",
    "phone": "5742745073",
    "created_at": "2018-07-24 01:33:23.222378",
    "updated_at": "2018-08-11 21:37:22.42328",
    "country": "United States",
    "longitude": "",
    "latitude": ""
  },
  {
    "id": "2727",
    "name": "White Raven Brewing",
    "brewery_type": "planning",
    "street": "",
    "city": "Warsaw",
    "state": "Indiana",
    "postal_code": "46582-8089",
    "website_url": "http://www.whiteravenbrewing.com",
    "phone": "5747030643",
    "created_at": "2018-07-24 01:33:23.234493",
    "updated_at": "2018-08-11 21:37:22.450449",
    "country": "United States",
    "longitude": "",
    "latitude": ""
  },
  {
    "id": "2709",
    "name": "The Tap Brewery",
    "brewery_type": "brewpub",
    "street": "204 W Kirkwood Ave",
    "city": "Bloomington",
    "state": "Indiana",
    "postal_code": "47404-5144",
    "website_url": "http://www.thetapbeerbar.com",
    "phone": "8122878579",
    "created_at": "2018-07-24 01:33:23.003458",
    "updated_at": "2018-08-24 00:33:30.317093",
    "country": "United States",
    "longitude": "-86.5350443979592",
    "latitude": "39.1665079693878"
  },
  {
    "id": "2713",
    "name": "Tin Man Brewing Company",
    "brewery_type": "micro",
    "street": "1430 W Franklin St",
    "city": "Evansville",
    "state": "Indiana",
    "postal_code": "47710-1030",
    "website_url": "http://www.tinmanbrewing.com",
    "phone": "8126183227",
    "created_at": "2018-07-24 01:33:23.060884",
    "updated_at": "2018-08-24 00:33:32.656889",
    "country": "United States",
    "longitude": "-87.5845245671576",
    "latitude": "37.9802896996268"
  },
  {
    "id": "2718",
    "name": "Twenty Below Brewing @ Twenty Tap",
    "brewery_type": "brewpub",
    "street": "5406 N College Ave",
    "city": "Indianapolis",
    "state": "Indiana",
    "postal_code": "46220-3126",
    "website_url": "http://www.twentytap.com",
    "phone": "3176028840",
    "created_at": "2018-07-24 01:33:23.123496",
    "updated_at": "2018-08-24 00:33:35.528321",
    "country": "United States",
    "longitude": "-86.1449174",
    "latitude": "39.8095687"
  },
  {
    "id": "2719",
    "name": "TwoDEEP Brewing",
    "brewery_type": "brewpub",
    "street": "714 N Capitol Ave",
    "city": "Indianapolis",
    "state": "Indiana",
    "postal_code": "46204-1114",
    "website_url": "http://www.twodeepbrewing.com",
    "phone": "3176531884",
    "created_at": "2018-07-24 01:33:23.135914",
    "updated_at": "2018-08-24 00:33:36.219096",
    "country": "United States",
    "longitude": "-86.161428",
    "latitude": "39.777426"
  },
  {
    "id": "2728",
    "name": "Wildrose Brewing Company",
    "brewery_type": "brewpub",
    "street": "1104 E Main St",
    "city": "Griffith",
    "state": "Indiana",
    "postal_code": "46319-2826",
    "website_url": "http://www.wildrosebrewing.com",
    "phone": "2195955054",
    "created_at": "2018-07-24 01:33:23.24699",
    "updated_at": "2018-08-24 00:33:40.228704",
    "country": "United States",
    "longitude": "-87.4155241021932",
    "latitude": "41.5227592264415"
  },
  {
    "id": "2732",
    "name": "ZwanzigZ Brewing",
    "brewery_type": "brewpub",
    "street": "1038 Lafayette Ave",
    "city": "Columbus",
    "state": "Indiana",
    "postal_code": "47201-5756",
    "website_url": "http://www.zwanzigz.com",
    "phone": "8123760200",
    "created_at": "2018-07-24 01:33:23.296111",
    "updated_at": "2018-08-24 00:33:42.431062",
    "country": "United States",
    "longitude": "-85.9188364726272",
    "latitude": "39.2086567407244"
  },
  {
    "id": "2577",
    "name": "Bier Brewery and Taproom",
    "brewery_type": "micro",
    "street": "5133 E 65th St",
    "city": "Indianapolis",
    "state": "Indiana",
    "postal_code": "46220-4816",
    "website_url": "http://www.bierbrewery.com",
    "phone": "3176960200",
    "created_at": "2018-07-24 01:33:21.357576",
    "updated_at": "2018-08-11 21:37:17.650827",
    "country": "United States",
    "longitude": "",
    "latitude": ""
  },
  {
    "id": "2614",
    "name": "Crooked Ewe Brewery & Ale House",
    "brewery_type": "brewpub",
    "street": "1047 Lincoln Way E",
    "city": "South Bend",
    "state": "Indiana",
    "postal_code": "46601-3726",
    "website_url": "http://www.crookedewe.com",
    "phone": "5742170881",
    "created_at": "2018-07-24 01:33:21.807109",
    "updated_at": "2018-08-11 21:37:18.713522",
    "country": "United States",
    "longitude": "",
    "latitude": ""
  },
  {
    "id": "2659",
    "name": "Maidens Brewery",
    "brewery_type": "brewpub",
    "street": "209 North Wabash Avenue of Flags",
    "city": "Evansville",
    "state": "Indiana",
    "postal_code": "47712",
    "website_url": "http://www.maidensbrewery.com",
    "phone": "8124312836",
    "created_at": "2018-07-24 01:33:22.38334",
    "updated_at": "2018-08-11 21:37:20.060598",
    "country": "United States",
    "longitude": "",
    "latitude": ""
  },
  {
    "id": "2576",
    "name": "Basket Case Brewing Co",
    "brewery_type": "brewpub",
    "street": "1340 Mill St",
    "city": "Jasper",
    "state": "Indiana",
    "postal_code": "47546-2310",
    "website_url": "http://www.basketcasebeer.com",
    "phone": "8124824345",
    "created_at": "2018-07-24 01:33:21.345205",
    "updated_at": "2018-08-24 00:32:30.730628",
    "country": "United States",
    "longitude": "-86.928500633934",
    "latitude": "38.3973635464852"
  },
  {
    "id": "2596",
    "name": "Brokerage Brewing Company",
    "brewery_type": "micro",
    "street": "2516 Covington St",
    "city": "West Lafayette",
    "state": "Indiana",
    "postal_code": "47906-1404",
    "website_url": "http://www.brokeragebrewing.com",
    "phone": "7652332767",
    "created_at": "2018-07-24 01:33:21.589716",
    "updated_at": "2018-08-24 00:32:38.807419",
    "country": "United States",
    "longitude": "-86.914146891917",
    "latitude": "40.453611242644"
  },
  {
    "id": "2628",
    "name": "Floyd County Brewing Company",
    "brewery_type": "brewpub",
    "street": "129 W Main St",
    "city": "New Albany",
    "state": "Indiana",
    "postal_code": "47150-5958",
    "website_url": "http://www.floydcountybrewing.com",
    "phone": "4705882337",
    "created_at": "2018-07-24 01:33:21.982914",
    "updated_at": "2018-08-24 00:32:51.011269",
    "country": "United States",
    "longitude": "-85.8242975365546",
    "latitude": "38.2828988498451"
  },
  {
    "id": "2639",
    "name": "Granite City Food & Brewery (#26)",
    "brewery_type": "brewpub",
    "street": "6501 Grape Rd Ste 1000",
    "city": "Mishawaka",
    "state": "Indiana",
    "postal_code": "46545-1010",
    "website_url": "http://www.gcfb.net",
    "phone": "5742430900",
    "created_at": "2018-07-24 01:33:22.126492",
    "updated_at": "2018-08-24 00:32:56.609052",
    "country": "United States",
    "longitude": "-86.1923429",
    "latitude": "41.7177604"
  },
  {
    "id": "2679",
    "name": "Point Blank Brewing Company",
    "brewery_type": "brewpub",
    "street": "105 E Beaver St",
    "city": "Corydon",
    "state": "Indiana",
    "postal_code": "47112-1146",
    "website_url": "http://www.pointblankbrewing.com",
    "phone": "8122255141",
    "created_at": "2018-07-24 01:33:22.63099",
    "updated_at": "2018-08-24 00:33:14.333932",
    "country": "United States",
    "longitude": "-86.1261640764361",
    "latitude": "38.2111144813465"
  },
  {
    "id": "2702",
    "name": "Switchyard Brewing Company",
    "brewery_type": "micro",
    "street": "419 N Walnut St",
    "city": "Bloomington",
    "state": "Indiana",
    "postal_code": "47404-3842",
    "website_url": "http://www.switchyardbrewing.com",
    "phone": "8122878295",
    "created_at": "2018-07-24 01:33:22.915031",
    "updated_at": "2018-08-24 00:33:26.220434",
    "country": "United States",
    "longitude": "-86.5343606",
    "latitude": "39.1865667"
  },
  {
    "id": "2729",
    "name": "Windmill Brewing",
    "brewery_type": "micro",
    "street": "2121 Gettler St",
    "city": "Dyer",
    "state": "Indiana",
    "postal_code": "46311-1859",
    "website_url": "http://www.windmillbrew.com",
    "phone": "2194402189",
    "created_at": "2018-07-24 01:33:23.259506",
    "updated_at": "2018-08-24 00:33:40.707285",
    "country": "United States",
    "longitude": "-87.5226248920887",
    "latitude": "41.49333495"
  },
  {
    "id": "2730",
    "name": "Wooden Bear Brewing Co",
    "brewery_type": "micro",
    "street": "21 W North St",
    "city": "Greenfield",
    "state": "Indiana",
    "postal_code": "46140-2171",
    "website_url": "http://www.woodenbearbrewing.com",
    "phone": "3173181221",
    "created_at": "2018-07-24 01:33:23.271411",
    "updated_at": "2018-08-24 00:33:41.229306",
    "country": "United States",
    "longitude": "-85.771223028949",
    "latitude": "39.7859772600274"
  },
  {
    "id": "2564",
    "name": "18th Street Brewery",
    "brewery_type": "micro",
    "street": "5725 Miller Ave",
    "city": "Gary",
    "state": "Indiana",
    "postal_code": "46403-2871",
    "website_url": "http://www.18thstreetbrewery.com",
    "phone": "",
    "created_at": "2018-07-24 01:33:21.193756",
    "updated_at": "2018-08-24 00:32:25.536345",
    "country": "United States",
    "longitude": "-87.2688778553589",
    "latitude": "41.5992834347567"
  },
  {
    "id": "2568",
    "name": "95ate5 Brewpub",
    "brewery_type": "brewpub",
    "street": "9585 N Industrial Dr",
    "city": "Saint John",
    "state": "Indiana",
    "postal_code": "46373",
    "website_url": "http://www.95ate5.com",
    "phone": "2193656506",
    "created_at": "2018-07-24 01:33:21.246175",
    "updated_at": "2018-08-24 00:32:26.66408",
    "country": "United States",
    "longitude": "-87.4638030517554",
    "latitude": "41.4440024584439"
  },
  {
    "id": "2599",
    "name": "Burn'Em Brewing",
    "brewery_type": "brewpub",
    "street": "718 Freyer Rd",
    "city": "Michigan City",
    "state": "Indiana",
    "postal_code": "46360-1911",
    "website_url": "http://www.burnembrewing.com",
    "phone": "2193938606",
    "created_at": "2018-07-24 01:33:21.625741",
    "updated_at": "2018-08-24 00:32:40.359916",
    "country": "United States",
    "longitude": "-86.8297919071235",
    "latitude": "41.7384971691983"
  },
  {
    "id": "2616",
    "name": "Danny Boy Beer Works",
    "brewery_type": "brewpub",
    "street": "12702 Meeting House Rd",
    "city": "Carmel",
    "state": "Indiana",
    "postal_code": "46032-7292",
    "website_url": "http://www.dannyboybeerworks.com",
    "phone": "3176698080",
    "created_at": "2018-07-24 01:33:21.831255",
    "updated_at": "2018-08-24 00:32:45.430083",
    "country": "United States",
    "longitude": "-86.1971767",
    "latitude": "39.971556"
  },
  {
    "id": "2618",
    "name": "Deer Creek Brewery",
    "brewery_type": "micro",
    "street": "17661 Cumberland Rd",
    "city": "Noblesville",
    "state": "Indiana",
    "postal_code": "46060-",
    "website_url": "http://www.deercreekbrewery.com",
    "phone": "3176748266",
    "created_at": "2018-07-24 01:33:21.855333",
    "updated_at": "2018-08-24 00:32:46.570815",
    "country": "United States",
    "longitude": "-85.9962796",
    "latitude": "40.0443978"
  },
  {
    "id": "2650",
    "name": "Iechyd Da Brewing",
    "brewery_type": "brewpub",
    "street": "317 N Main St",
    "city": "Elkhart",
    "state": "Indiana",
    "postal_code": "46516-3034",
    "website_url": "http://www.iechyddabrewingcompany.com",
    "phone": "5742930506",
    "created_at": "2018-07-24 01:33:22.264397",
    "updated_at": "2018-08-24 00:33:00.890925",
    "country": "United States",
    "longitude": "-85.9753133158581",
    "latitude": "41.69004065"
  },
  {
    "id": "2662",
    "name": "Metazoa Brewing Co.",
    "brewery_type": "micro",
    "street": "140 S College Ave",
    "city": "Indianapolis",
    "state": "Indiana",
    "postal_code": "46202-4004",
    "website_url": "http://www.metazoa.beer",
    "phone": "3175082274",
    "created_at": "2018-07-24 01:33:22.42209",
    "updated_at": "2018-08-24 00:33:06.897602",
    "country": "United States",
    "longitude": "-86.1458502485116",
    "latitude": "39.7645504924982"
  },
  {
    "id": "2666",
    "name": "New Albanian Bank Street Brewhouse",
    "brewery_type": "brewpub",
    "street": "415 Bank St",
    "city": "New Albany",
    "state": "Indiana",
    "postal_code": "47150-3407",
    "website_url": "http://www.newalbanian.com",
    "phone": "8127259585",
    "created_at": "2018-07-24 01:33:22.471346",
    "updated_at": "2018-08-24 00:33:08.442191",
    "country": "United States",
    "longitude": "-85.822208424036",
    "latitude": "38.2865673227507"
  },
  {
    "id": "2684",
    "name": "RAM Restaurant and Brewery - Indianapolis",
    "brewery_type": "brewpub",
    "street": "140 S Illinois St",
    "city": "Indianapolis",
    "state": "Indiana",
    "postal_code": "46204",
    "website_url": "http://www.theram.com",
    "phone": "3179559900",
    "created_at": "2018-07-24 01:33:22.692664",
    "updated_at": "2018-08-24 00:33:17.348374",
    "country": "United States",
    "longitude": "-86.1605094727252",
    "latitude": "39.76475755"
  },
  {
    "id": "2692",
    "name": "Shoreline Brewery",
    "brewery_type": "brewpub",
    "street": "208 Wabash St",
    "city": "Michigan City",
    "state": "Indiana",
    "postal_code": "46360-3244",
    "website_url": "http://www.shorelinebrewery.com",
    "phone": "2198794677",
    "created_at": "2018-07-24 01:33:22.793861",
    "updated_at": "2018-08-24 00:33:21.449196",
    "country": "United States",
    "longitude": "-86.9062196842105",
    "latitude": "41.7193131052632"
  },
  {
    "id": "2708",
    "name": "The Red Yeti",
    "brewery_type": "brewpub",
    "street": "256 Spring St",
    "city": "Jeffersonville",
    "state": "Indiana",
    "postal_code": "47130-3340",
    "website_url": "http://www.redyetijeff.com",
    "phone": "8122885788",
    "created_at": "2018-07-24 01:33:22.988612",
    "updated_at": "2018-08-24 00:33:29.74378",
    "country": "United States",
    "longitude": "-85.7401585",
    "latitude": "38.2718249"
  },
  {
    "id": "2722",
    "name": "Upland Brewing Co - Bloomington Brewpub",
    "brewery_type": "regional",
    "street": "350 W 11th St",
    "city": "Bloomington",
    "state": "Indiana",
    "postal_code": "47404-3720",
    "website_url": "http://www.uplandbeer.com",
    "phone": "8123362337",
    "created_at": "2018-07-24 01:33:23.175347",
    "updated_at": "2018-08-24 00:33:37.761726",
    "country": "United States",
    "longitude": "-86.5374792673344",
    "latitude": "39.173423"
  },
  {
    "id": "2725",
    "name": "Wasser Brewing Company",
    "brewery_type": "brewpub",
    "street": "102 E Franklin St",
    "city": "Greencastle",
    "state": "Indiana",
    "postal_code": "46135-1220",
    "website_url": "http://www.wasserbrewing.com",
    "phone": "7653019363",
    "created_at": "2018-07-24 01:33:23.21051",
    "updated_at": "2018-08-24 00:33:39.585081",
    "country": "United States",
    "longitude": "-86.8633102289789",
    "latitude": "39.6446717121844"
  },
  {
    "id": "2578",
    "name": "Big Leaf Brewing",
    "brewery_type": "micro",
    "street": "1320 Durkees Ferry Rd",
    "city": "West Terre Haute",
    "state": "Indiana",
    "postal_code": "47885-9626",
    "website_url": "",
    "phone": "8122812187",
    "created_at": "2018-07-24 01:33:21.37049",
    "updated_at": "2018-08-11 21:37:17.678485",
    "country": "United States",
    "longitude": "",
    "latitude": ""
  },
  {
    "id": "2680",
    "name": "Pokro Brewing Company, The",
    "brewery_type": "micro",
    "street": "311 N Broad St",
    "city": "Griffith",
    "state": "Indiana",
    "postal_code": "46319-2222",
    "website_url": "http://www.pokrobrewing.com",
    "phone": "2199247950",
    "created_at": "2018-07-24 01:33:22.643436",
    "updated_at": "2018-08-24 00:33:14.975229",
    "country": "United States",
    "longitude": "-87.4275573320627",
    "latitude": "41.5266943049435"
  },
  {
    "id": "2731",
    "name": "Zorn Brew Works",
    "brewery_type": "micro",
    "street": "605 E 9th St",
    "city": "Michigan City",
    "state": "Indiana",
    "postal_code": "46360-3651",
    "website_url": "http://www.zornbrewworks.com",
    "phone": "2193316322",
    "created_at": "2018-07-24 01:33:23.284022",
    "updated_at": "2018-08-24 00:33:41.836535",
    "country": "United States",
    "longitude": "-86.8921678567784",
    "latitude": "41.714577"
  },
  {
    "id": "2563",
    "name": "10-56 Brewing Company",
    "brewery_type": "micro",
    "street": "400 Brown Cir",
    "city": "Knox",
    "state": "Indiana",
    "postal_code": "46534",
    "website_url": "",
    "phone": "6308165790",
    "created_at": "2018-07-24 01:33:21.181405",
    "updated_at": "2018-08-24 00:32:24.965914",
    "country": "United States",
    "longitude": "-86.627954",
    "latitude": "41.289715"
  },
  {
    "id": "2567",
    "name": "450 North Brewing Company @ Simmons Winery",
    "brewery_type": "brewpub",
    "street": "8111 E 450 N",
    "city": "Columbus",
    "state": "Indiana",
    "postal_code": "47203-8106",
    "website_url": "http://www.450northbrewing.com",
    "phone": "8125460091",
    "created_at": "2018-07-24 01:33:21.233798",
    "updated_at": "2018-08-11 21:37:17.328664",
    "country": "United States",
    "longitude": "",
    "latitude": ""
  },
  {
    "id": "2569",
    "name": "Auburn Brewing Company",
    "brewery_type": "planning",
    "street": "",
    "city": "Auburn ",
    "state": "Indiana",
    "postal_code": "46706",
    "website_url": "",
    "phone": "2609081074",
    "created_at": "2018-07-24 01:33:21.258501",
    "updated_at": "2018-08-11 21:37:17.381698",
    "country": "United States",
    "longitude": "",
    "latitude": ""
  },
  {
    "id": "2573",
    "name": "Bad Dad Brewery",
    "brewery_type": "micro",
    "street": "407 W. Washington St. Ste. C",
    "city": "Fairmount",
    "state": "Indiana",
    "postal_code": "46928",
    "website_url": "http://www.baddadbrewery.com",
    "phone": "7654990941",
    "created_at": "2018-07-24 01:33:21.307776",
    "updated_at": "2018-08-11 21:37:17.537502",
    "country": "United States",
    "longitude": "",
    "latitude": ""
  },
  {
    "id": "2574",
    "name": "Bare Hands Brewery",
    "brewery_type": "micro",
    "street": "12804 Sandy Ct",
    "city": "Granger",
    "state": "Indiana",
    "postal_code": "46530-4309",
    "website_url": "http://www.barehandsbrewbrewery.com",
    "phone": "5742772258",
    "created_at": "2018-07-24 01:33:21.320461",
    "updated_at": "2018-08-11 21:37:17.565345",
    "country": "United States",
    "longitude": "",
    "latitude": ""
  },
  {
    "id": "2575",
    "name": "Barley Island Brewing Co",
    "brewery_type": "brewpub",
    "street": "639 E Conner St",
    "city": "Noblesville",
    "state": "Indiana",
    "postal_code": "46060-2532",
    "website_url": "http://www.barleyisland.com",
    "phone": "3177705280",
    "created_at": "2018-07-24 01:33:21.333123",
    "updated_at": "2018-08-11 21:37:17.592968",
    "country": "United States",
    "longitude": "",
    "latitude": ""
  },
  {
    "id": "2584",
    "name": "Blind Owl Brewery",
    "brewery_type": "brewpub",
    "street": "5014 E 62nd St",
    "city": "Indianapolis",
    "state": "Indiana",
    "postal_code": "46220-5228",
    "website_url": "http://www.blindowlbrewery.com",
    "phone": "3179241000",
    "created_at": "2018-07-24 01:33:21.442829",
    "updated_at": "2018-08-11 21:37:17.855152",
    "country": "United States",
    "longitude": "",
    "latitude": ""
  },
  {
    "id": "2586",
    "name": "Bloomington Brewing Co - Production Facility",
    "brewery_type": "micro",
    "street": "2234 West Industrial Drive",
    "city": "Bloomington",
    "state": "Indiana",
    "postal_code": "47404",
    "website_url": "http://www.bbcbloomington.com",
    "phone": "8126992005",
    "created_at": "2018-07-24 01:33:21.466759",
    "updated_at": "2018-08-11 21:37:17.906925",
    "country": "United States",
    "longitude": "",
    "latitude": ""
  },
  {
    "id": "2587",
    "name": "Books & Brews",
    "brewery_type": "brewpub",
    "street": "9402 Uptown Dr Ste 1400",
    "city": "Indianapolis",
    "state": "Indiana",
    "postal_code": "46256-1076",
    "website_url": "http://www.booksnbrews.com",
    "phone": "3172885136",
    "created_at": "2018-07-24 01:33:21.479289",
    "updated_at": "2018-08-11 21:37:17.937773",
    "country": "United States",
    "longitude": "",
    "latitude": ""
  },
  {
    "id": "2588",
    "name": "Brew Link Brewing",
    "brewery_type": "proprietor",
    "street": "212 E. Main",
    "city": "Plainfield",
    "state": "Indiana",
    "postal_code": "46168-9659",
    "website_url": "http://www.brewlinkbrewing.com",
    "phone": "3172037788",
    "created_at": "2018-07-24 01:33:21.491182",
    "updated_at": "2018-08-11 21:37:17.967009",
    "country": "United States",
    "longitude": "",
    "latitude": ""
  },
  {
    "id": "2589",
    "name": "Brewery In Planning - Carmel IN",
    "brewery_type": "planning",
    "street": "",
    "city": "Carmel",
    "state": "Indiana",
    "postal_code": "46033-9732",
    "website_url": "",
    "phone": "",
    "created_at": "2018-07-24 01:33:21.503276",
    "updated_at": "2018-08-11 21:37:17.995986",
    "country": "United States",
    "longitude": "",
    "latitude": ""
  },
  {
    "id": "2590",
    "name": "Brewery in Planning - Elkhart, IN",
    "brewery_type": "planning",
    "street": "",
    "city": "Elkhart",
    "state": "Indiana",
    "postal_code": "46516",
    "website_url": "http://sty.stedman@hotmail.com",
    "phone": "9705979865",
    "created_at": "2018-07-24 01:33:21.515907",
    "updated_at": "2018-08-11 21:37:18.027337",
    "country": "United States",
    "longitude": "",
    "latitude": ""
  },
  {
    "id": "2591",
    "name": "Brewery in Planning - Fort Wayne, IN",
    "brewery_type": "planning",
    "street": "",
    "city": "Fort Wayne",
    "state": "Indiana",
    "postal_code": "46808",
    "website_url": "http://www.dotandlinebrewing.com",
    "phone": "2604822720",
    "created_at": "2018-07-24 01:33:21.527986",
    "updated_at": "2018-08-11 21:37:18.057294",
    "country": "United States",
    "longitude": "",
    "latitude": ""
  },
  {
    "id": "2592",
    "name": "Brewery in Planning - Franklin",
    "brewery_type": "planning",
    "street": "",
    "city": "Franklin",
    "state": "Indiana",
    "postal_code": "46131-7078",
    "website_url": "",
    "phone": "",
    "created_at": "2018-07-24 01:33:21.540301",
    "updated_at": "2018-08-11 21:37:18.086419",
    "country": "United States",
    "longitude": "",
    "latitude": ""
  },
  {
    "id": "2593",
    "name": "Brewery In Planning - Indianapolis",
    "brewery_type": "planning",
    "street": "",
    "city": "Indianapolis",
    "state": "Indiana",
    "postal_code": "46236",
    "website_url": "",
    "phone": "3178230521",
    "created_at": "2018-07-24 01:33:21.551933",
    "updated_at": "2018-08-11 21:37:18.115842",
    "country": "United States",
    "longitude": "",
    "latitude": ""
  },
  {
    "id": "2594",
    "name": "Brewery in Planning - Noblesville",
    "brewery_type": "planning",
    "street": "",
    "city": "Noblesville",
    "state": "Indiana",
    "postal_code": "46062-6491",
    "website_url": "",
    "phone": "",
    "created_at": "2018-07-24 01:33:21.564468",
    "updated_at": "2018-08-11 21:37:18.142951",
    "country": "United States",
    "longitude": "",
    "latitude": ""
  },
  {
    "id": "2595",
    "name": "Broad Ripple Brewing Co",
    "brewery_type": "brewpub",
    "street": "842 E 65th St",
    "city": "Indianapolis",
    "state": "Indiana",
    "postal_code": "46220-1674",
    "website_url": "",
    "phone": "3172532739",
    "created_at": "2018-07-24 01:33:21.576523",
    "updated_at": "2018-08-11 21:37:18.170799",
    "country": "United States",
    "longitude": "",
    "latitude": ""
  },
  {
    "id": "2597",
    "name": "Brugge Brasserie",
    "brewery_type": "brewpub",
    "street": "1011A E Westfield Blvd",
    "city": "Indianapolis",
    "state": "Indiana",
    "postal_code": "46220-",
    "website_url": "http://www.bruggebrasserie.com",
    "phone": "3172550978",
    "created_at": "2018-07-24 01:33:21.601564",
    "updated_at": "2018-08-11 21:37:18.2259",
    "country": "United States",
    "longitude": "",
    "latitude": ""
  },
  {
    "id": "2600",
    "name": "Byway Brewing Company",
    "brewery_type": "brewpub",
    "street": "2825 Carlson Dr",
    "city": "Hammond",
    "state": "Indiana",
    "postal_code": "46323-1183",
    "website_url": "http://www.bywaybrewing.beer",
    "phone": "2198445458",
    "created_at": "2018-07-24 01:33:21.638197",
    "updated_at": "2018-08-11 21:37:18.308304",
    "country": "United States",
    "longitude": "",
    "latitude": ""
  },
  {
    "id": "2602",
    "name": "Carbon Brewing Company",
    "brewery_type": "planning",
    "street": "",
    "city": "Brazil",
    "state": "Indiana",
    "postal_code": "47834-7046",
    "website_url": "http://www.carbonbrewing.com",
    "phone": "",
    "created_at": "2018-07-24 01:33:21.663897",
    "updated_at": "2018-08-11 21:37:18.370171",
    "country": "United States",
    "longitude": "",
    "latitude": ""
  },
  {
    "id": "2603",
    "name": "Carson's Brewery",
    "brewery_type": "micro",
    "street": "2404 Lynch Rd",
    "city": "Evansville",
    "state": "Indiana",
    "postal_code": "47711-2953",
    "website_url": "http://www.carsonsbrewery.com",
    "phone": "8127598229",
    "created_at": "2018-07-24 01:33:21.675705",
    "updated_at": "2018-08-11 21:37:18.402156",
    "country": "United States",
    "longitude": "",
    "latitude": ""
  },
  {
    "id": "2604",
    "name": "Cedar Creek Brewing Co.",
    "brewery_type": "micro",
    "street": "3820 Leonard Rd",
    "city": "Martinsville",
    "state": "Indiana",
    "postal_code": "46151-5600",
    "website_url": "http://www.drinkatthecreek.com",
    "phone": "7653429000",
    "created_at": "2018-07-24 01:33:21.687648",
    "updated_at": "2018-08-11 21:37:18.42965",
    "country": "United States",
    "longitude": "",
    "latitude": ""
  },
  {
    "id": "2607",
    "name": "Chapman's Brewing Company",
    "brewery_type": "planning",
    "street": "",
    "city": "Wabash",
    "state": "Indiana",
    "postal_code": "46992-3131",
    "website_url": "http://www.chapmansbrewing.com",
    "phone": "",
    "created_at": "2018-07-24 01:33:21.723264",
    "updated_at": "2018-08-11 21:37:18.519047",
    "country": "United States",
    "longitude": "",
    "latitude": ""
  },
  {
    "id": "2609",
    "name": "Chilly Water Brewing Company",
    "brewery_type": "brewpub",
    "street": "719 Virginia Ave Ste 105",
    "city": "Indianapolis",
    "state": "Indiana",
    "postal_code": "46203-1976",
    "website_url": "http://www.chillywaterbrewing.com",
    "phone": "3179640518",
    "created_at": "2018-07-24 01:33:21.747073",
    "updated_at": "2018-08-11 21:37:18.571863",
    "country": "United States",
    "longitude": "",
    "latitude": ""
  },
  {
    "id": "2610",
    "name": "Civilian Brewing Corps",
    "brewery_type": "planning",
    "street": "",
    "city": "Bloomington",
    "state": "Indiana",
    "postal_code": "47403-9658",
    "website_url": "",
    "phone": "",
    "created_at": "2018-07-24 01:33:21.758546",
    "updated_at": "2018-08-11 21:37:18.598344",
    "country": "United States",
    "longitude": "",
    "latitude": ""
  },
  {
    "id": "2611",
    "name": "Crasian Brewing Co",
    "brewery_type": "micro",
    "street": "207 S Railroad St Ste B",
    "city": "Brookston",
    "state": "Indiana",
    "postal_code": "47923-8137",
    "website_url": "http://www.crasianbrewing.com",
    "phone": "7655638339",
    "created_at": "2018-07-24 01:33:21.770646",
    "updated_at": "2018-08-11 21:37:18.625897",
    "country": "United States",
    "longitude": "",
    "latitude": ""
  },
  {
    "id": "2565",
    "name": "18th Street Brewery",
    "brewery_type": "micro",
    "street": "5417 Oakley Ave",
    "city": "Hammond",
    "state": "Indiana",
    "postal_code": "46320-1817",
    "website_url": "",
    "phone": "",
    "created_at": "2018-07-24 01:33:21.206464",
    "updated_at": "2018-08-24 00:32:26.04772",
    "country": "United States",
    "longitude": "-87.517422",
    "latitude": "41.6155679591837"
  },
  {
    "id": "2570",
    "name": "Back Alley Brewing Co",
    "brewery_type": "micro",
    "street": "211 S Main St",
    "city": "Goshen",
    "state": "Indiana",
    "postal_code": "46526-3722",
    "website_url": "",
    "phone": "5743704049",
    "created_at": "2018-07-24 01:33:21.270579",
    "updated_at": "2018-08-24 00:32:27.21677",
    "country": "United States",
    "longitude": "-85.8345786228952",
    "latitude": "41.5846197132255"
  },
  {
    "id": "2571",
    "name": "Back Road Brewery",
    "brewery_type": "micro",
    "street": "308 Perry St",
    "city": "La Porte",
    "state": "Indiana",
    "postal_code": "46350-3216",
    "website_url": "http://www.backroadbrewery.com",
    "phone": "2193627623",
    "created_at": "2018-07-24 01:33:21.28274",
    "updated_at": "2018-08-24 00:32:27.818292",
    "country": "United States",
    "longitude": "-86.7264913749377",
    "latitude": "41.6118881995748"
  },
  {
    "id": "2572",
    "name": "Backstep Brewing Company",
    "brewery_type": "micro",
    "street": "125 N Green St",
    "city": "Crawfordsville",
    "state": "Indiana",
    "postal_code": "47933-1708",
    "website_url": "http://www.backstepbrewingcompany.com",
    "phone": "7652302337",
    "created_at": "2018-07-24 01:33:21.295919",
    "updated_at": "2018-08-24 00:32:28.50907",
    "country": "United States",
    "longitude": "-86.8999860658783",
    "latitude": "40.0420771233299"
  },
  {
    "id": "2579",
    "name": "Big Lug Canteen",
    "brewery_type": "brewpub",
    "street": "1435 E 86th St",
    "city": "Indianapolis",
    "state": "Indiana",
    "postal_code": "46240-1911",
    "website_url": "",
    "phone": "",
    "created_at": "2018-07-24 01:33:21.382331",
    "updated_at": "2018-08-24 00:32:32.613285",
    "country": "United States",
    "longitude": "-86.079957",
    "latitude": "39.912628"
  },
  {
    "id": "2580",
    "name": "Birdboy Brewing Co",
    "brewery_type": "micro",
    "street": "210 E Collins Rd",
    "city": "Fort Wayne",
    "state": "Indiana",
    "postal_code": "46825-5304",
    "website_url": "http://www.birdboybrewing.com",
    "phone": "2605795508",
    "created_at": "2018-07-24 01:33:21.394898",
    "updated_at": "2018-08-24 00:32:33.183225",
    "country": "United States",
    "longitude": "-85.1390014183181",
    "latitude": "41.1218779162426"
  },
  {
    "id": "2581",
    "name": "Black Acre Brewing Co",
    "brewery_type": "brewpub",
    "street": "5632 E Washington St",
    "city": "Indianapolis",
    "state": "Indiana",
    "postal_code": "46219-6428",
    "website_url": "http://www.blackacrebrewing.com",
    "phone": "3177973316",
    "created_at": "2018-07-24 01:33:21.407155",
    "updated_at": "2018-08-24 00:32:34.043997",
    "country": "United States",
    "longitude": "-86.1452662",
    "latitude": "39.7668669"
  },
  {
    "id": "2582",
    "name": "Black Circle Brewing Co",
    "brewery_type": "micro",
    "street": "2201 E 46th St",
    "city": "Indianapolis",
    "state": "Indiana",
    "postal_code": "46205",
    "website_url": "http://www.blackcirclebrewing.com",
    "phone": "3174260143",
    "created_at": "2018-07-24 01:33:21.418706",
    "updated_at": "2018-08-24 00:32:34.601077",
    "country": "United States",
    "longitude": "-86.123944",
    "latitude": "39.8398813"
  },
  {
    "id": "2583",
    "name": "Black Swan Brewpub",
    "brewery_type": "brewpub",
    "street": "2067 E Hadley Rd",
    "city": "Plainfield",
    "state": "Indiana",
    "postal_code": "46168-7484",
    "website_url": "http://www.blackswanbrewpub.com",
    "phone": "3178387444",
    "created_at": "2018-07-24 01:33:21.430119",
    "updated_at": "2018-08-24 00:32:35.091677",
    "country": "United States",
    "longitude": "-86.374141",
    "latitude": "39.674729"
  },
  {
    "id": "2585",
    "name": "Bloomington Brewing Co",
    "brewery_type": "brewpub",
    "street": "1795 E 10th St",
    "city": "Bloomington",
    "state": "Indiana",
    "postal_code": "47407-6955",
    "website_url": "",
    "phone": "8123392256",
    "created_at": "2018-07-24 01:33:21.454417",
    "updated_at": "2018-08-24 00:32:36.100798",
    "country": "United States",
    "longitude": "-86.511366725",
    "latitude": "39.1720504"
  },
  {
    "id": "2598",
    "name": "Bulldog Brewing",
    "brewery_type": "brewpub",
    "street": "1409 119th St",
    "city": "Whiting",
    "state": "Indiana",
    "postal_code": "46394-1714",
    "website_url": "http://www.bulldogbrewingco.com",
    "phone": "2196555284",
    "created_at": "2018-07-24 01:33:21.613796",
    "updated_at": "2018-08-24 00:32:39.781341",
    "country": "United States",
    "longitude": "-87.4951351",
    "latitude": "41.679491"
  },
  {
    "id": "2601",
    "name": "Cannon Ball Brewing Company",
    "brewery_type": "brewpub",
    "street": "1702 Bellefontaine St",
    "city": "Indianapolis",
    "state": "Indiana",
    "postal_code": "46202-1813",
    "website_url": "http://www.cannonballbrewingindy.com",
    "phone": "3174265978",
    "created_at": "2018-07-24 01:33:21.65114",
    "updated_at": "2018-08-24 00:32:40.880681",
    "country": "United States",
    "longitude": "-86.142456030303",
    "latitude": "39.790467979798"
  },
  {
    "id": "2605",
    "name": "Centerpoint Brewing",
    "brewery_type": "micro",
    "street": "1125 E Brookside Ave",
    "city": "Indianapolis",
    "state": "Indiana",
    "postal_code": "46202-3587",
    "website_url": "http://www.centerpointbrewing.com",
    "phone": "3176028386",
    "created_at": "2018-07-24 01:33:21.699264",
    "updated_at": "2018-08-24 00:32:41.848794",
    "country": "United States",
    "longitude": "-86.1374046530612",
    "latitude": "39.7812903061225"
  },
  {
    "id": "2606",
    "name": "Central State Brewing",
    "brewery_type": "micro",
    "street": "4001 E 26th St",
    "city": "Indianapolis",
    "state": "Indiana",
    "postal_code": "46218",
    "website_url": "http://centralstatebrewing.com",
    "phone": "3174079855",
    "created_at": "2018-07-24 01:33:21.711386",
    "updated_at": "2018-08-24 00:32:42.401908",
    "country": "United States",
    "longitude": "-86.099105",
    "latitude": "39.805091"
  },
  {
    "id": "2608",
    "name": "Chapman's Brewing Company",
    "brewery_type": "brewpub",
    "street": "300 Industrial Dr",
    "city": "Angola",
    "state": "Indiana",
    "postal_code": "46703-1053",
    "website_url": "http://www.chapmansbrewing.com",
    "phone": "2603195495",
    "created_at": "2018-07-24 01:33:21.735207",
    "updated_at": "2018-08-24 00:32:42.926823",
    "country": "United States",
    "longitude": "-85.0016478242249",
    "latitude": "41.6483625562721"
  },
  {
    "id": "2612",
    "name": "Creatures Of Habit Brewing Co",
    "brewery_type": "planning",
    "street": "",
    "city": "Anderson",
    "state": "Indiana",
    "postal_code": "46016-1749",
    "website_url": "http://facebook.com/CreaturesBrew/",
    "phone": "7654000116",
    "created_at": "2018-07-24 01:33:21.782804",
    "updated_at": "2018-08-11 21:37:18.65323",
    "country": "United States",
    "longitude": "",
    "latitude": ""
  },
  {
    "id": "2613",
    "name": "Creek Bottom Brew LLC",
    "brewery_type": "planning",
    "street": "",
    "city": "Oldenburg",
    "state": "Indiana",
    "postal_code": "47036-9765",
    "website_url": "http://www.creekbottombrew.com",
    "phone": "8122124817",
    "created_at": "2018-07-24 01:33:21.795258",
    "updated_at": "2018-08-11 21:37:18.680351",
    "country": "United States",
    "longitude": "",
    "latitude": ""
  },
  {
    "id": "2615",
    "name": "Crown Brewing Co",
    "brewery_type": "brewpub",
    "street": "211 S East St",
    "city": "Crown Point",
    "state": "Indiana",
    "postal_code": "46307-4058",
    "website_url": "http://www.crownbrewing.com",
    "phone": "2196634545",
    "created_at": "2018-07-24 01:33:21.819405",
    "updated_at": "2018-08-11 21:37:18.746345",
    "country": "United States",
    "longitude": "",
    "latitude": ""
  },
  {
    "id": "2619",
    "name": "Deviate Brewing Co",
    "brewery_type": "micro",
    "street": "4004 W 96th St",
    "city": "Indianapolis",
    "state": "Indiana",
    "postal_code": "46268-2909",
    "website_url": "http://www.deviatebrewing.com",
    "phone": "",
    "created_at": "2018-07-24 01:33:21.867049",
    "updated_at": "2018-08-11 21:37:18.855791",
    "country": "United States",
    "longitude": "",
    "latitude": ""
  },
  {
    "id": "2620",
    "name": "Devil's Trumpet Brewing Co",
    "brewery_type": "micro",
    "street": "8250 Utah St",
    "city": "Merrillville",
    "state": "Indiana",
    "postal_code": "46410-6578",
    "website_url": "http://www.thedevilstrumpet.com",
    "phone": "2195767118",
    "created_at": "2018-07-24 01:33:21.886622",
    "updated_at": "2018-08-11 21:37:18.895699",
    "country": "United States",
    "longitude": "",
    "latitude": ""
  },
  {
    "id": "2621",
    "name": "Donum Dei Brewery",
    "brewery_type": "brewpub",
    "street": "3211 Grant Line Rd Ste 3",
    "city": "New Albany",
    "state": "Indiana",
    "postal_code": "47150-2175",
    "website_url": "",
    "phone": "5025412950",
    "created_at": "2018-07-24 01:33:21.899214",
    "updated_at": "2018-08-11 21:37:18.932009",
    "country": "United States",
    "longitude": "",
    "latitude": ""
  },
  {
    "id": "2623",
    "name": "Feed Store Beer Co",
    "brewery_type": "planning",
    "street": "",
    "city": "Bloomfield",
    "state": "Indiana",
    "postal_code": "47424-1137",
    "website_url": "http://www.feedstorebeer.com",
    "phone": "8123814343",
    "created_at": "2018-07-24 01:33:21.922561",
    "updated_at": "2018-08-11 21:37:18.996837",
    "country": "United States",
    "longitude": "",
    "latitude": ""
  },
  {
    "id": "2624",
    "name": "Field Brewing",
    "brewery_type": "planning",
    "street": "",
    "city": "Westfield",
    "state": "Indiana",
    "postal_code": "46074-9494",
    "website_url": "http://www.fieldbrewing.com",
    "phone": "3174300253",
    "created_at": "2018-07-24 01:33:21.934456",
    "updated_at": "2018-08-11 21:37:19.026984",
    "country": "United States",
    "longitude": "",
    "latitude": ""
  },
  {
    "id": "2625",
    "name": "Figure Eight Brewing Co",
    "brewery_type": "brewpub",
    "street": "150 Washington St",
    "city": "Valparaiso",
    "state": "Indiana",
    "postal_code": "46383-5507",
    "website_url": "http://www.figureeightbrewing.com",
    "phone": "2194772000",
    "created_at": "2018-07-24 01:33:21.946301",
    "updated_at": "2018-08-11 21:37:19.054683",
    "country": "United States",
    "longitude": "",
    "latitude": ""
  },
  {
    "id": "2633",
    "name": "George Ringler & Company",
    "brewery_type": "planning",
    "street": "",
    "city": "Danville",
    "state": "Indiana",
    "postal_code": "46122-1623",
    "website_url": "",
    "phone": "3176268353",
    "created_at": "2018-07-24 01:33:22.049281",
    "updated_at": "2018-08-11 21:37:19.311269",
    "country": "United States",
    "longitude": "",
    "latitude": ""
  },
  {
    "id": "2634",
    "name": "GnomeTown Brewing Co",
    "brewery_type": "brewpub",
    "street": "203 E Berry St Ste 104",
    "city": "Fort Wayne",
    "state": "Indiana",
    "postal_code": "46802",
    "website_url": "http://www.gnometownbrewing.com",
    "phone": "2604220070",
    "created_at": "2018-07-24 01:33:22.062005",
    "updated_at": "2018-08-11 21:37:19.337111",
    "country": "United States",
    "longitude": "",
    "latitude": ""
  },
  {
    "id": "2637",
    "name": "Granite City Food & Brewery",
    "brewery_type": "brewpub",
    "street": "150 W 96th St",
    "city": "Indianapolis",
    "state": "Indiana",
    "postal_code": "46260-4802",
    "website_url": "",
    "phone": "",
    "created_at": "2018-07-24 01:33:22.101679",
    "updated_at": "2018-08-11 21:37:19.433591",
    "country": "United States",
    "longitude": "",
    "latitude": ""
  },
  {
    "id": "2640",
    "name": "Granite City Food & Brewery (#27)",
    "brewery_type": "brewpub",
    "street": "150 W 96th St",
    "city": "Indianapolis",
    "state": "Indiana",
    "postal_code": "46260-4802",
    "website_url": "http://www.gcfb.net",
    "phone": "3172187185",
    "created_at": "2018-07-24 01:33:22.138596",
    "updated_at": "2018-08-11 21:37:19.518641",
    "country": "United States",
    "longitude": "",
    "latitude": ""
  },
  {
    "id": "2642",
    "name": "Guggman Haus Brewing Co.",
    "brewery_type": "planning",
    "street": "",
    "city": "Indianapolis",
    "state": "Indiana",
    "postal_code": "46202-2158",
    "website_url": "http://www.guggmanhausbrewing.com",
    "phone": "8122302554",
    "created_at": "2018-07-24 01:33:22.162939",
    "updated_at": "2018-08-11 21:37:19.573413",
    "country": "United States",
    "longitude": "",
    "latitude": ""
  },
  {
    "id": "2644",
    "name": "Heavenly Goat Brewing Company",
    "brewery_type": "brewpub",
    "street": "7321 Heritage Square Dr Ste 190",
    "city": "Granger",
    "state": "Indiana",
    "postal_code": "46530-5660",
    "website_url": "http://www.heavenlygoatbrew.com",
    "phone": "5742178428",
    "created_at": "2018-07-24 01:33:22.189262",
    "updated_at": "2018-08-11 21:37:19.625122",
    "country": "United States",
    "longitude": "",
    "latitude": ""
  },
  {
    "id": "2645",
    "name": "Herrmann Brewthers, LLC",
    "brewery_type": "planning",
    "street": "",
    "city": "Fishers",
    "state": "Indiana",
    "postal_code": "46038-2313",
    "website_url": "",
    "phone": "3179641390",
    "created_at": "2018-07-24 01:33:22.201325",
    "updated_at": "2018-08-11 21:37:19.65366",
    "country": "United States",
    "longitude": "",
    "latitude": ""
  },
  {
    "id": "2647",
    "name": "Hop Quest Brewing Company",
    "brewery_type": "planning",
    "street": "",
    "city": "Wheatfield",
    "state": "Indiana",
    "postal_code": "46392",
    "website_url": "",
    "phone": "2198636393",
    "created_at": "2018-07-24 01:33:22.227254",
    "updated_at": "2018-08-11 21:37:19.680617",
    "country": "United States",
    "longitude": "",
    "latitude": ""
  },
  {
    "id": "2655",
    "name": "LaOtto Brewing LLC",
    "brewery_type": "brewpub",
    "street": "202 S Main St",
    "city": "Laotto",
    "state": "Indiana",
    "postal_code": "46763-4800",
    "website_url": "",
    "phone": "2608973360",
    "created_at": "2018-07-24 01:33:22.327235",
    "updated_at": "2018-08-11 21:37:19.916041",
    "country": "United States",
    "longitude": "",
    "latitude": ""
  },
  {
    "id": "2657",
    "name": "Liter House",
    "brewery_type": "planning",
    "street": "",
    "city": "Indianapolis",
    "state": "Indiana",
    "postal_code": "46220",
    "website_url": "",
    "phone": "3176940580",
    "created_at": "2018-07-24 01:33:22.352009",
    "updated_at": "2018-08-11 21:37:19.972354",
    "country": "United States",
    "longitude": "",
    "latitude": ""
  },
  {
    "id": "2658",
    "name": "Mad Anthony Brewing Co",
    "brewery_type": "micro",
    "street": "2002 Broadway",
    "city": "Fort Wayne",
    "state": "Indiana",
    "postal_code": "46802-3710",
    "website_url": "http://www.madbrew.com",
    "phone": "2604262537",
    "created_at": "2018-07-24 01:33:22.367",
    "updated_at": "2018-08-11 21:37:19.998204",
    "country": "United States",
    "longitude": "",
    "latitude": ""
  },
  {
    "id": "2617",
    "name": "Daredevil Brewing Company",
    "brewery_type": "micro",
    "street": "1151 Main St",
    "city": "Indianapolis",
    "state": "Indiana",
    "postal_code": "46224-6976",
    "website_url": "http://www.daredevilbeer.com",
    "phone": "",
    "created_at": "2018-07-24 01:33:21.843332",
    "updated_at": "2018-08-24 00:32:46.065055",
    "country": "United States",
    "longitude": "-86.64727",
    "latitude": "39.844367"
  },
  {
    "id": "2622",
    "name": "Evil Czech Brewery",
    "brewery_type": "brewpub",
    "street": "3703 N Main St",
    "city": "Mishawaka",
    "state": "Indiana",
    "postal_code": "46545-3111",
    "website_url": "",
    "phone": "",
    "created_at": "2018-07-24 01:33:21.911064",
    "updated_at": "2018-08-24 00:32:48.656777",
    "country": "United States",
    "longitude": "-86.1823337",
    "latitude": "41.6939205"
  },
  {
    "id": "2626",
    "name": "Flat 12 Bierwerks",
    "brewery_type": "micro",
    "street": "414 Dorman St",
    "city": "Indianapolis",
    "state": "Indiana",
    "postal_code": "46202-3648",
    "website_url": "http://www.flat12.me",
    "phone": "3174265851",
    "created_at": "2018-07-24 01:33:21.958138",
    "updated_at": "2018-08-24 00:32:49.831944",
    "country": "United States",
    "longitude": "-86.13847",
    "latitude": "39.7726148571429"
  },
  {
    "id": "2627",
    "name": "Flix Brewhouse",
    "brewery_type": "brewpub",
    "street": "2206 E 116th St",
    "city": "Carmel",
    "state": "Indiana",
    "postal_code": "46032-3215",
    "website_url": "",
    "phone": "5122442739",
    "created_at": "2018-07-24 01:33:21.970209",
    "updated_at": "2018-08-24 00:32:50.421785",
    "country": "United States",
    "longitude": "-86.0897644",
    "latitude": "39.9567195"
  },
  {
    "id": "2629",
    "name": "Fountain Square Brewing Co",
    "brewery_type": "micro",
    "street": "1301 Barth Ave",
    "city": "Indianapolis",
    "state": "Indiana",
    "postal_code": "46203-1872",
    "website_url": "http://www.fountainsquarebrewing.com",
    "phone": "3174931410",
    "created_at": "2018-07-24 01:33:21.995428",
    "updated_at": "2018-08-24 00:32:51.581119",
    "country": "United States",
    "longitude": "-86.1404227",
    "latitude": "39.7496885"
  },
  {
    "id": "2630",
    "name": "Four Day Ray Brewing",
    "brewery_type": "brewpub",
    "street": "11671 Lantern Rd",
    "city": "Fishers",
    "state": "Indiana",
    "postal_code": "46038-2952",
    "website_url": "http://www.fourdayray.com",
    "phone": "3173430200",
    "created_at": "2018-07-24 01:33:22.009944",
    "updated_at": "2018-08-24 00:32:52.126571",
    "country": "United States",
    "longitude": "-86.013396",
    "latitude": "39.956908"
  },
  {
    "id": "2631",
    "name": "Four Fathers Brewing",
    "brewery_type": "micro",
    "street": "1555 W Lincolnway Ste 105",
    "city": "Valparaiso",
    "state": "Indiana",
    "postal_code": "46385-3801",
    "website_url": "http://www.fourfathersbrewing.com",
    "phone": "2194649712",
    "created_at": "2018-07-24 01:33:22.023382",
    "updated_at": "2018-08-24 00:32:52.694671",
    "country": "United States",
    "longitude": "-87.0790657249009",
    "latitude": "41.4732834349405"
  },
  {
    "id": "2632",
    "name": "Function Brewing Co",
    "brewery_type": "brewpub",
    "street": "108 E 6th St",
    "city": "Bloomington",
    "state": "Indiana",
    "postal_code": "47408-3311",
    "website_url": "http://www.functionbrewing.com",
    "phone": "8126761000",
    "created_at": "2018-07-24 01:33:22.03612",
    "updated_at": "2018-08-24 00:32:53.267082",
    "country": "United States",
    "longitude": "-86.5333707175402",
    "latitude": "39.1674678070357"
  },
  {
    "id": "2635",
    "name": "Goshen Brewing Company",
    "brewery_type": "brewpub",
    "street": "315 W Washington St",
    "city": "Goshen",
    "state": "Indiana",
    "postal_code": "46526-3732",
    "website_url": "http://www.goshenbrewing.com",
    "phone": "5749715324",
    "created_at": "2018-07-24 01:33:22.074019",
    "updated_at": "2018-08-24 00:32:54.345138",
    "country": "United States",
    "longitude": "-85.8386783",
    "latitude": "41.585178"
  },
  {
    "id": "2636",
    "name": "Grand Junction Brewing Co",
    "brewery_type": "brewpub",
    "street": "110 S Union St",
    "city": "Westfield",
    "state": "Indiana",
    "postal_code": "46074-9458",
    "website_url": "http://www.grandjunctionbrewing.com",
    "phone": "3178045168",
    "created_at": "2018-07-24 01:33:22.087784",
    "updated_at": "2018-08-24 00:32:54.809413",
    "country": "United States",
    "longitude": "-86.1275556",
    "latitude": "40.0424222"
  },
  {
    "id": "2638",
    "name": "Granite City Food & Brewery (#24)",
    "brewery_type": "brewpub",
    "street": "3809 Coldwater Rd",
    "city": "Fort Wayne",
    "state": "Indiana",
    "postal_code": "46805-1101",
    "website_url": "http://www.gcfb.net",
    "phone": "2604713030",
    "created_at": "2018-07-24 01:33:22.114317",
    "updated_at": "2018-08-24 00:32:56.05705",
    "country": "United States",
    "longitude": "-85.1358185730587",
    "latitude": "41.1113216"
  },
  {
    "id": "2641",
    "name": "Great Crescent Brewery",
    "brewery_type": "micro",
    "street": "315 Importing St",
    "city": "Aurora",
    "state": "Indiana",
    "postal_code": "47001-1415",
    "website_url": "http://www.gcbeer.com",
    "phone": "8126559079",
    "created_at": "2018-07-24 01:33:22.150555",
    "updated_at": "2018-08-24 00:32:57.743275",
    "country": "United States",
    "longitude": "-84.9005125714286",
    "latitude": "39.0576022857143"
  },
  {
    "id": "2643",
    "name": "Half Moon Restaurant & Brewery",
    "brewery_type": "brewpub",
    "street": "4051 S Lafountain St",
    "city": "Kokomo",
    "state": "Indiana",
    "postal_code": "46902-6913",
    "website_url": "",
    "phone": "7654552739",
    "created_at": "2018-07-24 01:33:22.177203",
    "updated_at": "2018-08-24 00:32:58.384738",
    "country": "United States",
    "longitude": "-86.1281745",
    "latitude": "40.4362867"
  },
  {
    "id": "2648",
    "name": "Hop River Brewing Company",
    "brewery_type": "micro",
    "street": "1515 N Harrison St",
    "city": "Fort Wayne",
    "state": "Indiana",
    "postal_code": "46808-2729",
    "website_url": "http://www.hopriverbrewing.com",
    "phone": "",
    "created_at": "2018-07-24 01:33:22.239418",
    "updated_at": "2018-08-24 00:32:59.476415",
    "country": "United States",
    "longitude": "-85.1434574",
    "latitude": "41.0882767"
  },
  {
    "id": "2649",
    "name": "Hunter's Brewing",
    "brewery_type": "brewpub",
    "street": "1535 S Calumet Rd",
    "city": "Chesterton",
    "state": "Indiana",
    "postal_code": "46304-3301",
    "website_url": "",
    "phone": "2197286729",
    "created_at": "2018-07-24 01:33:22.251698",
    "updated_at": "2018-08-24 00:33:00.044826",
    "country": "United States",
    "longitude": "-87.0475184046949",
    "latitude": "41.5971593002097"
  },
  {
    "id": "2651",
    "name": "Indiana City Brewing",
    "brewery_type": "micro",
    "street": "24 Shelby Street",
    "city": "Indianapolis",
    "state": "Indiana",
    "postal_code": "46202-3941",
    "website_url": "http://indianacitybeer.com",
    "phone": "3176431103",
    "created_at": "2018-07-24 01:33:22.27712",
    "updated_at": "2018-08-24 00:33:01.388787",
    "country": "United States",
    "longitude": "-86.141258",
    "latitude": "39.7661102"
  },
  {
    "id": "2652",
    "name": "Ironwood Brewing Co LLC",
    "brewery_type": "micro",
    "street": "6 Roosevelt Rd",
    "city": "Valparaiso",
    "state": "Indiana",
    "postal_code": "46383-5136",
    "website_url": "http://www.ironwoodbrewing.beer",
    "phone": "2194054644",
    "created_at": "2018-07-24 01:33:22.289556",
    "updated_at": "2018-08-24 00:33:02.046774",
    "country": "United States",
    "longitude": "-87.046457",
    "latitude": "41.4684063333333"
  },
  {
    "id": "2653",
    "name": "Junk Ditch Brewing Company",
    "brewery_type": "micro",
    "street": "1825 W Main St",
    "city": "Fort Wayne",
    "state": "Indiana",
    "postal_code": "46808-3715",
    "website_url": "http://junkditchbrewingco.com",
    "phone": "2604600460",
    "created_at": "2018-07-24 01:33:22.301382",
    "updated_at": "2018-08-24 00:33:02.762527",
    "country": "United States",
    "longitude": "-85.1669014",
    "latitude": "41.0779727"
  },
  {
    "id": "2654",
    "name": "Lafayette Brewing Co",
    "brewery_type": "brewpub",
    "street": "622 Main St",
    "city": "Lafayette",
    "state": "Indiana",
    "postal_code": "47901-1451",
    "website_url": "http://www.lafayettebrewingco.com",
    "phone": "7657422591",
    "created_at": "2018-07-24 01:33:22.313928",
    "updated_at": "2018-08-24 00:33:03.340898",
    "country": "United States",
    "longitude": "-86.8899492425727",
    "latitude": "40.4192173219319"
  },
  {
    "id": "2656",
    "name": "Lil' Charlie's Restaurant & Brewery",
    "brewery_type": "contract",
    "street": "504 E Pearl St",
    "city": "Batesville",
    "state": "Indiana",
    "postal_code": "47006-1585",
    "website_url": "http://www.lilcharlies.com",
    "phone": "8129346392",
    "created_at": "2018-07-24 01:33:22.339654",
    "updated_at": "2018-08-24 00:33:04.529419",
    "country": "United States",
    "longitude": "-85.2161451812081",
    "latitude": "39.295641966443"
  },
  {
    "id": "2660",
    "name": "Main Street Brewing Inc/Turonis Pizza",
    "brewery_type": "brewpub",
    "street": "408 N Main St",
    "city": "Evansville",
    "state": "Indiana",
    "postal_code": "47711-5418",
    "website_url": "",
    "phone": "8124249871",
    "created_at": "2018-07-24 01:33:22.396448",
    "updated_at": "2018-08-24 00:33:05.743193",
    "country": "United States",
    "longitude": "-87.5639952653061",
    "latitude": "37.9812209387755"
  },
  {
    "id": "2661",
    "name": "MashCraft Brewing",
    "brewery_type": "micro",
    "street": "1140 N State Road 135 Ste M",
    "city": "Greenwood",
    "state": "Indiana",
    "postal_code": "46142-1016",
    "website_url": "http://www.mashcraft.com",
    "phone": "3172154578",
    "created_at": "2018-07-24 01:33:22.409444",
    "updated_at": "2018-08-11 21:37:20.383615",
    "country": "United States",
    "longitude": "",
    "latitude": ""
  },
  {
    "id": "2663",
    "name": "Misconduct Brewing",
    "brewery_type": "planning",
    "street": "",
    "city": "Carmel",
    "state": "Indiana",
    "postal_code": "46033-9414",
    "website_url": "",
    "phone": "",
    "created_at": "2018-07-24 01:33:22.434799",
    "updated_at": "2018-08-11 21:37:20.446179",
    "country": "United States",
    "longitude": "",
    "latitude": ""
  },
  {
    "id": "2665",
    "name": "Nailers Brewing Company",
    "brewery_type": "brewpub",
    "street": "6001 N US Highway 31",
    "city": "Whiteland",
    "state": "Indiana",
    "postal_code": "46184",
    "website_url": "",
    "phone": "3172813132",
    "created_at": "2018-07-24 01:33:22.459038",
    "updated_at": "2018-08-11 21:37:20.51021",
    "country": "United States",
    "longitude": "",
    "latitude": ""
  },
  {
    "id": "2667",
    "name": "New Albanian Brewing Co",
    "brewery_type": "brewpub",
    "street": "3312 Plaza Dr",
    "city": "New Albany",
    "state": "Indiana",
    "postal_code": "47150-2478",
    "website_url": "http://www.newalbanian.com",
    "phone": "8129442577",
    "created_at": "2018-07-24 01:33:22.483882",
    "updated_at": "2018-08-11 21:37:20.568078",
    "country": "United States",
    "longitude": "",
    "latitude": ""
  },
  {
    "id": "2669",
    "name": "New Corner Brewing Company",
    "brewery_type": "micro",
    "street": "1900 W Mt Pleasant Blvd Ste G",
    "city": "Muncie",
    "state": "Indiana",
    "postal_code": "47302-9566",
    "website_url": "http://www.newcornerbrewing.com",
    "phone": "7657304376",
    "created_at": "2018-07-24 01:33:22.508099",
    "updated_at": "2018-08-11 21:37:20.626778",
    "country": "United States",
    "longitude": "",
    "latitude": ""
  },
  {
    "id": "2673",
    "name": "Oaken Barrel Brewing Co",
    "brewery_type": "brewpub",
    "street": "50 Airport Pkwy Ste L",
    "city": "Greenwood",
    "state": "Indiana",
    "postal_code": "46143-1438",
    "website_url": "http://www.oakenbarrel.com",
    "phone": "3178872287",
    "created_at": "2018-07-24 01:33:22.55685",
    "updated_at": "2018-08-11 21:37:20.740855",
    "country": "United States",
    "longitude": "",
    "latitude": ""
  },
  {
    "id": "2675",
    "name": "Opocofi Brewing Company",
    "brewery_type": "planning",
    "street": "",
    "city": "Franklin",
    "state": "Indiana",
    "postal_code": "46131-8901",
    "website_url": "",
    "phone": "",
    "created_at": "2018-07-24 01:33:22.581006",
    "updated_at": "2018-08-11 21:37:20.797217",
    "country": "United States",
    "longitude": "",
    "latitude": ""
  },
  {
    "id": "2678",
    "name": "Planetary Brewing Company",
    "brewery_type": "micro",
    "street": "500 Polk St Ste 22",
    "city": "Greenwood",
    "state": "Indiana",
    "postal_code": "46143-1638",
    "website_url": "http://www.planetarybrewing.com",
    "phone": "3172154941",
    "created_at": "2018-07-24 01:33:22.618617",
    "updated_at": "2018-08-11 21:37:20.902708",
    "country": "United States",
    "longitude": "",
    "latitude": ""
  },
  {
    "id": "2681",
    "name": "Power House Brewing Co's Columbus Bar",
    "brewery_type": "brewpub",
    "street": "2735 N State Road 9",
    "city": "Columbus",
    "state": "Indiana",
    "postal_code": "47203-9648",
    "website_url": "http://www.powerhousebrewingco.com",
    "phone": "8123758800",
    "created_at": "2018-07-24 01:33:22.655264",
    "updated_at": "2018-08-11 21:37:20.992278",
    "country": "United States",
    "longitude": "",
    "latitude": ""
  },
  {
    "id": "2682",
    "name": "Quaff On Brewing",
    "brewery_type": "micro",
    "street": "1934 State Road 135 N",
    "city": "Nashville",
    "state": "Indiana",
    "postal_code": "47448-8418",
    "website_url": "http://www.quaffon.com",
    "phone": "8129886006",
    "created_at": "2018-07-24 01:33:22.667583",
    "updated_at": "2018-08-11 21:37:21.023436",
    "country": "United States",
    "longitude": "",
    "latitude": ""
  },
  {
    "id": "2685",
    "name": "Rebelle Brewing",
    "brewery_type": "planning",
    "street": "",
    "city": "Noblesville",
    "state": "Indiana",
    "postal_code": "46060",
    "website_url": "",
    "phone": "",
    "created_at": "2018-07-24 01:33:22.704568",
    "updated_at": "2018-08-11 21:37:21.106738",
    "country": "United States",
    "longitude": "",
    "latitude": ""
  },
  {
    "id": "2686",
    "name": "Redemption Alewerks",
    "brewery_type": "brewpub",
    "street": "7035 E 96th St Ste K",
    "city": "Indianapolis",
    "state": "Indiana",
    "postal_code": "46250-3303",
    "website_url": "http://www.redemptionalewerks.com",
    "phone": "3173483330",
    "created_at": "2018-07-24 01:33:22.719778",
    "updated_at": "2018-08-11 21:37:21.151077",
    "country": "United States",
    "longitude": "",
    "latitude": ""
  },
  {
    "id": "2688",
    "name": "Round Town Brewery",
    "brewery_type": "micro",
    "street": "950 S White River Pky West Dr Ste 100",
    "city": "Indianapolis",
    "state": "Indiana",
    "postal_code": "46221-1373",
    "website_url": "http://www.roundtownbrewery.com",
    "phone": "3174931375",
    "created_at": "2018-07-24 01:33:22.74426",
    "updated_at": "2018-08-11 21:37:21.216524",
    "country": "United States",
    "longitude": "",
    "latitude": ""
  },
  {
    "id": "2689",
    "name": "Salt Creek Brewery",
    "brewery_type": "brewpub",
    "street": "466 Old State Road 37 N",
    "city": "Bedford",
    "state": "Indiana",
    "postal_code": "47421-8068",
    "website_url": "http://www.saltcreeekbrewery.beer",
    "phone": "8122778277",
    "created_at": "2018-07-24 01:33:22.756772",
    "updated_at": "2018-08-11 21:37:21.249493",
    "country": "United States",
    "longitude": "",
    "latitude": ""
  },
  {
    "id": "2697",
    "name": "Studebaker Brewing Company",
    "brewery_type": "planning",
    "street": "",
    "city": "South Bend",
    "state": "Indiana",
    "postal_code": "46601",
    "website_url": "http://www.studebakerbrewingco.com",
    "phone": "5742349077",
    "created_at": "2018-07-24 01:33:22.855136",
    "updated_at": "2018-08-11 21:37:21.50892",
    "country": "United States",
    "longitude": "",
    "latitude": ""
  },
  {
    "id": "2698",
    "name": "Summit City Brwerks",
    "brewery_type": "brewpub",
    "street": "1501 E Berry #106",
    "city": "Fort Wayne",
    "state": "Indiana",
    "postal_code": "46803",
    "website_url": "http://www.summitcitybrewerks.com",
    "phone": "2604150782",
    "created_at": "2018-07-24 01:33:22.86698",
    "updated_at": "2018-08-11 21:37:21.540441",
    "country": "United States",
    "longitude": "",
    "latitude": ""
  },
  {
    "id": "2701",
    "name": "Sun King Brewing Co",
    "brewery_type": "planning",
    "street": "",
    "city": "Fishers",
    "state": "Indiana",
    "postal_code": "46037",
    "website_url": "",
    "phone": "",
    "created_at": "2018-07-24 01:33:22.902742",
    "updated_at": "2018-08-11 21:37:21.636505",
    "country": "United States",
    "longitude": "",
    "latitude": ""
  },
  {
    "id": "2704",
    "name": "Teays River Brewing",
    "brewery_type": "brewpub",
    "street": "3000 S 9th St Ste A",
    "city": "Lafayette",
    "state": "Indiana",
    "postal_code": "47909-6702",
    "website_url": "http://www.teaysriverbrewing.com",
    "phone": "7657466614",
    "created_at": "2018-07-24 01:33:22.938977",
    "updated_at": "2018-08-11 21:37:21.725644",
    "country": "United States",
    "longitude": "",
    "latitude": ""
  },
  {
    "id": "2664",
    "name": "Moontown Brewing",
    "brewery_type": "brewpub",
    "street": "345 S Bowers St",
    "city": "Whitestown",
    "state": "Indiana",
    "postal_code": "46075",
    "website_url": "http://www.moontownbeer.com",
    "phone": "5742503114",
    "created_at": "2018-07-24 01:33:22.446476",
    "updated_at": "2018-08-24 00:33:07.374291",
    "country": "United States",
    "longitude": "-86.346903",
    "latitude": "39.9940992857143"
  },
  {
    "id": "2668",
    "name": "New Boswell Brewing Co",
    "brewery_type": "micro",
    "street": "410 N 10th St",
    "city": "Richmond",
    "state": "Indiana",
    "postal_code": "47374",
    "website_url": "http://www.newboswell.com",
    "phone": "7655467856",
    "created_at": "2018-07-24 01:33:22.49614",
    "updated_at": "2018-08-24 00:33:09.018983",
    "country": "United States",
    "longitude": "-84.8891681111111",
    "latitude": "39.8330654444444"
  },
  {
    "id": "2670",
    "name": "New Oberpfalz Brewing",
    "brewery_type": "brewpub",
    "street": "121 E Main St",
    "city": "Griffith",
    "state": "Indiana",
    "postal_code": "46319-2243",
    "website_url": "http://www.newoberpfalz.com",
    "phone": "3127381308",
    "created_at": "2018-07-24 01:33:22.520594",
    "updated_at": "2018-08-24 00:33:10.121422",
    "country": "United States",
    "longitude": "-87.4272757058824",
    "latitude": "41.5227021176471"
  },
  {
    "id": "2671",
    "name": "Noble Order Brewing Company",
    "brewery_type": "brewpub",
    "street": "3407 National Rd W",
    "city": "Richmond",
    "state": "Indiana",
    "postal_code": "47374-4416",
    "website_url": "http://www.nobleorderbrewing.com",
    "phone": "7659659463",
    "created_at": "2018-07-24 01:33:22.532884",
    "updated_at": "2018-08-24 00:33:10.685346",
    "country": "United States",
    "longitude": "-84.9488231864361",
    "latitude": "39.82198693506"
  },
  {
    "id": "2672",
    "name": "Norris English Pub",
    "brewery_type": "brewpub",
    "street": "202 E Seminary St",
    "city": "Liberty",
    "state": "Indiana",
    "postal_code": "47353-1206",
    "website_url": "http://www.norrisenglishpub.com",
    "phone": "7652232337",
    "created_at": "2018-07-24 01:33:22.544803",
    "updated_at": "2018-08-24 00:33:11.219605",
    "country": "United States",
    "longitude": "-84.9250813333333",
    "latitude": "39.6344325"
  },
  {
    "id": "2674",
    "name": "Off Square Brewing",
    "brewery_type": "brewpub",
    "street": "11000 Delaware Pkwy",
    "city": "Crown Point",
    "state": "Indiana",
    "postal_code": "46307-7895",
    "website_url": "http://www.offsquarebrewing.com",
    "phone": "2193108898",
    "created_at": "2018-07-24 01:33:22.568791",
    "updated_at": "2018-08-24 00:33:12.241151",
    "country": "United States",
    "longitude": "-87.329728",
    "latitude": "41.417636"
  },
  {
    "id": "2676",
    "name": "Pax Verum Brewing",
    "brewery_type": "micro",
    "street": "908 N Main St",
    "city": "Lapel",
    "state": "Indiana",
    "postal_code": "46051-",
    "website_url": "http://www.paxverum.com",
    "phone": "3172858819",
    "created_at": "2018-07-24 01:33:22.593399",
    "updated_at": "2018-08-24 00:33:12.824856",
    "country": "United States",
    "longitude": "-85.8480295714286",
    "latitude": "40.0686987959184"
  },
  {
    "id": "2677",
    "name": "Peoples Brewing Co",
    "brewery_type": "micro",
    "street": "2006 N 9th Street Rd",
    "city": "Lafayette",
    "state": "Indiana",
    "postal_code": "47904-1036",
    "website_url": "http://www.peoplesbrew.com",
    "phone": "7657924677",
    "created_at": "2018-07-24 01:33:22.606057",
    "updated_at": "2018-08-24 00:33:13.328719",
    "country": "United States",
    "longitude": "-86.885995",
    "latitude": "40.437006875"
  },
  {
    "id": "2683",
    "name": "Raintree Brewing Company",
    "brewery_type": "micro",
    "street": "500 Church Street",
    "city": "New Harmony",
    "state": "Indiana",
    "postal_code": "47631",
    "website_url": "http://www.raintreebrewing.com",
    "phone": "",
    "created_at": "2018-07-24 01:33:22.679982",
    "updated_at": "2018-08-24 00:33:16.808826",
    "country": "United States",
    "longitude": "-87.9348109",
    "latitude": "38.1299262"
  },
  {
    "id": "2687",
    "name": "Rock Bottom Brewery - Indianapolis",
    "brewery_type": "brewpub",
    "street": "10 W Washington St",
    "city": "Indianapolis",
    "state": "Indiana",
    "postal_code": "46204-3402",
    "website_url": "http://www.rockbottom.com",
    "phone": "3176818180",
    "created_at": "2018-07-24 01:33:22.731919",
    "updated_at": "2018-08-24 00:33:18.509444",
    "country": "United States",
    "longitude": "-86.1584705",
    "latitude": "39.76717025"
  },
  {
    "id": "2690",
    "name": "Scarlet Lane Brewing Company LLC",
    "brewery_type": "micro",
    "street": "7724 Depot St",
    "city": "McCordsville",
    "state": "Indiana",
    "postal_code": "46055-6173",
    "website_url": "http://www.scarletlanebrew.com",
    "phone": "",
    "created_at": "2018-07-24 01:33:22.768924",
    "updated_at": "2018-08-24 00:33:20.24577",
    "country": "United States",
    "longitude": "-85.9243815918367",
    "latitude": "39.8947728571429"
  },
  {
    "id": "2691",
    "name": "Schnitz Brewery",
    "brewery_type": "brewpub",
    "street": "2031 Newton St",
    "city": "Jasper",
    "state": "Indiana",
    "postal_code": "47546-1600",
    "website_url": "http://www.schnitzbrewery.com",
    "phone": "8128482739",
    "created_at": "2018-07-24 01:33:22.781445",
    "updated_at": "2018-08-24 00:33:20.851802",
    "country": "United States",
    "longitude": "-86.937703",
    "latitude": "38.405985"
  },
  {
    "id": "2693",
    "name": "South Bend Brew Werks",
    "brewery_type": "brewpub",
    "street": "216 S Michigan St",
    "city": "South Bend",
    "state": "Indiana",
    "postal_code": "46601-2002",
    "website_url": "http://www.southbendbrewwerks.com",
    "phone": "5743340356",
    "created_at": "2018-07-24 01:33:22.806117",
    "updated_at": "2018-08-24 00:33:22.084443",
    "country": "United States",
    "longitude": "-86.2528557156014",
    "latitude": "41.6261185524131"
  },
  {
    "id": "2694",
    "name": "St John Malt Brothers Brewing",
    "brewery_type": "brewpub",
    "street": "9607 Wicker Ave",
    "city": "Saint John",
    "state": "Indiana",
    "postal_code": "46373-9487",
    "website_url": "http://www.sjmaltbros.com",
    "phone": "2196274294",
    "created_at": "2018-07-24 01:33:22.818334",
    "updated_at": "2018-08-24 00:33:22.623149",
    "country": "United States",
    "longitude": "-87.4699816326531",
    "latitude": "41.4450700816327"
  },
  {
    "id": "2695",
    "name": "St. Benedict's Brew Works",
    "brewery_type": "micro",
    "street": "860 E 10th St",
    "city": "Ferdinand",
    "state": "Indiana",
    "postal_code": "47532-9240",
    "website_url": "http://www.saintbenedictsbrewworks.com",
    "phone": "8129982337",
    "created_at": "2018-07-24 01:33:22.830417",
    "updated_at": "2018-08-24 00:33:23.172434",
    "country": "United States",
    "longitude": "-86.8541949090441",
    "latitude": "38.2242288957333"
  },
  {
    "id": "2696",
    "name": "St. Joseph Brewery & Public House",
    "brewery_type": "brewpub",
    "street": "540 N College Ave",
    "city": "Indianapolis",
    "state": "Indiana",
    "postal_code": "46202-3504",
    "website_url": "http://www.saintjoseph.beer.com",
    "phone": "3176025670",
    "created_at": "2018-07-24 01:33:22.842495",
    "updated_at": "2018-08-24 00:33:23.833136",
    "country": "United States",
    "longitude": "-86.1449174",
    "latitude": "39.8095687"
  },
  {
    "id": "2699",
    "name": "Sun King Brewery",
    "brewery_type": "micro",
    "street": "7848 E 96th St",
    "city": "Fishers",
    "state": "Indiana",
    "postal_code": "46037-9629",
    "website_url": "",
    "phone": "3174361926",
    "created_at": "2018-07-24 01:33:22.879047",
    "updated_at": "2018-08-24 00:33:25.052736",
    "country": "United States",
    "longitude": "-86.0242557",
    "latitude": "39.9282185"
  },
  {
    "id": "2700",
    "name": "Sun King Brewing Co",
    "brewery_type": "regional",
    "street": "135 N College Ave",
    "city": "Indianapolis",
    "state": "Indiana",
    "postal_code": "46202-3801",
    "website_url": "",
    "phone": "3176023702",
    "created_at": "2018-07-24 01:33:22.890863",
    "updated_at": "2018-08-24 00:33:25.585564",
    "country": "United States",
    "longitude": "-86.1449174",
    "latitude": "39.8095687"
  },
  {
    "id": "2703",
    "name": "Taxman Brewing Co",
    "brewery_type": "micro",
    "street": "13 S Baldwin St",
    "city": "Bargersville",
    "state": "Indiana",
    "postal_code": "46106-9089",
    "website_url": "http://www.taxmanbrewing.com",
    "phone": "",
    "created_at": "2018-07-24 01:33:22.926826",
    "updated_at": "2018-08-24 00:33:26.773104",
    "country": "United States",
    "longitude": "-86.1671619863068",
    "latitude": "39.5214854792612"
  },
  {
    "id": "2705",
    "name": "Terre Haute Brewing Company",
    "brewery_type": "brewpub",
    "street": "401 S 9th St",
    "city": "Terre Haute",
    "state": "Indiana",
    "postal_code": "47807-4417",
    "website_url": "http://www.terrehautebrewingcompany.com",
    "phone": "8128143071",
    "created_at": "2018-07-24 01:33:22.951348",
    "updated_at": "2018-08-24 00:33:28.085322",
    "country": "United States",
    "longitude": "-87.404517",
    "latitude": "39.462286"
  },
  {
    "id": "2706",
    "name": "The Guardian Brewing Company",
    "brewery_type": "micro",
    "street": "514 E Jackson Street",
    "city": "Muncie",
    "state": "Indiana",
    "postal_code": "47305",
    "website_url": "http://www.theguardianbrewingco.com",
    "phone": "7652738918",
    "created_at": "2018-07-24 01:33:22.963669",
    "updated_at": "2018-08-24 00:33:28.613086",
    "country": "United States",
    "longitude": "-85.3814878571429",
    "latitude": "40.1928128571429"
  },
  {
    "id": "2707",
    "name": "The Koontz Lake Brewing Company",
    "brewery_type": "brewpub",
    "street": "7747 N State Road 23",
    "city": "Walkerton",
    "state": "Indiana",
    "postal_code": "46574-9360",
    "website_url": "",
    "phone": "5745862019",
    "created_at": "2018-07-24 01:33:22.976255",
    "updated_at": "2018-08-11 21:37:21.818516",
    "country": "United States",
    "longitude": "",
    "latitude": ""
  },
  {
    "id": "2710",
    "name": "Thr3e Wise Men Brewing Co",
    "brewery_type": "brewpub",
    "street": "1021 Broad Ripple Ave",
    "city": "Indianapolis",
    "state": "Indiana",
    "postal_code": "46220-2034",
    "website_url": "",
    "phone": "3172555151",
    "created_at": "2018-07-24 01:33:23.017259",
    "updated_at": "2018-08-11 21:37:21.909033",
    "country": "United States",
    "longitude": "",
    "latitude": ""
  },
  {
    "id": "2711",
    "name": "Three Floyds Brewing Co",
    "brewery_type": "regional",
    "street": "9750 Indiana Pkwy",
    "city": "Munster",
    "state": "Indiana",
    "postal_code": "46321-4004",
    "website_url": "http://www.3floyds.com",
    "phone": "2199223565",
    "created_at": "2018-07-24 01:33:23.035133",
    "updated_at": "2018-08-11 21:37:21.943027",
    "country": "United States",
    "longitude": "",
    "latitude": ""
  },
  {
    "id": "2712",
    "name": "Three Pints Brewpub",
    "brewery_type": "brewpub",
    "street": "610 W Mitchell Ave",
    "city": "Martinsville",
    "state": "Indiana",
    "postal_code": "46151-2734",
    "website_url": "http://www.threepints.com",
    "phone": "7653499888",
    "created_at": "2018-07-24 01:33:23.048177",
    "updated_at": "2018-08-11 21:37:21.973652",
    "country": "United States",
    "longitude": "",
    "latitude": ""
  },
  {
    "id": "2714",
    "name": "Tin Man Brewing Kokomo",
    "brewery_type": "micro",
    "street": "500 N Buckeye St Ste A",
    "city": "Kokomo",
    "state": "Indiana",
    "postal_code": "46901-4544",
    "website_url": "",
    "phone": "5125176164",
    "created_at": "2018-07-24 01:33:23.073517",
    "updated_at": "2018-08-11 21:37:22.058211",
    "country": "United States",
    "longitude": "",
    "latitude": ""
  },
  {
    "id": "2715",
    "name": "Traders Brewing Company",
    "brewery_type": "micro",
    "street": "8587  ZIONSVILLE ROAD",
    "city": "INDIANAPOLIS",
    "state": "Indiana",
    "postal_code": "46268",
    "website_url": "http://www.tradersbrewingcompany.com",
    "phone": "3172807505",
    "created_at": "2018-07-24 01:33:23.085663",
    "updated_at": "2018-08-11 21:37:22.088739",
    "country": "United States",
    "longitude": "",
    "latitude": ""
  },
  {
    "id": "2716",
    "name": "Triton Brewing Company",
    "brewery_type": "micro",
    "street": "5764 Wheeler Rd",
    "city": "Indianapolis",
    "state": "Indiana",
    "postal_code": "46216-1038",
    "website_url": "http://www.tritonbrewing.com",
    "phone": "3177352706",
    "created_at": "2018-07-24 01:33:23.098006",
    "updated_at": "2018-08-11 21:37:22.118846",
    "country": "United States",
    "longitude": "",
    "latitude": ""
  },
  {
    "id": "2717",
    "name": "Trubble Brewing",
    "brewery_type": "micro",
    "street": "2725 Broadway",
    "city": "Fort Wayne",
    "state": "Indiana",
    "postal_code": "46807-1111",
    "website_url": "http://www.trubblebrewing.com",
    "phone": "2602676082",
    "created_at": "2018-07-24 01:33:23.111062",
    "updated_at": "2018-08-11 21:37:22.149089",
    "country": "United States",
    "longitude": "",
    "latitude": ""
  },
  {
    "id": "2720",
    "name": "Union Brewing",
    "brewery_type": "micro",
    "street": "622 S Rangeline Rd Ste Q",
    "city": "Carmel",
    "state": "Indiana",
    "postal_code": "46032-2152",
    "website_url": "http://www.unionbrewingco.com",
    "phone": "3175644466",
    "created_at": "2018-07-24 01:33:23.148044",
    "updated_at": "2018-08-11 21:37:22.239186",
    "country": "United States",
    "longitude": "",
    "latitude": ""
  },
  {
    "id": "2721",
    "name": "Upland Brewing Co",
    "brewery_type": "micro",
    "street": "4060 W Profile Pkwy",
    "city": "Bloomington",
    "state": "Indiana",
    "postal_code": "47404-2554",
    "website_url": "",
    "phone": "8123362337",
    "created_at": "2018-07-24 01:33:23.161262",
    "updated_at": "2018-08-11 21:37:22.272557",
    "country": "United States",
    "longitude": "",
    "latitude": ""
  },
  {
    "id": "2723",
    "name": "Wabash Brewing",
    "brewery_type": "micro",
    "street": "5328 W 79th St",
    "city": "Indianapolis",
    "state": "Indiana",
    "postal_code": "46268-1631",
    "website_url": "http://www.wabashbrew.com",
    "phone": "3179384458",
    "created_at": "2018-07-24 01:33:23.18716",
    "updated_at": "2018-08-11 21:37:22.335461",
    "country": "United States",
    "longitude": "",
    "latitude": ""
  },
  {
    "id": "2724",
    "name": "WarPigs USA Brewing Co.",
    "brewery_type": "contract",
    "street": "9750 Indiana Pkwy",
    "city": "Munster",
    "state": "Indiana",
    "postal_code": "46321-4004",
    "website_url": "http://warpigs.com",
    "phone": "2199223565",
    "created_at": "2018-07-24 01:33:23.19888",
    "updated_at": "2018-08-11 21:37:22.365813",
    "country": "United States",
    "longitude": "",
    "latitude": ""
  },
  {
    "id": "2726",
    "name": "Westwind Brewery Co.",
    "brewery_type": "planning",
    "street": "",
    "city": "Elkhart",
    "state": "Indiana",
    "postal_code": "46514-2204",
    "website_url": "http://www.westwindbrewery.com",
    "phone": "5742745073",
    "created_at": "2018-07-24 01:33:23.222378",
    "updated_at": "2018-08-11 21:37:22.42328",
    "country": "United States",
    "longitude": "",
    "latitude": ""
  },
  {
    "id": "2727",
    "name": "White Raven Brewing",
    "brewery_type": "planning",
    "street": "",
    "city": "Warsaw",
    "state": "Indiana",
    "postal_code": "46582-8089",
    "website_url": "http://www.whiteravenbrewing.com",
    "phone": "5747030643",
    "created_at": "2018-07-24 01:33:23.234493",
    "updated_at": "2018-08-11 21:37:22.450449",
    "country": "United States",
    "longitude": "",
    "latitude": ""
  },
  {
    "id": "2709",
    "name": "The Tap Brewery",
    "brewery_type": "brewpub",
    "street": "204 W Kirkwood Ave",
    "city": "Bloomington",
    "state": "Indiana",
    "postal_code": "47404-5144",
    "website_url": "http://www.thetapbeerbar.com",
    "phone": "8122878579",
    "created_at": "2018-07-24 01:33:23.003458",
    "updated_at": "2018-08-24 00:33:30.317093",
    "country": "United States",
    "longitude": "-86.5350443979592",
    "latitude": "39.1665079693878"
  },
  {
    "id": "2713",
    "name": "Tin Man Brewing Company",
    "brewery_type": "micro",
    "street": "1430 W Franklin St",
    "city": "Evansville",
    "state": "Indiana",
    "postal_code": "47710-1030",
    "website_url": "http://www.tinmanbrewing.com",
    "phone": "8126183227",
    "created_at": "2018-07-24 01:33:23.060884",
    "updated_at": "2018-08-24 00:33:32.656889",
    "country": "United States",
    "longitude": "-87.5845245671576",
    "latitude": "37.9802896996268"
  },
  {
    "id": "2718",
    "name": "Twenty Below Brewing @ Twenty Tap",
    "brewery_type": "brewpub",
    "street": "5406 N College Ave",
    "city": "Indianapolis",
    "state": "Indiana",
    "postal_code": "46220-3126",
    "website_url": "http://www.twentytap.com",
    "phone": "3176028840",
    "created_at": "2018-07-24 01:33:23.123496",
    "updated_at": "2018-08-24 00:33:35.528321",
    "country": "United States",
    "longitude": "-86.1449174",
    "latitude": "39.8095687"
  },
  {
    "id": "2719",
    "name": "TwoDEEP Brewing",
    "brewery_type": "brewpub",
    "street": "714 N Capitol Ave",
    "city": "Indianapolis",
    "state": "Indiana",
    "postal_code": "46204-1114",
    "website_url": "http://www.twodeepbrewing.com",
    "phone": "3176531884",
    "created_at": "2018-07-24 01:33:23.135914",
    "updated_at": "2018-08-24 00:33:36.219096",
    "country": "United States",
    "longitude": "-86.161428",
    "latitude": "39.777426"
  },
  {
    "id": "2728",
    "name": "Wildrose Brewing Company",
    "brewery_type": "brewpub",
    "street": "1104 E Main St",
    "city": "Griffith",
    "state": "Indiana",
    "postal_code": "46319-2826",
    "website_url": "http://www.wildrosebrewing.com",
    "phone": "2195955054",
    "created_at": "2018-07-24 01:33:23.24699",
    "updated_at": "2018-08-24 00:33:40.228704",
    "country": "United States",
    "longitude": "-87.4155241021932",
    "latitude": "41.5227592264415"
  },
  {
    "id": "2732",
    "name": "ZwanzigZ Brewing",
    "brewery_type": "brewpub",
    "street": "1038 Lafayette Ave",
    "city": "Columbus",
    "state": "Indiana",
    "postal_code": "47201-5756",
    "website_url": "http://www.zwanzigz.com",
    "phone": "8123760200",
    "created_at": "2018-07-24 01:33:23.296111",
    "updated_at": "2018-08-24 00:33:42.431062",
    "country": "United States",
    "longitude": "-85.9188364726272",
    "latitude": "39.2086567407244"
  },
  {
    "id": "2577",
    "name": "Bier Brewery and Taproom",
    "brewery_type": "micro",
    "street": "5133 E 65th St",
    "city": "Indianapolis",
    "state": "Indiana",
    "postal_code": "46220-4816",
    "website_url": "http://www.bierbrewery.com",
    "phone": "3176960200",
    "created_at": "2018-07-24 01:33:21.357576",
    "updated_at": "2018-08-11 21:37:17.650827",
    "country": "United States",
    "longitude": "",
    "latitude": ""
  },
  {
    "id": "2614",
    "name": "Crooked Ewe Brewery & Ale House",
    "brewery_type": "brewpub",
    "street": "1047 Lincoln Way E",
    "city": "South Bend",
    "state": "Indiana",
    "postal_code": "46601-3726",
    "website_url": "http://www.crookedewe.com",
    "phone": "5742170881",
    "created_at": "2018-07-24 01:33:21.807109",
    "updated_at": "2018-08-11 21:37:18.713522",
    "country": "United States",
    "longitude": "",
    "latitude": ""
  },
  {
    "id": "2659",
    "name": "Maidens Brewery",
    "brewery_type": "brewpub",
    "street": "209 North Wabash Avenue of Flags",
    "city": "Evansville",
    "state": "Indiana",
    "postal_code": "47712",
    "website_url": "http://www.maidensbrewery.com",
    "phone": "8124312836",
    "created_at": "2018-07-24 01:33:22.38334",
    "updated_at": "2018-08-11 21:37:20.060598",
    "country": "United States",
    "longitude": "",
    "latitude": ""
  },
  {
    "id": "2576",
    "name": "Basket Case Brewing Co",
    "brewery_type": "brewpub",
    "street": "1340 Mill St",
    "city": "Jasper",
    "state": "Indiana",
    "postal_code": "47546-2310",
    "website_url": "http://www.basketcasebeer.com",
    "phone": "8124824345",
    "created_at": "2018-07-24 01:33:21.345205",
    "updated_at": "2018-08-24 00:32:30.730628",
    "country": "United States",
    "longitude": "-86.928500633934",
    "latitude": "38.3973635464852"
  },
  {
    "id": "2596",
    "name": "Brokerage Brewing Company",
    "brewery_type": "micro",
    "street": "2516 Covington St",
    "city": "West Lafayette",
    "state": "Indiana",
    "postal_code": "47906-1404",
    "website_url": "http://www.brokeragebrewing.com",
    "phone": "7652332767",
    "created_at": "2018-07-24 01:33:21.589716",
    "updated_at": "2018-08-24 00:32:38.807419",
    "country": "United States",
    "longitude": "-86.914146891917",
    "latitude": "40.453611242644"
  },
  {
    "id": "2628",
    "name": "Floyd County Brewing Company",
    "brewery_type": "brewpub",
    "street": "129 W Main St",
    "city": "New Albany",
    "state": "Indiana",
    "postal_code": "47150-5958",
    "website_url": "http://www.floydcountybrewing.com",
    "phone": "4705882337",
    "created_at": "2018-07-24 01:33:21.982914",
    "updated_at": "2018-08-24 00:32:51.011269",
    "country": "United States",
    "longitude": "-85.8242975365546",
    "latitude": "38.2828988498451"
  },
  {
    "id": "2639",
    "name": "Granite City Food & Brewery (#26)",
    "brewery_type": "brewpub",
    "street": "6501 Grape Rd Ste 1000",
    "city": "Mishawaka",
    "state": "Indiana",
    "postal_code": "46545-1010",
    "website_url": "http://www.gcfb.net",
    "phone": "5742430900",
    "created_at": "2018-07-24 01:33:22.126492",
    "updated_at": "2018-08-24 00:32:56.609052",
    "country": "United States",
    "longitude": "-86.1923429",
    "latitude": "41.7177604"
  },
  {
    "id": "2679",
    "name": "Point Blank Brewing Company",
    "brewery_type": "brewpub",
    "street": "105 E Beaver St",
    "city": "Corydon",
    "state": "Indiana",
    "postal_code": "47112-1146",
    "website_url": "http://www.pointblankbrewing.com",
    "phone": "8122255141",
    "created_at": "2018-07-24 01:33:22.63099",
    "updated_at": "2018-08-24 00:33:14.333932",
    "country": "United States",
    "longitude": "-86.1261640764361",
    "latitude": "38.2111144813465"
  },
  {
    "id": "2702",
    "name": "Switchyard Brewing Company",
    "brewery_type": "micro",
    "street": "419 N Walnut St",
    "city": "Bloomington",
    "state": "Indiana",
    "postal_code": "47404-3842",
    "website_url": "http://www.switchyardbrewing.com",
    "phone": "8122878295",
    "created_at": "2018-07-24 01:33:22.915031",
    "updated_at": "2018-08-24 00:33:26.220434",
    "country": "United States",
    "longitude": "-86.5343606",
    "latitude": "39.1865667"
  },
  {
    "id": "2729",
    "name": "Windmill Brewing",
    "brewery_type": "micro",
    "street": "2121 Gettler St",
    "city": "Dyer",
    "state": "Indiana",
    "postal_code": "46311-1859",
    "website_url": "http://www.windmillbrew.com",
    "phone": "2194402189",
    "created_at": "2018-07-24 01:33:23.259506",
    "updated_at": "2018-08-24 00:33:40.707285",
    "country": "United States",
    "longitude": "-87.5226248920887",
    "latitude": "41.49333495"
  },
  {
    "id": "2730",
    "name": "Wooden Bear Brewing Co",
    "brewery_type": "micro",
    "street": "21 W North St",
    "city": "Greenfield",
    "state": "Indiana",
    "postal_code": "46140-2171",
    "website_url": "http://www.woodenbearbrewing.com",
    "phone": "3173181221",
    "created_at": "2018-07-24 01:33:23.271411",
    "updated_at": "2018-08-24 00:33:41.229306",
    "country": "United States",
    "longitude": "-85.771223028949",
    "latitude": "39.7859772600274"
  }
]