[
  {
    "id": "2834",
    "name": "Free State Brewing Co",
    "brewery_type": "brewpub",
    "street": "636 Massachusetts St",
    "city": "Lawrence",
    "state": "Kansas",
    "postal_code": "66044-2236",
    "website_url": "http://www.freestatebrewing.com",
    "phone": "7858434555",
    "created_at": "2018-07-24 01:33:24.734412",
    "updated_at": "2018-08-24 00:38:24.761939",
    "country": "United States",
    "longitude": "-95.2358091579129",
    "latitude": "38.9724346875125"
  },
  {
    "id": "2849",
    "name": "Norsemen Brewing Co.",
    "brewery_type": "micro",
    "street": "830 N Kansas Ave",
    "city": "Topeka",
    "state": "Kansas",
    "postal_code": "66608-1211",
    "website_url": "http://www.norsemenbrewingco.com",
    "phone": "7856085065",
    "created_at": "2018-07-24 01:33:24.928953",
    "updated_at": "2018-08-24 00:38:31.829744",
    "country": "United States",
    "longitude": "-95.6663741987798",
    "latitude": "39.06706165"
  },
  {
    "id": "2851",
    "name": "Radius Brewing Company",
    "brewery_type": "micro",
    "street": "610 Merchant St",
    "city": "Emporia",
    "state": "Kansas",
    "postal_code": "66801-2859",
    "website_url": "http://radiusbrewing@yahoo.com",
    "phone": "6202084677",
    "created_at": "2018-07-24 01:33:24.954265",
    "updated_at": "2018-08-24 00:38:32.80248",
    "country": "United States",
    "longitude": "-96.1813070612245",
    "latitude": "38.4052199591837"
  },
  {
    "id": "2854",
    "name": "Salt City Brewing",
    "brewery_type": "micro",
    "street": "514 N Main Street",
    "city": "Hutchinson",
    "state": "Kansas",
    "postal_code": "67501",
    "website_url": "",
    "phone": "6209606210",
    "created_at": "2018-07-24 01:33:24.989617",
    "updated_at": "2018-08-24 00:38:33.791146",
    "country": "United States",
    "longitude": "-97.9317530573845",
    "latitude": "38.0586914288921"
  },
  {
    "id": "2833",
    "name": "Fields & Ivy Brewery",
    "brewery_type": "planning",
    "street": "",
    "city": "Olathe",
    "state": "Kansas",
    "postal_code": "66061-7464",
    "website_url": "",
    "phone": "9136710349",
    "created_at": "2018-07-24 01:33:24.721968",
    "updated_at": "2018-08-11 21:37:25.745242",
    "country": "United States",
    "longitude": "",
    "latitude": ""
  },
  {
    "id": "2828",
    "name": "Brewery in Planning - Burlington",
    "brewery_type": "planning",
    "street": "",
    "city": "Burlington",
    "state": "Kansas",
    "postal_code": "66839-9200",
    "website_url": "",
    "phone": "7856332062",
    "created_at": "2018-07-24 01:33:24.66175",
    "updated_at": "2018-08-11 21:37:25.593668",
    "country": "United States",
    "longitude": "",
    "latitude": ""
  },
  {
    "id": "2829",
    "name": "Center Pivot",
    "brewery_type": "planning",
    "street": "",
    "city": "Quinter",
    "state": "Kansas",
    "postal_code": "67752",
    "website_url": "",
    "phone": "7857548344",
    "created_at": "2018-07-24 01:33:24.673361",
    "updated_at": "2018-08-11 21:37:25.625033",
    "country": "United States",
    "longitude": "",
    "latitude": ""
  },
  {
    "id": "2831",
    "name": "Defiance Brewing Co.",
    "brewery_type": "micro",
    "street": "2050 E US Highway 40",
    "city": "Hays",
    "state": "Kansas",
    "postal_code": "67601-9310",
    "website_url": "http://www.defiancebeer.com",
    "phone": "7853012337",
    "created_at": "2018-07-24 01:33:24.698466",
    "updated_at": "2018-08-11 21:37:25.682865",
    "country": "United States",
    "longitude": "",
    "latitude": ""
  },
  {
    "id": "2843",
    "name": "Kansas City Breweries Company",
    "brewery_type": "proprietor",
    "street": "12650 S Pflumm Rd Ste 202",
    "city": "Olathe",
    "state": "Kansas",
    "postal_code": "66062-3895",
    "website_url": "http://www.KCLite.com",
    "phone": "8163016313",
    "created_at": "2018-07-24 01:33:24.849083",
    "updated_at": "2018-08-11 21:37:26.054772",
    "country": "United States",
    "longitude": "",
    "latitude": ""
  },
  {
    "id": "2846",
    "name": "Limestone Beer Co",
    "brewery_type": "brewpub",
    "street": "707 N Waco Ave Ste 105",
    "city": "Wichita",
    "state": "Kansas",
    "postal_code": "67203-3944",
    "website_url": "http://www.limestonebeerco.com",
    "phone": "3167296200",
    "created_at": "2018-07-24 01:33:24.888258",
    "updated_at": "2018-08-11 21:37:26.148408",
    "country": "United States",
    "longitude": "",
    "latitude": ""
  },
  {
    "id": "2847",
    "name": "Limitless Brewing",
    "brewery_type": "planning",
    "street": "",
    "city": "Lenexa",
    "state": "Kansas",
    "postal_code": "66215-1260",
    "website_url": "http://www.limitlessbrewing.com",
    "phone": "",
    "created_at": "2018-07-24 01:33:24.90133",
    "updated_at": "2018-08-11 21:37:26.179834",
    "country": "United States",
    "longitude": "",
    "latitude": ""
  },
  {
    "id": "2821",
    "name": "23rd Street Brewery",
    "brewery_type": "brewpub",
    "street": "3512 Clinton Pkwy",
    "city": "Lawrence",
    "state": "Kansas",
    "postal_code": "66047-2145",
    "website_url": "http://www.brew23.com",
    "phone": "7858562337",
    "created_at": "2018-07-24 01:33:24.550504",
    "updated_at": "2018-08-24 00:38:19.427771",
    "country": "United States",
    "longitude": "-95.280933528393",
    "latitude": "38.9429674"
  },
  {
    "id": "2822",
    "name": "Aero Plains Brewing",
    "brewery_type": "micro",
    "street": "117 N Handley St",
    "city": "Wichita",
    "state": "Kansas",
    "postal_code": "67203-6114",
    "website_url": "http://www.aeroplainsbrewing.com",
    "phone": "3164482811",
    "created_at": "2018-07-24 01:33:24.566785",
    "updated_at": "2018-08-24 00:38:19.927732",
    "country": "United States",
    "longitude": "-97.3507113076923",
    "latitude": "37.6845505384615"
  },
  {
    "id": "2823",
    "name": "Augustino Brewing",
    "brewery_type": "brewpub",
    "street": "756 N Tyler Rd",
    "city": "Wichita",
    "state": "Kansas",
    "postal_code": "67212-3617",
    "website_url": "http://www.augustinobrew.com",
    "phone": "3167215554",
    "created_at": "2018-07-24 01:33:24.580576",
    "updated_at": "2018-08-24 00:38:20.592185",
    "country": "United States",
    "longitude": "-97.4443146791225",
    "latitude": "37.6951732841756"
  },
  {
    "id": "2824",
    "name": "Beaver Brewery At Mo's Place",
    "brewery_type": "brewpub",
    "street": "1908 Elm St",
    "city": "Beaver",
    "state": "Kansas",
    "postal_code": "67525-9231",
    "website_url": "http://www.mosbrewpub.com",
    "phone": "6205872350",
    "created_at": "2018-07-24 01:33:24.592912",
    "updated_at": "2018-08-24 00:38:21.182243",
    "country": "United States",
    "longitude": "-98.667933",
    "latitude": "38.639049"
  },
  {
    "id": "2825",
    "name": "Blind Tiger Brewery & Restaurant",
    "brewery_type": "brewpub",
    "street": "417 SW 37th St",
    "city": "Topeka",
    "state": "Kansas",
    "postal_code": "66611-2354",
    "website_url": "http://www.blindtiger.com",
    "phone": "7852672739",
    "created_at": "2018-07-24 01:33:24.624657",
    "updated_at": "2018-08-24 00:38:21.655616",
    "country": "United States",
    "longitude": "-95.6846745",
    "latitude": "39.0002602"
  },
  {
    "id": "2826",
    "name": "Blue Skye Brewery",
    "brewery_type": "brewpub",
    "street": "116 N Santa Fe Ave",
    "city": "Salina",
    "state": "Kansas",
    "postal_code": "67401-2614",
    "website_url": "http://blueskyebrewery.com",
    "phone": "7854521234",
    "created_at": "2018-07-24 01:33:24.637584",
    "updated_at": "2018-08-24 00:38:22.138615",
    "country": "United States",
    "longitude": "-97.608998",
    "latitude": "38.8410029597126"
  },
  {
    "id": "2827",
    "name": "Brew Lab",
    "brewery_type": "brewpub",
    "street": "7925 Marty St",
    "city": "Overland Park",
    "state": "Kansas",
    "postal_code": "66204-3727",
    "website_url": "http://www.brewlabkc.com",
    "phone": "9134002343",
    "created_at": "2018-07-24 01:33:24.649931",
    "updated_at": "2018-08-24 00:38:22.692578",
    "country": "United States",
    "longitude": "-94.6699392655762",
    "latitude": "38.9856874847753"
  },
  {
    "id": "2830",
    "name": "Central Standard Brewing",
    "brewery_type": "micro",
    "street": "156 S Greenwood St",
    "city": "Wichita",
    "state": "Kansas",
    "postal_code": "67211-1815",
    "website_url": "http://www.drinkcsb.com",
    "phone": "3162608515",
    "created_at": "2018-07-24 01:33:24.68565",
    "updated_at": "2018-08-24 00:38:23.213662",
    "country": "United States",
    "longitude": "-97.3184245",
    "latitude": "37.6846165"
  },
  {
    "id": "2835",
    "name": "Free State Brewing Co - Production",
    "brewery_type": "micro",
    "street": "1923 Moodie Rd",
    "city": "Lawrence",
    "state": "Kansas",
    "postal_code": "66046-3167",
    "website_url": "",
    "phone": "",
    "created_at": "2018-07-24 01:33:24.746131",
    "updated_at": "2018-08-24 00:38:25.293846",
    "country": "United States",
    "longitude": "-95.2258626448196",
    "latitude": "38.9496728381604"
  },
  {
    "id": "2837",
    "name": "Granite City Food & Brewery (#12)",
    "brewery_type": "brewpub",
    "street": "1701 Village West Pkwy",
    "city": "Kansas City",
    "state": "Kansas",
    "postal_code": "66111-1879",
    "website_url": "http://www.gcfb.net",
    "phone": "9133342255",
    "created_at": "2018-07-24 01:33:24.773672",
    "updated_at": "2018-08-24 00:38:26.318717",
    "country": "United States",
    "longitude": "-94.8239539",
    "latitude": "39.1233376"
  },
  {
    "id": "2838",
    "name": "Granite City Food & Brewery (#13)",
    "brewery_type": "brewpub",
    "street": "15085 W 119th St",
    "city": "Olathe",
    "state": "Kansas",
    "postal_code": "66062-9628",
    "website_url": "http://www.gcfb.net",
    "phone": "9138296060",
    "created_at": "2018-07-24 01:33:24.785828",
    "updated_at": "2018-08-24 00:38:26.822341",
    "country": "United States",
    "longitude": "-94.7599529591056",
    "latitude": "38.9126838867867"
  },
  {
    "id": "2839",
    "name": "Grinderâs High Noon Brewery",
    "brewery_type": "brewpub",
    "street": "206 Choctaw St",
    "city": "Leavenworth",
    "state": "Kansas",
    "postal_code": "66048-2821",
    "website_url": "http://info@grindershighnoon.com",
    "phone": "9136511000",
    "created_at": "2018-07-24 01:33:24.798626",
    "updated_at": "2018-08-24 00:38:27.354499",
    "country": "United States",
    "longitude": "-94.9105246530612",
    "latitude": "39.3168365102041"
  },
  {
    "id": "2840",
    "name": "Hank Is Wiser Brewery",
    "brewery_type": "brewpub",
    "street": "213 N Main St",
    "city": "Cheney",
    "state": "Kansas",
    "postal_code": "67025-9730",
    "website_url": "http://www.hankiswiserbrewery.com",
    "phone": "3165420113",
    "created_at": "2018-07-24 01:33:24.810649",
    "updated_at": "2018-08-24 00:38:27.844296",
    "country": "United States",
    "longitude": "-97.7812688979592",
    "latitude": "37.628209244898"
  },
  {
    "id": "2841",
    "name": "Happy Basset Brewing Company",
    "brewery_type": "micro",
    "street": "6044 SW 29th St",
    "city": "Topeka",
    "state": "Kansas",
    "postal_code": "66614-4268",
    "website_url": "http://www.happybassetbrewingco.com",
    "phone": "7857833688",
    "created_at": "2018-07-24 01:33:24.823959",
    "updated_at": "2018-08-24 00:38:28.366484",
    "country": "United States",
    "longitude": "-95.7637047017646",
    "latitude": "39.0146636085526"
  },
  {
    "id": "2842",
    "name": "Hopping Gnome Brewing Company",
    "brewery_type": "micro",
    "street": "1710 E Douglas Ave",
    "city": "Wichita",
    "state": "Kansas",
    "postal_code": "67214-4212",
    "website_url": "http://www.hoppinggnome.com",
    "phone": "",
    "created_at": "2018-07-24 01:33:24.836753",
    "updated_at": "2018-08-24 00:38:28.983799",
    "country": "United States",
    "longitude": "-97.3335112",
    "latitude": "37.6860464"
  },
  {
    "id": "2844",
    "name": "Kansas Territory Brewing",
    "brewery_type": "micro",
    "street": "310 C St",
    "city": "Washington",
    "state": "Kansas",
    "postal_code": "66968-1909",
    "website_url": "",
    "phone": "7853253300",
    "created_at": "2018-07-24 01:33:24.862188",
    "updated_at": "2018-08-24 00:38:29.982624",
    "country": "United States",
    "longitude": "-97.0511837959184",
    "latitude": "39.8165541836735"
  },
  {
    "id": "2845",
    "name": "Lawrence Beer Company",
    "brewery_type": "brewpub",
    "street": "826 Pennsylvania St",
    "city": "Lawrence",
    "state": "Kansas",
    "postal_code": "66044-2754",
    "website_url": "http://www.lawrencebeerco.com",
    "phone": "7858560453",
    "created_at": "2018-07-24 01:33:24.875615",
    "updated_at": "2018-08-24 00:38:30.436497",
    "country": "United States",
    "longitude": "-95.2285539",
    "latitude": "38.9683511"
  },
  {
    "id": "2848",
    "name": "Little Apple Brewing Co",
    "brewery_type": "micro",
    "street": "1110 Westloop Pl",
    "city": "Manhattan",
    "state": "Kansas",
    "postal_code": "66502-2838",
    "website_url": "http://www.littleapplebrewery.com",
    "phone": "7855395500",
    "created_at": "2018-07-24 01:33:24.9147",
    "updated_at": "2018-08-24 00:38:31.349637",
    "country": "United States",
    "longitude": "-96.6083689",
    "latitude": "39.1915231"
  },
  {
    "id": "2852",
    "name": "Red Crow Brewing Company",
    "brewery_type": "micro",
    "street": "",
    "city": "Olathe",
    "state": "Kansas",
    "postal_code": "66062",
    "website_url": "http://www.redcrowbrew.com",
    "phone": "9132473641",
    "created_at": "2018-07-24 01:33:24.966206",
    "updated_at": "2018-08-11 21:37:26.364433",
    "country": "United States",
    "longitude": "",
    "latitude": ""
  },
  {
    "id": "2853",
    "name": "River City Brewing Co",
    "brewery_type": "brewpub",
    "street": "150 N Mosley St",
    "city": "Wichita",
    "state": "Kansas",
    "postal_code": "67202-2804",
    "website_url": "http://rivercitybrewingco.com",
    "phone": "3162632739",
    "created_at": "2018-07-24 01:33:24.978562",
    "updated_at": "2018-08-11 21:37:26.397894",
    "country": "United States",
    "longitude": "",
    "latitude": ""
  },
  {
    "id": "2858",
    "name": "The Jolly Fox Brewery",
    "brewery_type": "planning",
    "street": "",
    "city": "Pittsburg",
    "state": "Kansas",
    "postal_code": "66762",
    "website_url": "http://Www.thejollyfoxbrrewery.com",
    "phone": "",
    "created_at": "2018-07-24 01:33:25.070567",
    "updated_at": "2018-08-11 21:37:26.54036",
    "country": "United States",
    "longitude": "",
    "latitude": ""
  },
  {
    "id": "2859",
    "name": "Third Place Brewing",
    "brewery_type": "micro",
    "street": "630 E Douglas Ave  Suite #150",
    "city": "Wichita",
    "state": "Kansas",
    "postal_code": "67202-3537",
    "website_url": "http://www.thirdplacebrew.com",
    "phone": "",
    "created_at": "2018-07-24 01:33:25.085004",
    "updated_at": "2018-08-11 21:37:26.568137",
    "country": "United States",
    "longitude": "",
    "latitude": ""
  },
  {
    "id": "2860",
    "name": "Three Rings Brewery",
    "brewery_type": "micro",
    "street": "536 South Old Highway 81",
    "city": "McPherson",
    "state": "Kansas",
    "postal_code": "67401-6026",
    "website_url": "",
    "phone": "6205045022",
    "created_at": "2018-07-24 01:33:25.097525",
    "updated_at": "2018-08-11 21:37:26.599147",
    "country": "United States",
    "longitude": "",
    "latitude": ""
  },
  {
    "id": "2861",
    "name": "Transport Brewery",
    "brewery_type": "planning",
    "street": "",
    "city": "Shawnee",
    "state": "Kansas",
    "postal_code": "66203-2749",
    "website_url": "http://www.transportbrewery.com",
    "phone": "",
    "created_at": "2018-07-24 01:33:25.109708",
    "updated_at": "2018-08-11 21:37:26.638848",
    "country": "United States",
    "longitude": "",
    "latitude": ""
  },
  {
    "id": "2862",
    "name": "Union Works Brewery LLC",
    "brewery_type": "planning",
    "street": "",
    "city": "Humboldt",
    "state": "Kansas",
    "postal_code": "66748-1050",
    "website_url": "",
    "phone": "",
    "created_at": "2018-07-24 01:33:25.121622",
    "updated_at": "2018-08-11 21:37:26.668891",
    "country": "United States",
    "longitude": "",
    "latitude": ""
  },
  {
    "id": "2864",
    "name": "Wichita Brewing Co & Pizzeria",
    "brewery_type": "brewpub",
    "street": "8815 W 13th St N Ste 100",
    "city": "Wichita",
    "state": "Kansas",
    "postal_code": "67212-4072",
    "website_url": "http://www.wichitabrew.com",
    "phone": "3162101641",
    "created_at": "2018-07-24 01:33:25.145441",
    "updated_at": "2018-08-11 21:37:26.722078",
    "country": "United States",
    "longitude": "",
    "latitude": ""
  },
  {
    "id": "2867",
    "name": "Willcott Brewing Company",
    "brewery_type": "planning",
    "street": "",
    "city": "Holton",
    "state": "Kansas",
    "postal_code": "66436-1703",
    "website_url": "http://www.willcottbrewing.com",
    "phone": "7853381611",
    "created_at": "2018-07-24 01:33:25.199106",
    "updated_at": "2018-08-11 21:37:26.818241",
    "country": "United States",
    "longitude": "",
    "latitude": ""
  },
  {
    "id": "2868",
    "name": "Yankee Tank Brewing Company",
    "brewery_type": "micro",
    "street": "807 E 23rd St Ste J",
    "city": "Lawrence",
    "state": "Kansas",
    "postal_code": "66046-4952",
    "website_url": "http://yankeetankbrewing.com",
    "phone": "7852339333",
    "created_at": "2018-07-24 01:33:25.212761",
    "updated_at": "2018-08-11 21:37:26.852105",
    "country": "United States",
    "longitude": "",
    "latitude": ""
  },
  {
    "id": "2850",
    "name": "Nortons Brewing Co.",
    "brewery_type": "brewpub",
    "street": "125 N Saint Francis St",
    "city": "Wichita",
    "state": "Kansas",
    "postal_code": "67202-2607",
    "website_url": "http://www.nortonsbrewing.com",
    "phone": "3166446067",
    "created_at": "2018-07-24 01:33:24.942036",
    "updated_at": "2018-08-24 00:38:32.312329",
    "country": "United States",
    "longitude": "-97.331744",
    "latitude": "37.6865778367347"
  },
  {
    "id": "2855",
    "name": "Tallgrass Brewing Co",
    "brewery_type": "regional",
    "street": "5960 Dry Hop Cir",
    "city": "Manhattan",
    "state": "Kansas",
    "postal_code": "66503-9815",
    "website_url": "http://www.tallgrassbeer.com",
    "phone": "7855371131",
    "created_at": "2018-07-24 01:33:25.03339",
    "updated_at": "2018-08-24 00:38:34.213544",
    "country": "United States",
    "longitude": "-96.6792762",
    "latitude": "39.1428736"
  },
  {
    "id": "2856",
    "name": "Tallgrass Taphouse Co",
    "brewery_type": "brewpub",
    "street": "320 Poyntz Ave",
    "city": "Manhattan",
    "state": "Kansas",
    "postal_code": "66502-6038",
    "website_url": "http://www.tallgrasstaphouse.com",
    "phone": "7853202933",
    "created_at": "2018-07-24 01:33:25.046852",
    "updated_at": "2018-08-24 00:38:34.656841",
    "country": "United States",
    "longitude": "-96.561291",
    "latitude": "39.1795046"
  },
  {
    "id": "2863",
    "name": "Walnut River Brewing Company",
    "brewery_type": "micro",
    "street": "111 W Locust Ave",
    "city": "El Dorado",
    "state": "Kansas",
    "postal_code": "67042-3513",
    "website_url": "http://www.walnutriverbrewing.com",
    "phone": "3163518086",
    "created_at": "2018-07-24 01:33:25.13327",
    "updated_at": "2018-08-24 00:38:36.53539",
    "country": "United States",
    "longitude": "-96.8500486938776",
    "latitude": "37.8136754897959"
  },
  {
    "id": "2865",
    "name": "Wichita Brewing Co & Pizzeria",
    "brewery_type": "brewpub",
    "street": "535 N Woodlawn St",
    "city": "Wichita",
    "state": "Kansas",
    "postal_code": "67208-3668",
    "website_url": "http://www.wichitabrew.com",
    "phone": "3164404885",
    "created_at": "2018-07-24 01:33:25.162581",
    "updated_at": "2018-08-24 00:38:37.571488",
    "country": "United States",
    "longitude": "-97.262463",
    "latitude": "37.74682"
  },
  {
    "id": "2866",
    "name": "Wichita Brewing Co Production, LLC",
    "brewery_type": "micro",
    "street": "727 E Osie St",
    "city": "Wichita",
    "state": "Kansas",
    "postal_code": "67211-4327",
    "website_url": "",
    "phone": "",
    "created_at": "2018-07-24 01:33:25.185014",
    "updated_at": "2018-08-24 00:38:38.056718",
    "country": "United States",
    "longitude": "-97.3298394081633",
    "latitude": "37.6624456530612"
  },
  {
    "id": "2832",
    "name": "Dodge City Brewing",
    "brewery_type": "brewpub",
    "street": "701 3rd Ave",
    "city": "Dodge City",
    "state": "Kansas",
    "postal_code": "67801-4336",
    "website_url": "http://www.dodgecitybrewing.com",
    "phone": "6203713999",
    "created_at": "2018-07-24 01:33:24.710305",
    "updated_at": "2018-08-24 00:38:24.216815",
    "country": "United States",
    "longitude": "-100.020307",
    "latitude": "37.754632"
  },
  {
    "id": "2836",
    "name": "Gella's Diner & Liquid Bread Brewing Co",
    "brewery_type": "brewpub",
    "street": "117 E 11th St",
    "city": "Hays",
    "state": "Kansas",
    "postal_code": "67601-3603",
    "website_url": "http://www.lbbrewing.com",
    "phone": "7856212739",
    "created_at": "2018-07-24 01:33:24.761373",
    "updated_at": "2018-08-24 00:38:25.819507",
    "country": "United States",
    "longitude": "-99.3290903265306",
    "latitude": "38.8717449183673"
  },
  {
    "id": "2857",
    "name": "The Boiler Room Brewhaus LLC",
    "brewery_type": "micro",
    "street": "10 S National Ave",
    "city": "Fort Scott",
    "state": "Kansas",
    "postal_code": "66701-1311",
    "website_url": "http://www.Boileroombrewhaus.com",
    "phone": "6202232702",
    "created_at": "2018-07-24 01:33:25.059113",
    "updated_at": "2018-08-24 00:38:35.137894",
    "country": "United States",
    "longitude": "-94.70741825",
    "latitude": "37.8410384166667"
  },
  {
    "id": "2834",
    "name": "Free State Brewing Co",
    "brewery_type": "brewpub",
    "street": "636 Massachusetts St",
    "city": "Lawrence",
    "state": "Kansas",
    "postal_code": "66044-2236",
    "website_url": "http://www.freestatebrewing.com",
    "phone": "7858434555",
    "created_at": "2018-07-24 01:33:24.734412",
    "updated_at": "2018-08-24 00:38:24.761939",
    "country": "United States",
    "longitude": "-95.2358091579129",
    "latitude": "38.9724346875125"
  },
  {
    "id": "2849",
    "name": "Norsemen Brewing Co.",
    "brewery_type": "micro",
    "street": "830 N Kansas Ave",
    "city": "Topeka",
    "state": "Kansas",
    "postal_code": "66608-1211",
    "website_url": "http://www.norsemenbrewingco.com",
    "phone": "7856085065",
    "created_at": "2018-07-24 01:33:24.928953",
    "updated_at": "2018-08-24 00:38:31.829744",
    "country": "United States",
    "longitude": "-95.6663741987798",
    "latitude": "39.06706165"
  },
  {
    "id": "2851",
    "name": "Radius Brewing Company",
    "brewery_type": "micro",
    "street": "610 Merchant St",
    "city": "Emporia",
    "state": "Kansas",
    "postal_code": "66801-2859",
    "website_url": "http://radiusbrewing@yahoo.com",
    "phone": "6202084677",
    "created_at": "2018-07-24 01:33:24.954265",
    "updated_at": "2018-08-24 00:38:32.80248",
    "country": "United States",
    "longitude": "-96.1813070612245",
    "latitude": "38.4052199591837"
  },
  {
    "id": "2854",
    "name": "Salt City Brewing",
    "brewery_type": "micro",
    "street": "514 N Main Street",
    "city": "Hutchinson",
    "state": "Kansas",
    "postal_code": "67501",
    "website_url": "",
    "phone": "6209606210",
    "created_at": "2018-07-24 01:33:24.989617",
    "updated_at": "2018-08-24 00:38:33.791146",
    "country": "United States",
    "longitude": "-97.9317530573845",
    "latitude": "38.0586914288921"
  },
  {
    "id": "2833",
    "name": "Fields & Ivy Brewery",
    "brewery_type": "planning",
    "street": "",
    "city": "Olathe",
    "state": "Kansas",
    "postal_code": "66061-7464",
    "website_url": "",
    "phone": "9136710349",
    "created_at": "2018-07-24 01:33:24.721968",
    "updated_at": "2018-08-11 21:37:25.745242",
    "country": "United States",
    "longitude": "",
    "latitude": ""
  },
  {
    "id": "2828",
    "name": "Brewery in Planning - Burlington",
    "brewery_type": "planning",
    "street": "",
    "city": "Burlington",
    "state": "Kansas",
    "postal_code": "66839-9200",
    "website_url": "",
    "phone": "7856332062",
    "created_at": "2018-07-24 01:33:24.66175",
    "updated_at": "2018-08-11 21:37:25.593668",
    "country": "United States",
    "longitude": "",
    "latitude": ""
  },
  {
    "id": "2829",
    "name": "Center Pivot",
    "brewery_type": "planning",
    "street": "",
    "city": "Quinter",
    "state": "Kansas",
    "postal_code": "67752",
    "website_url": "",
    "phone": "7857548344",
    "created_at": "2018-07-24 01:33:24.673361",
    "updated_at": "2018-08-11 21:37:25.625033",
    "country": "United States",
    "longitude": "",
    "latitude": ""
  },
  {
    "id": "2831",
    "name": "Defiance Brewing Co.",
    "brewery_type": "micro",
    "street": "2050 E US Highway 40",
    "city": "Hays",
    "state": "Kansas",
    "postal_code": "67601-9310",
    "website_url": "http://www.defiancebeer.com",
    "phone": "7853012337",
    "created_at": "2018-07-24 01:33:24.698466",
    "updated_at": "2018-08-11 21:37:25.682865",
    "country": "United States",
    "longitude": "",
    "latitude": ""
  },
  {
    "id": "2843",
    "name": "Kansas City Breweries Company",
    "brewery_type": "proprietor",
    "street": "12650 S Pflumm Rd Ste 202",
    "city": "Olathe",
    "state": "Kansas",
    "postal_code": "66062-3895",
    "website_url": "http://www.KCLite.com",
    "phone": "8163016313",
    "created_at": "2018-07-24 01:33:24.849083",
    "updated_at": "2018-08-11 21:37:26.054772",
    "country": "United States",
    "longitude": "",
    "latitude": ""
  },
  {
    "id": "2846",
    "name": "Limestone Beer Co",
    "brewery_type": "brewpub",
    "street": "707 N Waco Ave Ste 105",
    "city": "Wichita",
    "state": "Kansas",
    "postal_code": "67203-3944",
    "website_url": "http://www.limestonebeerco.com",
    "phone": "3167296200",
    "created_at": "2018-07-24 01:33:24.888258",
    "updated_at": "2018-08-11 21:37:26.148408",
    "country": "United States",
    "longitude": "",
    "latitude": ""
  },
  {
    "id": "2847",
    "name": "Limitless Brewing",
    "brewery_type": "planning",
    "street": "",
    "city": "Lenexa",
    "state": "Kansas",
    "postal_code": "66215-1260",
    "website_url": "http://www.limitlessbrewing.com",
    "phone": "",
    "created_at": "2018-07-24 01:33:24.90133",
    "updated_at": "2018-08-11 21:37:26.179834",
    "country": "United States",
    "longitude": "",
    "latitude": ""
  },
  {
    "id": "2821",
    "name": "23rd Street Brewery",
    "brewery_type": "brewpub",
    "street": "3512 Clinton Pkwy",
    "city": "Lawrence",
    "state": "Kansas",
    "postal_code": "66047-2145",
    "website_url": "http://www.brew23.com",
    "phone": "7858562337",
    "created_at": "2018-07-24 01:33:24.550504",
    "updated_at": "2018-08-24 00:38:19.427771",
    "country": "United States",
    "longitude": "-95.280933528393",
    "latitude": "38.9429674"
  },
  {
    "id": "2822",
    "name": "Aero Plains Brewing",
    "brewery_type": "micro",
    "street": "117 N Handley St",
    "city": "Wichita",
    "state": "Kansas",
    "postal_code": "67203-6114",
    "website_url": "http://www.aeroplainsbrewing.com",
    "phone": "3164482811",
    "created_at": "2018-07-24 01:33:24.566785",
    "updated_at": "2018-08-24 00:38:19.927732",
    "country": "United States",
    "longitude": "-97.3507113076923",
    "latitude": "37.6845505384615"
  },
  {
    "id": "2823",
    "name": "Augustino Brewing",
    "brewery_type": "brewpub",
    "street": "756 N Tyler Rd",
    "city": "Wichita",
    "state": "Kansas",
    "postal_code": "67212-3617",
    "website_url": "http://www.augustinobrew.com",
    "phone": "3167215554",
    "created_at": "2018-07-24 01:33:24.580576",
    "updated_at": "2018-08-24 00:38:20.592185",
    "country": "United States",
    "longitude": "-97.4443146791225",
    "latitude": "37.6951732841756"
  },
  {
    "id": "2824",
    "name": "Beaver Brewery At Mo's Place",
    "brewery_type": "brewpub",
    "street": "1908 Elm St",
    "city": "Beaver",
    "state": "Kansas",
    "postal_code": "67525-9231",
    "website_url": "http://www.mosbrewpub.com",
    "phone": "6205872350",
    "created_at": "2018-07-24 01:33:24.592912",
    "updated_at": "2018-08-24 00:38:21.182243",
    "country": "United States",
    "longitude": "-98.667933",
    "latitude": "38.639049"
  },
  {
    "id": "2825",
    "name": "Blind Tiger Brewery & Restaurant",
    "brewery_type": "brewpub",
    "street": "417 SW 37th St",
    "city": "Topeka",
    "state": "Kansas",
    "postal_code": "66611-2354",
    "website_url": "http://www.blindtiger.com",
    "phone": "7852672739",
    "created_at": "2018-07-24 01:33:24.624657",
    "updated_at": "2018-08-24 00:38:21.655616",
    "country": "United States",
    "longitude": "-95.6846745",
    "latitude": "39.0002602"
  },
  {
    "id": "2826",
    "name": "Blue Skye Brewery",
    "brewery_type": "brewpub",
    "street": "116 N Santa Fe Ave",
    "city": "Salina",
    "state": "Kansas",
    "postal_code": "67401-2614",
    "website_url": "http://blueskyebrewery.com",
    "phone": "7854521234",
    "created_at": "2018-07-24 01:33:24.637584",
    "updated_at": "2018-08-24 00:38:22.138615",
    "country": "United States",
    "longitude": "-97.608998",
    "latitude": "38.8410029597126"
  },
  {
    "id": "2827",
    "name": "Brew Lab",
    "brewery_type": "brewpub",
    "street": "7925 Marty St",
    "city": "Overland Park",
    "state": "Kansas",
    "postal_code": "66204-3727",
    "website_url": "http://www.brewlabkc.com",
    "phone": "9134002343",
    "created_at": "2018-07-24 01:33:24.649931",
    "updated_at": "2018-08-24 00:38:22.692578",
    "country": "United States",
    "longitude": "-94.6699392655762",
    "latitude": "38.9856874847753"
  },
  {
    "id": "2830",
    "name": "Central Standard Brewing",
    "brewery_type": "micro",
    "street": "156 S Greenwood St",
    "city": "Wichita",
    "state": "Kansas",
    "postal_code": "67211-1815",
    "website_url": "http://www.drinkcsb.com",
    "phone": "3162608515",
    "created_at": "2018-07-24 01:33:24.68565",
    "updated_at": "2018-08-24 00:38:23.213662",
    "country": "United States",
    "longitude": "-97.3184245",
    "latitude": "37.6846165"
  },
  {
    "id": "2835",
    "name": "Free State Brewing Co - Production",
    "brewery_type": "micro",
    "street": "1923 Moodie Rd",
    "city": "Lawrence",
    "state": "Kansas",
    "postal_code": "66046-3167",
    "website_url": "",
    "phone": "",
    "created_at": "2018-07-24 01:33:24.746131",
    "updated_at": "2018-08-24 00:38:25.293846",
    "country": "United States",
    "longitude": "-95.2258626448196",
    "latitude": "38.9496728381604"
  },
  {
    "id": "2837",
    "name": "Granite City Food & Brewery (#12)",
    "brewery_type": "brewpub",
    "street": "1701 Village West Pkwy",
    "city": "Kansas City",
    "state": "Kansas",
    "postal_code": "66111-1879",
    "website_url": "http://www.gcfb.net",
    "phone": "9133342255",
    "created_at": "2018-07-24 01:33:24.773672",
    "updated_at": "2018-08-24 00:38:26.318717",
    "country": "United States",
    "longitude": "-94.8239539",
    "latitude": "39.1233376"
  },
  {
    "id": "2838",
    "name": "Granite City Food & Brewery (#13)",
    "brewery_type": "brewpub",
    "street": "15085 W 119th St",
    "city": "Olathe",
    "state": "Kansas",
    "postal_code": "66062-9628",
    "website_url": "http://www.gcfb.net",
    "phone": "9138296060",
    "created_at": "2018-07-24 01:33:24.785828",
    "updated_at": "2018-08-24 00:38:26.822341",
    "country": "United States",
    "longitude": "-94.7599529591056",
    "latitude": "38.9126838867867"
  },
  {
    "id": "2839",
    "name": "Grinderâs High Noon Brewery",
    "brewery_type": "brewpub",
    "street": "206 Choctaw St",
    "city": "Leavenworth",
    "state": "Kansas",
    "postal_code": "66048-2821",
    "website_url": "http://info@grindershighnoon.com",
    "phone": "9136511000",
    "created_at": "2018-07-24 01:33:24.798626",
    "updated_at": "2018-08-24 00:38:27.354499",
    "country": "United States",
    "longitude": "-94.9105246530612",
    "latitude": "39.3168365102041"
  },
  {
    "id": "2840",
    "name": "Hank Is Wiser Brewery",
    "brewery_type": "brewpub",
    "street": "213 N Main St",
    "city": "Cheney",
    "state": "Kansas",
    "postal_code": "67025-9730",
    "website_url": "http://www.hankiswiserbrewery.com",
    "phone": "3165420113",
    "created_at": "2018-07-24 01:33:24.810649",
    "updated_at": "2018-08-24 00:38:27.844296",
    "country": "United States",
    "longitude": "-97.7812688979592",
    "latitude": "37.628209244898"
  },
  {
    "id": "2841",
    "name": "Happy Basset Brewing Company",
    "brewery_type": "micro",
    "street": "6044 SW 29th St",
    "city": "Topeka",
    "state": "Kansas",
    "postal_code": "66614-4268",
    "website_url": "http://www.happybassetbrewingco.com",
    "phone": "7857833688",
    "created_at": "2018-07-24 01:33:24.823959",
    "updated_at": "2018-08-24 00:38:28.366484",
    "country": "United States",
    "longitude": "-95.7637047017646",
    "latitude": "39.0146636085526"
  },
  {
    "id": "2842",
    "name": "Hopping Gnome Brewing Company",
    "brewery_type": "micro",
    "street": "1710 E Douglas Ave",
    "city": "Wichita",
    "state": "Kansas",
    "postal_code": "67214-4212",
    "website_url": "http://www.hoppinggnome.com",
    "phone": "",
    "created_at": "2018-07-24 01:33:24.836753",
    "updated_at": "2018-08-24 00:38:28.983799",
    "country": "United States",
    "longitude": "-97.3335112",
    "latitude": "37.6860464"
  },
  {
    "id": "2844",
    "name": "Kansas Territory Brewing",
    "brewery_type": "micro",
    "street": "310 C St",
    "city": "Washington",
    "state": "Kansas",
    "postal_code": "66968-1909",
    "website_url": "",
    "phone": "7853253300",
    "created_at": "2018-07-24 01:33:24.862188",
    "updated_at": "2018-08-24 00:38:29.982624",
    "country": "United States",
    "longitude": "-97.0511837959184",
    "latitude": "39.8165541836735"
  },
  {
    "id": "2845",
    "name": "Lawrence Beer Company",
    "brewery_type": "brewpub",
    "street": "826 Pennsylvania St",
    "city": "Lawrence",
    "state": "Kansas",
    "postal_code": "66044-2754",
    "website_url": "http://www.lawrencebeerco.com",
    "phone": "7858560453",
    "created_at": "2018-07-24 01:33:24.875615",
    "updated_at": "2018-08-24 00:38:30.436497",
    "country": "United States",
    "longitude": "-95.2285539",
    "latitude": "38.9683511"
  },
  {
    "id": "2848",
    "name": "Little Apple Brewing Co",
    "brewery_type": "micro",
    "street": "1110 Westloop Pl",
    "city": "Manhattan",
    "state": "Kansas",
    "postal_code": "66502-2838",
    "website_url": "http://www.littleapplebrewery.com",
    "phone": "7855395500",
    "created_at": "2018-07-24 01:33:24.9147",
    "updated_at": "2018-08-24 00:38:31.349637",
    "country": "United States",
    "longitude": "-96.6083689",
    "latitude": "39.1915231"
  },
  {
    "id": "2852",
    "name": "Red Crow Brewing Company",
    "brewery_type": "micro",
    "street": "",
    "city": "Olathe",
    "state": "Kansas",
    "postal_code": "66062",
    "website_url": "http://www.redcrowbrew.com",
    "phone": "9132473641",
    "created_at": "2018-07-24 01:33:24.966206",
    "updated_at": "2018-08-11 21:37:26.364433",
    "country": "United States",
    "longitude": "",
    "latitude": ""
  },
  {
    "id": "2853",
    "name": "River City Brewing Co",
    "brewery_type": "brewpub",
    "street": "150 N Mosley St",
    "city": "Wichita",
    "state": "Kansas",
    "postal_code": "67202-2804",
    "website_url": "http://rivercitybrewingco.com",
    "phone": "3162632739",
    "created_at": "2018-07-24 01:33:24.978562",
    "updated_at": "2018-08-11 21:37:26.397894",
    "country": "United States",
    "longitude": "",
    "latitude": ""
  },
  {
    "id": "2858",
    "name": "The Jolly Fox Brewery",
    "brewery_type": "planning",
    "street": "",
    "city": "Pittsburg",
    "state": "Kansas",
    "postal_code": "66762",
    "website_url": "http://Www.thejollyfoxbrrewery.com",
    "phone": "",
    "created_at": "2018-07-24 01:33:25.070567",
    "updated_at": "2018-08-11 21:37:26.54036",
    "country": "United States",
    "longitude": "",
    "latitude": ""
  },
  {
    "id": "2859",
    "name": "Third Place Brewing",
    "brewery_type": "micro",
    "street": "630 E Douglas Ave  Suite #150",
    "city": "Wichita",
    "state": "Kansas",
    "postal_code": "67202-3537",
    "website_url": "http://www.thirdplacebrew.com",
    "phone": "",
    "created_at": "2018-07-24 01:33:25.085004",
    "updated_at": "2018-08-11 21:37:26.568137",
    "country": "United States",
    "longitude": "",
    "latitude": ""
  },
  {
    "id": "2860",
    "name": "Three Rings Brewery",
    "brewery_type": "micro",
    "street": "536 South Old Highway 81",
    "city": "McPherson",
    "state": "Kansas",
    "postal_code": "67401-6026",
    "website_url": "",
    "phone": "6205045022",
    "created_at": "2018-07-24 01:33:25.097525",
    "updated_at": "2018-08-11 21:37:26.599147",
    "country": "United States",
    "longitude": "",
    "latitude": ""
  },
  {
    "id": "2861",
    "name": "Transport Brewery",
    "brewery_type": "planning",
    "street": "",
    "city": "Shawnee",
    "state": "Kansas",
    "postal_code": "66203-2749",
    "website_url": "http://www.transportbrewery.com",
    "phone": "",
    "created_at": "2018-07-24 01:33:25.109708",
    "updated_at": "2018-08-11 21:37:26.638848",
    "country": "United States",
    "longitude": "",
    "latitude": ""
  },
  {
    "id": "2862",
    "name": "Union Works Brewery LLC",
    "brewery_type": "planning",
    "street": "",
    "city": "Humboldt",
    "state": "Kansas",
    "postal_code": "66748-1050",
    "website_url": "",
    "phone": "",
    "created_at": "2018-07-24 01:33:25.121622",
    "updated_at": "2018-08-11 21:37:26.668891",
    "country": "United States",
    "longitude": "",
    "latitude": ""
  },
  {
    "id": "2864",
    "name": "Wichita Brewing Co & Pizzeria",
    "brewery_type": "brewpub",
    "street": "8815 W 13th St N Ste 100",
    "city": "Wichita",
    "state": "Kansas",
    "postal_code": "67212-4072",
    "website_url": "http://www.wichitabrew.com",
    "phone": "3162101641",
    "created_at": "2018-07-24 01:33:25.145441",
    "updated_at": "2018-08-11 21:37:26.722078",
    "country": "United States",
    "longitude": "",
    "latitude": ""
  },
  {
    "id": "2867",
    "name": "Willcott Brewing Company",
    "brewery_type": "planning",
    "street": "",
    "city": "Holton",
    "state": "Kansas",
    "postal_code": "66436-1703",
    "website_url": "http://www.willcottbrewing.com",
    "phone": "7853381611",
    "created_at": "2018-07-24 01:33:25.199106",
    "updated_at": "2018-08-11 21:37:26.818241",
    "country": "United States",
    "longitude": "",
    "latitude": ""
  },
  {
    "id": "2868",
    "name": "Yankee Tank Brewing Company",
    "brewery_type": "micro",
    "street": "807 E 23rd St Ste J",
    "city": "Lawrence",
    "state": "Kansas",
    "postal_code": "66046-4952",
    "website_url": "http://yankeetankbrewing.com",
    "phone": "7852339333",
    "created_at": "2018-07-24 01:33:25.212761",
    "updated_at": "2018-08-11 21:37:26.852105",
    "country": "United States",
    "longitude": "",
    "latitude": ""
  },
  {
    "id": "2850",
    "name": "Nortons Brewing Co.",
    "brewery_type": "brewpub",
    "street": "125 N Saint Francis St",
    "city": "Wichita",
    "state": "Kansas",
    "postal_code": "67202-2607",
    "website_url": "http://www.nortonsbrewing.com",
    "phone": "3166446067",
    "created_at": "2018-07-24 01:33:24.942036",
    "updated_at": "2018-08-24 00:38:32.312329",
    "country": "United States",
    "longitude": "-97.331744",
    "latitude": "37.6865778367347"
  },
  {
    "id": "2855",
    "name": "Tallgrass Brewing Co",
    "brewery_type": "regional",
    "street": "5960 Dry Hop Cir",
    "city": "Manhattan",
    "state": "Kansas",
    "postal_code": "66503-9815",
    "website_url": "http://www.tallgrassbeer.com",
    "phone": "7855371131",
    "created_at": "2018-07-24 01:33:25.03339",
    "updated_at": "2018-08-24 00:38:34.213544",
    "country": "United States",
    "longitude": "-96.6792762",
    "latitude": "39.1428736"
  },
  {
    "id": "2856",
    "name": "Tallgrass Taphouse Co",
    "brewery_type": "brewpub",
    "street": "320 Poyntz Ave",
    "city": "Manhattan",
    "state": "Kansas",
    "postal_code": "66502-6038",
    "website_url": "http://www.tallgrasstaphouse.com",
    "phone": "7853202933",
    "created_at": "2018-07-24 01:33:25.046852",
    "updated_at": "2018-08-24 00:38:34.656841",
    "country": "United States",
    "longitude": "-96.561291",
    "latitude": "39.1795046"
  },
  {
    "id": "2863",
    "name": "Walnut River Brewing Company",
    "brewery_type": "micro",
    "street": "111 W Locust Ave",
    "city": "El Dorado",
    "state": "Kansas",
    "postal_code": "67042-3513",
    "website_url": "http://www.walnutriverbrewing.com",
    "phone": "3163518086",
    "created_at": "2018-07-24 01:33:25.13327",
    "updated_at": "2018-08-24 00:38:36.53539",
    "country": "United States",
    "longitude": "-96.8500486938776",
    "latitude": "37.8136754897959"
  },
  {
    "id": "2865",
    "name": "Wichita Brewing Co & Pizzeria",
    "brewery_type": "brewpub",
    "street": "535 N Woodlawn St",
    "city": "Wichita",
    "state": "Kansas",
    "postal_code": "67208-3668",
    "website_url": "http://www.wichitabrew.com",
    "phone": "3164404885",
    "created_at": "2018-07-24 01:33:25.162581",
    "updated_at": "2018-08-24 00:38:37.571488",
    "country": "United States",
    "longitude": "-97.262463",
    "latitude": "37.74682"
  },
  {
    "id": "2866",
    "name": "Wichita Brewing Co Production, LLC",
    "brewery_type": "micro",
    "street": "727 E Osie St",
    "city": "Wichita",
    "state": "Kansas",
    "postal_code": "67211-4327",
    "website_url": "",
    "phone": "",
    "created_at": "2018-07-24 01:33:25.185014",
    "updated_at": "2018-08-24 00:38:38.056718",
    "country": "United States",
    "longitude": "-97.3298394081633",
    "latitude": "37.6624456530612"
  },
  {
    "id": "2832",
    "name": "Dodge City Brewing",
    "brewery_type": "brewpub",
    "street": "701 3rd Ave",
    "city": "Dodge City",
    "state": "Kansas",
    "postal_code": "67801-4336",
    "website_url": "http://www.dodgecitybrewing.com",
    "phone": "6203713999",
    "created_at": "2018-07-24 01:33:24.710305",
    "updated_at": "2018-08-24 00:38:24.216815",
    "country": "United States",
    "longitude": "-100.020307",
    "latitude": "37.754632"
  },
  {
    "id": "2836",
    "name": "Gella's Diner & Liquid Bread Brewing Co",
    "brewery_type": "brewpub",
    "street": "117 E 11th St",
    "city": "Hays",
    "state": "Kansas",
    "postal_code": "67601-3603",
    "website_url": "http://www.lbbrewing.com",
    "phone": "7856212739",
    "created_at": "2018-07-24 01:33:24.761373",
    "updated_at": "2018-08-24 00:38:25.819507",
    "country": "United States",
    "longitude": "-99.3290903265306",
    "latitude": "38.8717449183673"
  },
  {
    "id": "2857",
    "name": "The Boiler Room Brewhaus LLC",
    "brewery_type": "micro",
    "street": "10 S National Ave",
    "city": "Fort Scott",
    "state": "Kansas",
    "postal_code": "66701-1311",
    "website_url": "http://www.Boileroombrewhaus.com",
    "phone": "6202232702",
    "created_at": "2018-07-24 01:33:25.059113",
    "updated_at": "2018-08-24 00:38:35.137894",
    "country": "United States",
    "longitude": "-94.70741825",
    "latitude": "37.8410384166667"
  }
]