[
  {
    "id": "2992",
    "name": "Bigelow Brewing Company",
    "brewery_type": "brewpub",
    "street": "473 Bigelow Hill Rd",
    "city": "Skowhegan",
    "state": "Maine",
    "postal_code": "04976-5126",
    "website_url": "http://www.bigelowbrewing.com",
    "phone": "2073996262",
    "created_at": "2018-07-24 01:33:26.894155",
    "updated_at": "2018-08-24 00:39:36.370873",
    "country": "United States",
    "longitude": "-69.7296161313716",
    "latitude": "44.7199196699464"
  },
  {
    "id": "3000",
    "name": "D.L. Geary Brewing Co Inc.",
    "brewery_type": "micro",
    "street": "38 Evergreen Dr",
    "city": "Portland",
    "state": "Maine",
    "postal_code": "04103-1066",
    "website_url": "http://www.gearybrewing.com",
    "phone": "2078782337",
    "created_at": "2018-07-24 01:33:26.993603",
    "updated_at": "2018-08-24 00:39:39.267236",
    "country": "United States",
    "longitude": "-70.314848130679",
    "latitude": "43.7076741571514"
  },
  {
    "id": "3021",
    "name": "Gritty McDuffs - Portland",
    "brewery_type": "brewpub",
    "street": "396 Fore St",
    "city": "Portland",
    "state": "Maine",
    "postal_code": "04101-4026",
    "website_url": "http://www.grittys.com",
    "phone": "2077722739",
    "created_at": "2018-07-24 01:33:27.26609",
    "updated_at": "2018-08-24 00:39:48.759561",
    "country": "United States",
    "longitude": "-70.2533609",
    "latitude": "43.6564108"
  },
  {
    "id": "3042",
    "name": "Mason's Brewing Company",
    "brewery_type": "micro",
    "street": "15 Hardy St",
    "city": "Brewer",
    "state": "Maine",
    "postal_code": "04412-2207",
    "website_url": "http://www.masonsbrewingcompany.com",
    "phone": "2079896300",
    "created_at": "2018-07-24 01:33:27.533054",
    "updated_at": "2018-08-24 00:39:57.57573",
    "country": "United States",
    "longitude": "-68.7695709213165",
    "latitude": "44.7914659606583"
  },
  {
    "id": "3049",
    "name": "Norway Brewing Company",
    "brewery_type": "brewpub",
    "street": "237 Main St",
    "city": "Norway",
    "state": "Maine",
    "postal_code": "04268-5913",
    "website_url": "http://www.norwaybrewing.com",
    "phone": "2077392126",
    "created_at": "2018-07-24 01:33:27.625823",
    "updated_at": "2018-08-24 00:40:01.014025",
    "country": "United States",
    "longitude": "-70.5268344",
    "latitude": "44.1973621"
  },
  {
    "id": "3075",
    "name": "Shipyard Brewing Co",
    "brewery_type": "regional",
    "street": "86 Newbury St",
    "city": "Portland",
    "state": "Maine",
    "postal_code": "04101-4219",
    "website_url": "http://www.shipyard.com",
    "phone": "2077610807",
    "created_at": "2018-07-24 01:33:28.019419",
    "updated_at": "2018-08-24 00:40:11.302378",
    "country": "United States",
    "longitude": "-70.2486231394133",
    "latitude": "43.6615851"
  },
  {
    "id": "2986",
    "name": "Bath Brewing Company",
    "brewery_type": "brewpub",
    "street": "141 Front St",
    "city": "Bath",
    "state": "Maine",
    "postal_code": "04530",
    "website_url": "http://www.bathbrewing.com",
    "phone": "2075603389",
    "created_at": "2018-07-24 01:33:26.823154",
    "updated_at": "2018-08-24 00:39:33.620094",
    "country": "United States",
    "longitude": "-69.8141459329791",
    "latitude": "43.9140854135672"
  },
  {
    "id": "3038",
    "name": "Maine Beer Co",
    "brewery_type": "micro",
    "street": "525 US Route 1",
    "city": "Freeport",
    "state": "Maine",
    "postal_code": "04032-7009",
    "website_url": "http://www.mainebeercompany.com",
    "phone": "2072215711",
    "created_at": "2018-07-24 01:33:27.484828",
    "updated_at": "2018-08-11 21:37:32.878388",
    "country": "United States",
    "longitude": "",
    "latitude": ""
  },
  {
    "id": "3034",
    "name": "Lost Valley Brewing Co",
    "brewery_type": "micro",
    "street": "200 Lost Valley Rd",
    "city": "Auburn",
    "state": "Maine",
    "postal_code": "04210",
    "website_url": "",
    "phone": "",
    "created_at": "2018-07-24 01:33:27.434389",
    "updated_at": "2018-08-24 00:39:54.884057",
    "country": "United States",
    "longitude": "-70.280399",
    "latitude": "44.130958"
  },
  {
    "id": "3035",
    "name": "Lubec Brewing Co",
    "brewery_type": "brewpub",
    "street": "41 Water St",
    "city": "Lubec",
    "state": "Maine",
    "postal_code": "04652-",
    "website_url": "",
    "phone": "2077334555",
    "created_at": "2018-07-24 01:33:27.44707",
    "updated_at": "2018-08-24 00:39:55.32726",
    "country": "United States",
    "longitude": "-66.9834808572428",
    "latitude": "44.8608311821362"
  },
  {
    "id": "3036",
    "name": "Lucky Pigeon Brewing",
    "brewery_type": "planning",
    "street": "",
    "city": "Gorham",
    "state": "Maine",
    "postal_code": "04038-2371",
    "website_url": "",
    "phone": "",
    "created_at": "2018-07-24 01:33:27.458614",
    "updated_at": "2018-08-11 21:37:32.805563",
    "country": "United States",
    "longitude": "",
    "latitude": ""
  },
  {
    "id": "2977",
    "name": "Andrews Brewing Co",
    "brewery_type": "micro",
    "street": "353 High St",
    "city": "Lincolnville",
    "state": "Maine",
    "postal_code": "04849-5846",
    "website_url": "",
    "phone": "2077633305",
    "created_at": "2018-07-24 01:33:26.707755",
    "updated_at": "2018-08-11 21:37:30.275254",
    "country": "United States",
    "longitude": "",
    "latitude": ""
  },
  {
    "id": "2978",
    "name": "Atlantic Brewing Co",
    "brewery_type": "micro",
    "street": "15 Knox Rd",
    "city": "Bar Harbor",
    "state": "Maine",
    "postal_code": "04609-7770",
    "website_url": "http://atlanticbrewing.com",
    "phone": "2072882337",
    "created_at": "2018-07-24 01:33:26.720517",
    "updated_at": "2018-08-11 21:37:30.310463",
    "country": "United States",
    "longitude": "",
    "latitude": ""
  },
  {
    "id": "2980",
    "name": "Austin Street Brewery",
    "brewery_type": "micro",
    "street": "1 Industrial Way Ste 8",
    "city": "Portland",
    "state": "Maine",
    "postal_code": "04103-1072",
    "website_url": "http://www.austinstreetbrewery.com",
    "phone": "2072001994",
    "created_at": "2018-07-24 01:33:26.747663",
    "updated_at": "2018-08-11 21:37:30.384519",
    "country": "United States",
    "longitude": "",
    "latitude": ""
  },
  {
    "id": "2982",
    "name": "Bag and Kettle, The",
    "brewery_type": "brewpub",
    "street": "9000 Main St Apt 21",
    "city": "Carrabassett Valley",
    "state": "Maine",
    "postal_code": "04947-6808",
    "website_url": "http://www.thebagandkettle.com",
    "phone": "2072372451",
    "created_at": "2018-07-24 01:33:26.77347",
    "updated_at": "2018-08-11 21:37:30.419882",
    "country": "United States",
    "longitude": "",
    "latitude": ""
  },
  {
    "id": "2983",
    "name": "Banded Brewing Company",
    "brewery_type": "micro",
    "street": "32 Main St. Bldg 13-W Ste 102",
    "city": "Biddeford",
    "state": "Maine",
    "postal_code": "04005-5145",
    "website_url": "http://www.bandedhorn.com",
    "phone": "2076021561",
    "created_at": "2018-07-24 01:33:26.785399",
    "updated_at": "2018-08-11 21:37:30.445497",
    "country": "United States",
    "longitude": "",
    "latitude": ""
  },
  {
    "id": "2984",
    "name": "Bangor Beer Co.",
    "brewery_type": "brewpub",
    "street": "330 Bangor Mall Blvd",
    "city": "Bangor",
    "state": "Maine",
    "postal_code": "04401-3644",
    "website_url": "http://www.bangorbeerco.com",
    "phone": "2079476605",
    "created_at": "2018-07-24 01:33:26.79752",
    "updated_at": "2018-08-11 21:37:30.506629",
    "country": "United States",
    "longitude": "",
    "latitude": ""
  },
  {
    "id": "2987",
    "name": "Battery Steele Brewing",
    "brewery_type": "micro",
    "street": "1 Industrial Way Ste 12",
    "city": "Portland",
    "state": "Maine",
    "postal_code": "04103-1072",
    "website_url": "http://www.batterysteele.com",
    "phone": "",
    "created_at": "2018-07-24 01:33:26.83569",
    "updated_at": "2018-08-11 21:37:30.649489",
    "country": "United States",
    "longitude": "",
    "latitude": ""
  },
  {
    "id": "2989",
    "name": "Bear Bones Beer",
    "brewery_type": "micro",
    "street": "2 Cottage St Ste 1",
    "city": "Bridgton",
    "state": "Maine",
    "postal_code": "04009-1137",
    "website_url": "",
    "phone": "2076478000",
    "created_at": "2018-07-24 01:33:26.858675",
    "updated_at": "2018-08-11 21:37:30.742683",
    "country": "United States",
    "longitude": "",
    "latitude": ""
  },
  {
    "id": "2974",
    "name": "2 Feet Brewing Company",
    "brewery_type": "brewpub",
    "street": "80 Columbia St",
    "city": "Bangor",
    "state": "Maine",
    "postal_code": "04401-6319",
    "website_url": "http://www.2feetbrewing.com",
    "phone": "2075731979",
    "created_at": "2018-07-24 01:33:26.6676",
    "updated_at": "2018-08-24 00:39:29.017962",
    "country": "United States",
    "longitude": "-68.7728309911078",
    "latitude": "44.8001268407908"
  },
  {
    "id": "2975",
    "name": "Airline Brewing Company",
    "brewery_type": "micro",
    "street": "22 Mill Ln",
    "city": "Amherst",
    "state": "Maine",
    "postal_code": "04428",
    "website_url": "http://www.abcmaine.beer",
    "phone": "2075842337",
    "created_at": "2018-07-24 01:33:26.681364",
    "updated_at": "2018-08-24 00:39:29.447538",
    "country": "United States",
    "longitude": "-68.3677435",
    "latitude": "44.8329462"
  },
  {
    "id": "2976",
    "name": "Allagash Brewing Co",
    "brewery_type": "regional",
    "street": "50 Industrial Way",
    "city": "Portland",
    "state": "Maine",
    "postal_code": "04103-1270",
    "website_url": "http://www.allagash.com",
    "phone": "2078785385",
    "created_at": "2018-07-24 01:33:26.694905",
    "updated_at": "2018-08-24 00:39:29.904503",
    "country": "United States",
    "longitude": "-70.3179518",
    "latitude": "43.7030951"
  },
  {
    "id": "2979",
    "name": "Atlantic Brewing Co / Bar Harbor Brewing",
    "brewery_type": "brewpub",
    "street": "52 Cottage Street Bar Harbor",
    "city": "Bar Harbor",
    "state": "Maine",
    "postal_code": "04609",
    "website_url": "http://www.barharborbrewing.com",
    "phone": "2072884592",
    "created_at": "2018-07-24 01:33:26.734138",
    "updated_at": "2018-08-24 00:39:31.014808",
    "country": "United States",
    "longitude": "-68.20607075",
    "latitude": "44.389488"
  },
  {
    "id": "2988",
    "name": "Baxter Brewing Co, LLC",
    "brewery_type": "regional",
    "street": "130 Mill St",
    "city": "Lewiston",
    "state": "Maine",
    "postal_code": "04240-7774",
    "website_url": "http://www.baxterbrewing.com",
    "phone": "2073336769",
    "created_at": "2018-07-24 01:33:26.847222",
    "updated_at": "2018-08-24 00:39:34.549134",
    "country": "United States",
    "longitude": "-70.219607",
    "latitude": "44.0956772791922"
  },
  {
    "id": "2990",
    "name": "Bear Bones Beer",
    "brewery_type": "micro",
    "street": "43 Lisbon St",
    "city": "Lewiston",
    "state": "Maine",
    "postal_code": "04240-7115",
    "website_url": "http://www.bearbonesbeer.com",
    "phone": "2072001324",
    "created_at": "2018-07-24 01:33:26.870666",
    "updated_at": "2018-08-24 00:39:35.481253",
    "country": "United States",
    "longitude": "-70.0960551875",
    "latitude": "44.0201273229167"
  },
  {
    "id": "2991",
    "name": "Belfast Bay Brewing Co",
    "brewery_type": "contract",
    "street": "100 Searsport Ave",
    "city": "Belfast",
    "state": "Maine",
    "postal_code": "04915-7221",
    "website_url": "http://www.belfastbaybrewing.com",
    "phone": "2074608654",
    "created_at": "2018-07-24 01:33:26.882351",
    "updated_at": "2018-08-24 00:39:35.918614",
    "country": "United States",
    "longitude": "-68.9880177",
    "latitude": "44.4309432"
  },
  {
    "id": "2994",
    "name": "Black Bear Brewery",
    "brewery_type": "micro",
    "street": "19 Mill St Ste 4",
    "city": "Orono",
    "state": "Maine",
    "postal_code": "04473-4095",
    "website_url": "http://www.blackbearmicrobrew.com",
    "phone": "2078899123",
    "created_at": "2018-07-24 01:33:26.917746",
    "updated_at": "2018-08-11 21:37:30.945281",
    "country": "United States",
    "longitude": "",
    "latitude": ""
  },
  {
    "id": "2995",
    "name": "Blank Canvas Brewery",
    "brewery_type": "micro",
    "street": "46 Betton St Ste 3",
    "city": "Brewer",
    "state": "Maine",
    "postal_code": "04412-2636",
    "website_url": "http://www.blankcanvasbrewery.wordpress.com",
    "phone": "",
    "created_at": "2018-07-24 01:33:26.929735",
    "updated_at": "2018-08-11 21:37:31.002617",
    "country": "United States",
    "longitude": "",
    "latitude": ""
  },
  {
    "id": "2996",
    "name": "Boothbay Craft Brewery, Inc",
    "brewery_type": "micro",
    "street": "301 Adams Pond Rd",
    "city": "Boothbay",
    "state": "Maine",
    "postal_code": "04537-4334",
    "website_url": "http://www.boothbaycraftbrewery.com",
    "phone": "2076333411",
    "created_at": "2018-07-24 01:33:26.942054",
    "updated_at": "2018-08-11 21:37:31.062897",
    "country": "United States",
    "longitude": "",
    "latitude": ""
  },
  {
    "id": "2997",
    "name": "Brewery in Planning - Portland",
    "brewery_type": "planning",
    "street": "",
    "city": "New Gloucester",
    "state": "Maine",
    "postal_code": "04260-4228",
    "website_url": "",
    "phone": "",
    "created_at": "2018-07-24 01:33:26.954273",
    "updated_at": "2018-08-11 21:37:31.123211",
    "country": "United States",
    "longitude": "",
    "latitude": ""
  },
  {
    "id": "2998",
    "name": "Bunker Brewing Co",
    "brewery_type": "micro",
    "street": "17 Westfield St Unit D",
    "city": "Portland",
    "state": "Maine",
    "postal_code": "04102-2730",
    "website_url": "http://www.bunkerbrewingco.com",
    "phone": "2074505014",
    "created_at": "2018-07-24 01:33:26.968228",
    "updated_at": "2018-08-11 21:37:31.175166",
    "country": "United States",
    "longitude": "",
    "latitude": ""
  },
  {
    "id": "3001",
    "name": "DeepWater Brewing Company",
    "brewery_type": "micro",
    "street": "33 Tenney Hl",
    "city": "Blue Hill",
    "state": "Maine",
    "postal_code": "04614",
    "website_url": "http://www.arborvine.com",
    "phone": "2073742411",
    "created_at": "2018-07-24 01:33:27.007271",
    "updated_at": "2018-08-11 21:37:31.399854",
    "country": "United States",
    "longitude": "",
    "latitude": ""
  },
  {
    "id": "3005",
    "name": "First Mile Brewing Company",
    "brewery_type": "micro",
    "street": "28 Market St Ste 103",
    "city": "Fort Kent",
    "state": "Maine",
    "postal_code": "04743",
    "website_url": "",
    "phone": "",
    "created_at": "2018-07-24 01:33:27.05546",
    "updated_at": "2018-08-11 21:37:31.54305",
    "country": "United States",
    "longitude": "",
    "latitude": ""
  },
  {
    "id": "3006",
    "name": "Flight Deck Brewing",
    "brewery_type": "micro",
    "street": "11 Atlantic Dr",
    "city": "Brunswick",
    "state": "Maine",
    "postal_code": "04011-4400",
    "website_url": "http://www.flightdeckbrewing.com",
    "phone": "2075045133",
    "created_at": "2018-07-24 01:33:27.067277",
    "updated_at": "2018-08-11 21:37:31.575427",
    "country": "United States",
    "longitude": "",
    "latitude": ""
  },
  {
    "id": "3010",
    "name": "Foundation Brewing Company",
    "brewery_type": "micro",
    "street": "1 Industrial Way Ste 5",
    "city": "Portland",
    "state": "Maine",
    "postal_code": "04103-1072",
    "website_url": "http://www.foundationbrew.com",
    "phone": "2073708187",
    "created_at": "2018-07-24 01:33:27.113329",
    "updated_at": "2018-08-11 21:37:31.775564",
    "country": "United States",
    "longitude": "",
    "latitude": ""
  },
  {
    "id": "3017",
    "name": "Goodfire Brewing Company",
    "brewery_type": "micro",
    "street": "219 Anderson St Ste 6",
    "city": "Portland",
    "state": "Maine",
    "postal_code": "04101-1401",
    "website_url": "http://www.goodfirebrewing.com",
    "phone": "2078088910",
    "created_at": "2018-07-24 01:33:27.209366",
    "updated_at": "2018-08-11 21:37:32.021603",
    "country": "United States",
    "longitude": "",
    "latitude": ""
  },
  {
    "id": "3018",
    "name": "Grateful Grain Brewing Company",
    "brewery_type": "micro",
    "street": "26 Route 126",
    "city": "Monmouth",
    "state": "Maine",
    "postal_code": "04259-7727",
    "website_url": "http://www.gratefulgrainbrewing.com",
    "phone": "",
    "created_at": "2018-07-24 01:33:27.223178",
    "updated_at": "2018-08-11 21:37:32.05698",
    "country": "United States",
    "longitude": "",
    "latitude": ""
  },
  {
    "id": "3019",
    "name": "Gritty McDuffs - Freeport",
    "brewery_type": "brewpub",
    "street": "187 Lower Main St",
    "city": "Freeport",
    "state": "Maine",
    "postal_code": "04032",
    "website_url": "http://www.grittys.com",
    "phone": "2078654321",
    "created_at": "2018-07-24 01:33:27.237663",
    "updated_at": "2018-08-11 21:37:32.107646",
    "country": "United States",
    "longitude": "",
    "latitude": ""
  },
  {
    "id": "3027",
    "name": "Kennebec River Brewery",
    "brewery_type": "brewpub",
    "street": "1771 US Rte 201",
    "city": "West Forks",
    "state": "Maine",
    "postal_code": "04985-0100",
    "website_url": "http://www.northernoutdoors.com",
    "phone": "8007657238",
    "created_at": "2018-07-24 01:33:27.344303",
    "updated_at": "2018-08-11 21:37:32.424095",
    "country": "United States",
    "longitude": "",
    "latitude": ""
  },
  {
    "id": "3028",
    "name": "Kennebunkport Brewery / Federal Jacks",
    "brewery_type": "brewpub",
    "street": "8 Western Ave Ste 6",
    "city": "Kennebunk",
    "state": "Maine",
    "postal_code": "04043-7756",
    "website_url": "http://www.federaljacks.com",
    "phone": "2079674311",
    "created_at": "2018-07-24 01:33:27.357447",
    "updated_at": "2018-08-11 21:37:32.479615",
    "country": "United States",
    "longitude": "",
    "latitude": ""
  },
  {
    "id": "3029",
    "name": "Lake St George Brewing Company",
    "brewery_type": "micro",
    "street": "4 Marshall Shore Rd",
    "city": "Liberty",
    "state": "Maine",
    "postal_code": "04949",
    "website_url": "http://www.lakestgeorgebrewing.com",
    "phone": "2075893031",
    "created_at": "2018-07-24 01:33:27.370607",
    "updated_at": "2018-08-11 21:37:32.532821",
    "country": "United States",
    "longitude": "",
    "latitude": ""
  },
  {
    "id": "3032",
    "name": "Liquid Riot Bottling Co.",
    "brewery_type": "brewpub",
    "street": "4 Canal Plz Ste 1",
    "city": "Portland",
    "state": "Maine",
    "postal_code": "04101-4594",
    "website_url": "http://www.novareresbiercafe.com",
    "phone": "2072218889",
    "created_at": "2018-07-24 01:33:27.409908",
    "updated_at": "2018-08-11 21:37:32.643966",
    "country": "United States",
    "longitude": "",
    "latitude": ""
  },
  {
    "id": "3039",
    "name": "Mainely Brews Restaurant and Brewhouse",
    "brewery_type": "contract",
    "street": "1 Post Office Sq Ste 302",
    "city": "Waterville",
    "state": "Maine",
    "postal_code": "04901-6651",
    "website_url": "http://www.mainelybrews.com",
    "phone": "2078732457",
    "created_at": "2018-07-24 01:33:27.496595",
    "updated_at": "2018-08-11 21:37:32.911409",
    "country": "United States",
    "longitude": "",
    "latitude": ""
  },
  {
    "id": "2993",
    "name": "Bissell Brothers Brewing",
    "brewery_type": "micro",
    "street": "4 Thompsons Pt Ste 108",
    "city": "Portland",
    "state": "Maine",
    "postal_code": "04102-2639",
    "website_url": "http://www.bissellbrothers.com",
    "phone": "2074233622",
    "created_at": "2018-07-24 01:33:26.906081",
    "updated_at": "2018-08-24 00:39:36.895031",
    "country": "United States",
    "longitude": "-70.2904097",
    "latitude": "43.6514062"
  },
  {
    "id": "2999",
    "name": "Cushnoc Brewing Company",
    "brewery_type": "brewpub",
    "street": "243 Water St",
    "city": "Augusta",
    "state": "Maine",
    "postal_code": "04330-4615",
    "website_url": "http://www.cushnocbrewing.com",
    "phone": "2072136332",
    "created_at": "2018-07-24 01:33:26.980655",
    "updated_at": "2018-08-24 00:39:38.726842",
    "country": "United States",
    "longitude": "-69.7734423233329",
    "latitude": "44.3166434906408"
  },
  {
    "id": "3003",
    "name": "Dirigo Brewing Co.",
    "brewery_type": "micro",
    "street": "28 Pearl St",
    "city": "Biddeford",
    "state": "Maine",
    "postal_code": "04005-2040",
    "website_url": "http://www.dirigobrewingcompany.com",
    "phone": "2078385321",
    "created_at": "2018-07-24 01:33:27.032708",
    "updated_at": "2018-08-24 00:39:40.600128",
    "country": "United States",
    "longitude": "-70.4560858434247",
    "latitude": "43.4954570369912"
  },
  {
    "id": "3004",
    "name": "Drumming Grouse Brewery, LLC",
    "brewery_type": "micro",
    "street": "318 Fosterville Rd",
    "city": "Bridgton",
    "state": "Maine",
    "postal_code": "04009-4032",
    "website_url": "http://www.drumminggrousebrewery.com",
    "phone": "4109609679",
    "created_at": "2018-07-24 01:33:27.044196",
    "updated_at": "2018-08-24 00:39:41.064889",
    "country": "United States",
    "longitude": "-70.68838325",
    "latitude": "43.97416125"
  },
  {
    "id": "3007",
    "name": "Fogtown Brewing Company",
    "brewery_type": "micro",
    "street": "25 Pine St",
    "city": "Ellsworth",
    "state": "Maine",
    "postal_code": "04605-2023",
    "website_url": "http://www.fogtownbrewing.com",
    "phone": "6103897224",
    "created_at": "2018-07-24 01:33:27.078802",
    "updated_at": "2018-08-24 00:39:42.386373",
    "country": "United States",
    "longitude": "-68.4225979085975",
    "latitude": "44.5408544017856"
  },
  {
    "id": "3008",
    "name": "Fore River Brewing Company",
    "brewery_type": "micro",
    "street": "45 Huntress Ave",
    "city": "South Portland",
    "state": "Maine",
    "postal_code": "04106-4115",
    "website_url": "http://www.foreriverbrewing.com",
    "phone": "2073700629",
    "created_at": "2018-07-24 01:33:27.090327",
    "updated_at": "2018-08-24 00:39:42.896808",
    "country": "United States",
    "longitude": "-70.2876710514231",
    "latitude": "43.6324906649993"
  },
  {
    "id": "3009",
    "name": "Foulmouthed Brewing",
    "brewery_type": "brewpub",
    "street": "15 Ocean St",
    "city": "South Portland",
    "state": "Maine",
    "postal_code": "04106-2838",
    "website_url": "http://www.foulmouthedbrewing.com",
    "phone": "2076186977",
    "created_at": "2018-07-24 01:33:27.101971",
    "updated_at": "2018-08-24 00:39:43.338415",
    "country": "United States",
    "longitude": "-70.2548007",
    "latitude": "43.640989"
  },
  {
    "id": "3011",
    "name": "Friars' Brewhouse",
    "brewery_type": "micro",
    "street": "84 Main St",
    "city": "Bucksport",
    "state": "Maine",
    "postal_code": "04416",
    "website_url": "",
    "phone": "2079473770",
    "created_at": "2018-07-24 01:33:27.125679",
    "updated_at": "2018-08-24 00:39:44.297916",
    "country": "United States",
    "longitude": "-68.7955841416602",
    "latitude": "44.572023444336"
  },
  {
    "id": "3012",
    "name": "Funky Bow Brewery & Beer Company",
    "brewery_type": "micro",
    "street": "21 Ledgewood Ln",
    "city": "Lyman",
    "state": "Maine",
    "postal_code": "04002-7376",
    "website_url": "http://www.funkybowbeercompany.com",
    "phone": "2074096814",
    "created_at": "2018-07-24 01:33:27.137806",
    "updated_at": "2018-08-24 00:39:44.707021",
    "country": "United States",
    "longitude": "-70.6014619517209",
    "latitude": "43.485394973714"
  },
  {
    "id": "3013",
    "name": "Gary's Olde Towne Tavern",
    "brewery_type": "micro",
    "street": "678 Roosevelt Trl",
    "city": "Naples",
    "state": "Maine",
    "postal_code": "04055-5335",
    "website_url": "http://www.garysoldetownetavern.com",
    "phone": "2076936806",
    "created_at": "2018-07-24 01:33:27.151896",
    "updated_at": "2018-08-24 00:39:45.189174",
    "country": "United States",
    "longitude": "-70.601073",
    "latitude": "43.969705"
  },
  {
    "id": "3014",
    "name": "Geaghan Brothers Brewing Co",
    "brewery_type": "micro",
    "street": "34 Abbott St",
    "city": "Brewer",
    "state": "Maine",
    "postal_code": "04412-2202",
    "website_url": "http://www.geaghanspub.com",
    "phone": "2079453730",
    "created_at": "2018-07-24 01:33:27.166298",
    "updated_at": "2018-08-24 00:39:45.634504",
    "country": "United States",
    "longitude": "-68.7731077570875",
    "latitude": "44.7820807899116"
  },
  {
    "id": "3015",
    "name": "Geaghan's Pub & Craft Brewery",
    "brewery_type": "brewpub",
    "street": "570 Main St",
    "city": "Bangor",
    "state": "Maine",
    "postal_code": "04401-6821",
    "website_url": "http://www.geaghanspub.com",
    "phone": "2079453730",
    "created_at": "2018-07-24 01:33:27.180176",
    "updated_at": "2018-08-24 00:39:46.086423",
    "country": "United States",
    "longitude": "-68.777503",
    "latitude": "44.7867295"
  },
  {
    "id": "3016",
    "name": "Gneiss Brewing",
    "brewery_type": "micro",
    "street": "94 Patterson Rd",
    "city": "Limerick",
    "state": "Maine",
    "postal_code": "04048-4242",
    "website_url": "http://www.gneissbeer.com",
    "phone": "2077930046",
    "created_at": "2018-07-24 01:33:27.195441",
    "updated_at": "2018-08-24 00:39:46.522274",
    "country": "United States",
    "longitude": "-70.817997472363",
    "latitude": "43.6483130614011"
  },
  {
    "id": "3020",
    "name": "Gritty McDuffs - Lewiston/Auburn",
    "brewery_type": "brewpub",
    "street": "68 Main St",
    "city": "Auburn",
    "state": "Maine",
    "postal_code": "04210-5812",
    "website_url": "",
    "phone": "2073762739",
    "created_at": "2018-07-24 01:33:27.25184",
    "updated_at": "2018-08-24 00:39:48.311665",
    "country": "United States",
    "longitude": "-70.2244866515385",
    "latitude": "44.0971728"
  },
  {
    "id": "3022",
    "name": "Gruit Brewing",
    "brewery_type": "micro",
    "street": "200 Anderson St",
    "city": "Portland",
    "state": "Maine",
    "postal_code": "04101-2562",
    "website_url": "http://www.fermentory.com",
    "phone": "2077738331",
    "created_at": "2018-07-24 01:33:27.281333",
    "updated_at": "2018-08-24 00:39:49.201895",
    "country": "United States",
    "longitude": "-70.255898",
    "latitude": "43.669074"
  },
  {
    "id": "3023",
    "name": "Hidden Cove Brewing Co",
    "brewery_type": "micro",
    "street": "73 Mile Rd",
    "city": "Wells",
    "state": "Maine",
    "postal_code": "04090-4135",
    "website_url": "http://www.hiddencovebrewingcompany.com",
    "phone": "2076460228",
    "created_at": "2018-07-24 01:33:27.294052",
    "updated_at": "2018-08-24 00:39:49.773707",
    "country": "United States",
    "longitude": "-70.5810454782609",
    "latitude": "43.3040770434783"
  },
  {
    "id": "3025",
    "name": "Island Dog Brewing",
    "brewery_type": "micro",
    "street": "125 John Roberts Rd",
    "city": "South Portland",
    "state": "Maine",
    "postal_code": "04106-3295",
    "website_url": "http://www.islanddogbrewing.com",
    "phone": "2073300283",
    "created_at": "2018-07-24 01:33:27.318983",
    "updated_at": "2018-08-24 00:39:50.726004",
    "country": "United States",
    "longitude": "-70.3310144167096",
    "latitude": "43.6305938611312"
  },
  {
    "id": "3026",
    "name": "Jack Russell's Steakhouse and Brewery / Maine Coast Brewing Co.",
    "brewery_type": "brewpub",
    "street": "102 Eden St",
    "city": "Bar Harbor",
    "state": "Maine",
    "postal_code": "04609-1106",
    "website_url": "http://www.jackrussellssteakhouse.com",
    "phone": "2072885214",
    "created_at": "2018-07-24 01:33:27.332152",
    "updated_at": "2018-08-24 00:39:51.187383",
    "country": "United States",
    "longitude": "-68.2231868",
    "latitude": "44.3946497"
  },
  {
    "id": "3030",
    "name": "Liberal Cup Public House and Brewery",
    "brewery_type": "brewpub",
    "street": "115 Water St",
    "city": "Hallowell",
    "state": "Maine",
    "postal_code": "04347-1357",
    "website_url": "http://www.theliberalcup.com",
    "phone": "2076232739",
    "created_at": "2018-07-24 01:33:27.38444",
    "updated_at": "2018-08-24 00:39:53.029261",
    "country": "United States",
    "longitude": "-69.7901306835835",
    "latitude": "44.2868199627939"
  },
  {
    "id": "3031",
    "name": "Liberty Craft Brewing",
    "brewery_type": "brewpub",
    "street": "7 Coon Mountain Ln",
    "city": "Liberty",
    "state": "Maine",
    "postal_code": "04949-3654",
    "website_url": "http://www.libertycraftbrewing.com",
    "phone": "2073227663",
    "created_at": "2018-07-24 01:33:27.39741",
    "updated_at": "2018-08-24 00:39:53.512443",
    "country": "United States",
    "longitude": "-69.3313975602951",
    "latitude": "44.3619996435424"
  },
  {
    "id": "3033",
    "name": "Lone Pine Brewing Company",
    "brewery_type": "micro",
    "street": "219 Anderson St #4",
    "city": "Portland",
    "state": "Maine",
    "postal_code": "04101-1400",
    "website_url": "http://www.lonepinebrewery.com",
    "phone": "2075364952",
    "created_at": "2018-07-24 01:33:27.422102",
    "updated_at": "2018-08-24 00:39:54.411148",
    "country": "United States",
    "longitude": "-70.2557731770637",
    "latitude": "43.6696532249529"
  },
  {
    "id": "3040",
    "name": "Marsh Island Brewing Company",
    "brewery_type": "micro",
    "street": "2 Main St",
    "city": "Orono",
    "state": "Maine",
    "postal_code": "04473-4004",
    "website_url": "http://www.marshislandbrewing.com",
    "phone": "2078661277",
    "created_at": "2018-07-24 01:33:27.509116",
    "updated_at": "2018-08-24 00:39:57.150246",
    "country": "United States",
    "longitude": "-68.671416",
    "latitude": "44.884496"
  },
  {
    "id": "3041",
    "name": "Marshall Wharf Brewing Co",
    "brewery_type": "micro",
    "street": "40 Marshall Wharf",
    "city": "Belfast",
    "state": "Maine",
    "postal_code": "04915-6835",
    "website_url": "http://www.marshallwharf.com",
    "phone": "2073381707",
    "created_at": "2018-07-24 01:33:27.521031",
    "updated_at": "2018-08-11 21:37:32.981492",
    "country": "United States",
    "longitude": "",
    "latitude": ""
  },
  {
    "id": "3046",
    "name": "Nonesuch River Brewing",
    "brewery_type": "brewpub",
    "street": "201 Gorham Rd",
    "city": "Scarborough",
    "state": "Maine",
    "postal_code": "04074-8970",
    "website_url": "http://www.nonesuchriverbrewing.com",
    "phone": "2072198948",
    "created_at": "2018-07-24 01:33:27.584518",
    "updated_at": "2018-08-11 21:37:33.17553",
    "country": "United States",
    "longitude": "",
    "latitude": ""
  },
  {
    "id": "3050",
    "name": "Nuts and Bolts Brewing",
    "brewery_type": "micro",
    "street": "10 Westpoint Ln Bldg 10 Ste 204",
    "city": "Biddeford",
    "state": "Maine",
    "postal_code": "04005",
    "website_url": "http://www.nutsnboltsbeer.com",
    "phone": "2074681538",
    "created_at": "2018-07-24 01:33:27.640185",
    "updated_at": "2018-08-11 21:37:33.326308",
    "country": "United States",
    "longitude": "",
    "latitude": ""
  },
  {
    "id": "3051",
    "name": "Oak Pond Brewing Co",
    "brewery_type": "micro",
    "street": "101 Oak Pond Rd",
    "city": "Skowhegan",
    "state": "Maine",
    "postal_code": "04976-4602",
    "website_url": "http://www.oakpondbrewery.com",
    "phone": "2074743233",
    "created_at": "2018-07-24 01:33:27.654831",
    "updated_at": "2018-08-11 21:37:33.377136",
    "country": "United States",
    "longitude": "",
    "latitude": ""
  },
  {
    "id": "3052",
    "name": "Odd Alewives Farm Brewery",
    "brewery_type": "micro",
    "street": "99 Old Rte One",
    "city": "Waldoboro",
    "state": "Maine",
    "postal_code": "04572",
    "website_url": "http://www.oddalewives.com",
    "phone": "2077908406",
    "created_at": "2018-07-24 01:33:27.670707",
    "updated_at": "2018-08-11 21:37:33.414713",
    "country": "United States",
    "longitude": "",
    "latitude": ""
  },
  {
    "id": "3053",
    "name": "One Eye Open Brewing Company",
    "brewery_type": "micro",
    "street": "41 Fox Street Shed A",
    "city": "Portland",
    "state": "Maine",
    "postal_code": "04101-2538",
    "website_url": "http://www.oeobrewing.com",
    "phone": "2075364176",
    "created_at": "2018-07-24 01:33:27.687667",
    "updated_at": "2018-08-11 21:37:33.446762",
    "country": "United States",
    "longitude": "",
    "latitude": ""
  },
  {
    "id": "3055",
    "name": "Orono Brewing Brewery & Draught Room",
    "brewery_type": "planning",
    "street": "",
    "city": "Orono",
    "state": "Maine",
    "postal_code": "04473",
    "website_url": "",
    "phone": "",
    "created_at": "2018-07-24 01:33:27.719125",
    "updated_at": "2018-08-11 21:37:33.502402",
    "country": "United States",
    "longitude": "",
    "latitude": ""
  },
  {
    "id": "3057",
    "name": "Outland Farm Brewery",
    "brewery_type": "planning",
    "street": "",
    "city": "Pittsfield",
    "state": "Maine",
    "postal_code": "04967-5811",
    "website_url": "http://www.outlandfarmbrewery.com",
    "phone": "2076168125",
    "created_at": "2018-07-24 01:33:27.747323",
    "updated_at": "2018-08-11 21:37:33.562282",
    "country": "United States",
    "longitude": "",
    "latitude": ""
  },
  {
    "id": "3061",
    "name": "Pennesseewassee Brewing",
    "brewery_type": "micro",
    "street": "458 Plains Rd",
    "city": "Harrison",
    "state": "Maine",
    "postal_code": "04040-3829",
    "website_url": "http://www.pennybrew.com",
    "phone": "2077439808",
    "created_at": "2018-07-24 01:33:27.804133",
    "updated_at": "2018-08-11 21:37:33.694404",
    "country": "United States",
    "longitude": "",
    "latitude": ""
  },
  {
    "id": "3067",
    "name": "Saco River Brewing",
    "brewery_type": "micro",
    "street": "10 Jockey Cap Ln",
    "city": "Fryeburg",
    "state": "Maine",
    "postal_code": "04037-1428",
    "website_url": "http://www.facebook.com/sacoriverbrewing",
    "phone": "2072563028",
    "created_at": "2018-07-24 01:33:27.894984",
    "updated_at": "2018-08-11 21:37:33.87533",
    "country": "United States",
    "longitude": "",
    "latitude": ""
  },
  {
    "id": "3071",
    "name": "Sebago Brewing Co",
    "brewery_type": "micro",
    "street": "48 Sanford Dr",
    "city": "Gorham",
    "state": "Maine",
    "postal_code": "04038-2646",
    "website_url": "",
    "phone": "",
    "created_at": "2018-07-24 01:33:27.954575",
    "updated_at": "2018-08-11 21:37:33.995207",
    "country": "United States",
    "longitude": "",
    "latitude": ""
  },
  {
    "id": "3073",
    "name": "Sheepscot Valley Brewing Co",
    "brewery_type": "micro",
    "street": "74 Hollywood Blvd",
    "city": "Whitefield",
    "state": "Maine",
    "postal_code": "04353-3729",
    "website_url": "http://www.sheepscotbrewing.com",
    "phone": "2075495530",
    "created_at": "2018-07-24 01:33:27.984083",
    "updated_at": "2018-08-11 21:37:34.057224",
    "country": "United States",
    "longitude": "",
    "latitude": ""
  },
  {
    "id": "3074",
    "name": "Shipyard Brew Pub Eliot",
    "brewery_type": "brewpub",
    "street": "28 Levesque Dr Ste 4 C/O Eliot Commons",
    "city": "Eliot",
    "state": "Maine",
    "postal_code": "03903-2073",
    "website_url": "http://www.shipyard.com",
    "phone": "2076862026",
    "created_at": "2018-07-24 01:33:27.998563",
    "updated_at": "2018-08-11 21:37:34.085214",
    "country": "United States",
    "longitude": "",
    "latitude": ""
  },
  {
    "id": "3076",
    "name": "Side By Each Brewing Co",
    "brewery_type": "planning",
    "street": "",
    "city": "Auburn",
    "state": "Maine",
    "postal_code": "04210-3739",
    "website_url": "",
    "phone": "2073479920",
    "created_at": "2018-07-24 01:33:28.035343",
    "updated_at": "2018-08-11 21:37:34.14074",
    "country": "United States",
    "longitude": "",
    "latitude": ""
  },
  {
    "id": "3078",
    "name": "SoMe Brewing Co",
    "brewery_type": "micro",
    "street": "1 York St Ste 3",
    "city": "York",
    "state": "Maine",
    "postal_code": "03909-1392",
    "website_url": "http://somebrewingco.com",
    "phone": "2073518162",
    "created_at": "2018-07-24 01:33:28.066258",
    "updated_at": "2018-08-11 21:37:34.206288",
    "country": "United States",
    "longitude": "",
    "latitude": ""
  },
  {
    "id": "3079",
    "name": "Strong Brewing",
    "brewery_type": "micro",
    "street": "7 Rope Ferry Rd",
    "city": "Sedgwick",
    "state": "Maine",
    "postal_code": "04676-3409",
    "website_url": "http://strongbrewing.com/",
    "phone": "2073598722",
    "created_at": "2018-07-24 01:33:28.083186",
    "updated_at": "2018-08-11 21:37:34.238517",
    "country": "United States",
    "longitude": "",
    "latitude": ""
  },
  {
    "id": "3081",
    "name": "The Pour Farm",
    "brewery_type": "planning",
    "street": "",
    "city": "Union",
    "state": "Maine",
    "postal_code": "04862",
    "website_url": "http://www.thepourfarm.com",
    "phone": "5083805372",
    "created_at": "2018-07-24 01:33:28.116592",
    "updated_at": "2018-08-11 21:37:34.295739",
    "country": "United States",
    "longitude": "",
    "latitude": ""
  },
  {
    "id": "3082",
    "name": "Threshers Brewing Company",
    "brewery_type": "micro",
    "street": "22 Main St N Bldg 3B",
    "city": "Searsmont",
    "state": "Maine",
    "postal_code": "04973-3409",
    "website_url": "http://www.threshersbrewingco.com",
    "phone": "2079753225",
    "created_at": "2018-07-24 01:33:28.134035",
    "updated_at": "2018-08-11 21:37:34.322384",
    "country": "United States",
    "longitude": "",
    "latitude": ""
  },
  {
    "id": "3084",
    "name": "Tumbledown Brewing LLC",
    "brewery_type": "micro",
    "street": "805 Farmington Falls Rd Ste 7",
    "city": "Farmington",
    "state": "Maine",
    "postal_code": "04938-6454",
    "website_url": "http://www.tumbledownbrewing.com",
    "phone": "2079440697",
    "created_at": "2018-07-24 01:33:28.165256",
    "updated_at": "2018-08-11 21:37:34.379357",
    "country": "United States",
    "longitude": "",
    "latitude": ""
  },
  {
    "id": "3086",
    "name": "Van Der Brew",
    "brewery_type": "planning",
    "street": "",
    "city": "Winthrop",
    "state": "Maine",
    "postal_code": "04364-1253",
    "website_url": "",
    "phone": "2074411102",
    "created_at": "2018-07-24 01:33:28.196549",
    "updated_at": "2018-08-11 21:37:34.455335",
    "country": "United States",
    "longitude": "",
    "latitude": ""
  },
  {
    "id": "3043",
    "name": "Mast Landing Brewing Company",
    "brewery_type": "micro",
    "street": "920 Main St",
    "city": "Westbrook",
    "state": "Maine",
    "postal_code": "04092-2862",
    "website_url": "http://www.mastlandingbrewing.com",
    "phone": "2077126051",
    "created_at": "2018-07-24 01:33:27.547289",
    "updated_at": "2018-08-24 00:39:58.083292",
    "country": "United States",
    "longitude": "-70.3692048571428",
    "latitude": "43.676947"
  },
  {
    "id": "3044",
    "name": "Moderation Brewing",
    "brewery_type": "micro",
    "street": "103 Maine St",
    "city": "Brunswick",
    "state": "Maine",
    "postal_code": "04011-2012",
    "website_url": "http://www.moderationbrewery.com",
    "phone": "12073479918",
    "created_at": "2018-07-24 01:33:27.559632",
    "updated_at": "2018-08-24 00:39:58.547333",
    "country": "United States",
    "longitude": "-69.965668329693",
    "latitude": "43.9163192065825"
  },
  {
    "id": "3045",
    "name": "Monhegan Brewing Co.",
    "brewery_type": "micro",
    "street": "1 Boody Lane",
    "city": "Monhegan",
    "state": "Maine",
    "postal_code": "04852",
    "website_url": "http://www.monheganbrewing.com",
    "phone": "2079753958",
    "created_at": "2018-07-24 01:33:27.572611",
    "updated_at": "2018-08-24 00:39:58.985845",
    "country": "United States",
    "longitude": "-69.320989",
    "latitude": "43.758828"
  },
  {
    "id": "3048",
    "name": "Northern Maine Brewing Co",
    "brewery_type": "brewpub",
    "street": "22 Main St",
    "city": "Caribou",
    "state": "Maine",
    "postal_code": "04736-4163",
    "website_url": "",
    "phone": "2074922185",
    "created_at": "2018-07-24 01:33:27.611098",
    "updated_at": "2018-08-24 00:40:00.145427",
    "country": "United States",
    "longitude": "-67.9967099528407",
    "latitude": "46.8140769171635"
  },
  {
    "id": "3054",
    "name": "Orono Brewing Bangor Draught Room",
    "brewery_type": "micro",
    "street": "26 State St",
    "city": "Bangor",
    "state": "Maine",
    "postal_code": "04401",
    "website_url": "",
    "phone": "",
    "created_at": "2018-07-24 01:33:27.703555",
    "updated_at": "2018-08-24 00:40:03.064707",
    "country": "United States",
    "longitude": "-68.7428115",
    "latitude": "44.8115948265306"
  },
  {
    "id": "3056",
    "name": "Orono Brewing Company",
    "brewery_type": "brewpub",
    "street": "20 Main St",
    "city": "Orono",
    "state": "Maine",
    "postal_code": "04473",
    "website_url": "http://www.oronobrewing.com",
    "phone": "2078664677",
    "created_at": "2018-07-24 01:33:27.732752",
    "updated_at": "2018-08-24 00:40:03.609309",
    "country": "United States",
    "longitude": "-68.669582",
    "latitude": "44.8875409375"
  },
  {
    "id": "3058",
    "name": "Oxbow Blending & Bottling",
    "brewery_type": "micro",
    "street": "49 Washington Ave",
    "city": "Portland",
    "state": "Maine",
    "postal_code": "04101",
    "website_url": "",
    "phone": "",
    "created_at": "2018-07-24 01:33:27.762868",
    "updated_at": "2018-08-24 00:40:04.074688",
    "country": "United States",
    "longitude": "-70.2513253",
    "latitude": "43.6649414"
  },
  {
    "id": "3059",
    "name": "Oxbow Brewing Co",
    "brewery_type": "micro",
    "street": "274 Jones Woods Rd",
    "city": "Newcastle",
    "state": "Maine",
    "postal_code": "04553-3123",
    "website_url": "http://www.oxbowbeer.com",
    "phone": "2073155962",
    "created_at": "2018-07-24 01:33:27.777159",
    "updated_at": "2018-08-24 00:40:04.516107",
    "country": "United States",
    "longitude": "-69.5639953",
    "latitude": "44.0830789"
  },
  {
    "id": "3060",
    "name": "Peak Organic Brewing Co",
    "brewery_type": "proprietor",
    "street": "110 Marginal Way # 802",
    "city": "Portland",
    "state": "Maine",
    "postal_code": "04101-2442",
    "website_url": "http://www.peakbrewing.com",
    "phone": "2075865586",
    "created_at": "2018-07-24 01:33:27.789558",
    "updated_at": "2018-08-24 00:40:04.990187",
    "country": "United States",
    "longitude": "-70.2645487791521",
    "latitude": "43.6624477565325"
  },
  {
    "id": "3062",
    "name": "Penobscot Bay Brewery",
    "brewery_type": "micro",
    "street": "279 South Main Street",
    "city": "Winterport",
    "state": "Maine",
    "postal_code": "04496-0405",
    "website_url": "http://www.winterportwinery.com/brewery.asp",
    "phone": "2072234500",
    "created_at": "2018-07-24 01:33:27.82084",
    "updated_at": "2018-08-24 00:40:05.879705",
    "country": "United States",
    "longitude": "-68.847883",
    "latitude": "44.634187"
  },
  {
    "id": "3063",
    "name": "Rising Tide Brewing Co",
    "brewery_type": "micro",
    "street": "103 Fox St",
    "city": "Portland",
    "state": "Maine",
    "postal_code": "04101-2539",
    "website_url": "http://www.risingtidebrewing.com",
    "phone": "2073702337",
    "created_at": "2018-07-24 01:33:27.83442",
    "updated_at": "2018-08-24 00:40:06.303359",
    "country": "United States",
    "longitude": "-70.2570974",
    "latitude": "43.6655545"
  },
  {
    "id": "3064",
    "name": "Rock Harbor Brewing Co.",
    "brewery_type": "micro",
    "street": "5 Payne Ave",
    "city": "Rockland",
    "state": "Maine",
    "postal_code": "04841",
    "website_url": "http://www.rockharborbrewing.com",
    "phone": "2077017811",
    "created_at": "2018-07-24 01:33:27.849726",
    "updated_at": "2018-08-24 00:40:06.730528",
    "country": "United States",
    "longitude": "-69.127326",
    "latitude": "44.100544"
  },
  {
    "id": "3065",
    "name": "Rock Harbor Pub & Brewery",
    "brewery_type": "brewpub",
    "street": "416 Main St",
    "city": "Rockland",
    "state": "Maine",
    "postal_code": "04841-3345",
    "website_url": "",
    "phone": "2075937488",
    "created_at": "2018-07-24 01:33:27.866152",
    "updated_at": "2018-08-24 00:40:07.170036",
    "country": "United States",
    "longitude": "-69.1090755677013",
    "latitude": "44.1049557"
  },
  {
    "id": "3066",
    "name": "Run of the Mill Public House & Brewery",
    "brewery_type": "brewpub",
    "street": "100 Main St",
    "city": "Saco",
    "state": "Maine",
    "postal_code": "04072-3500",
    "website_url": "http://www.therunofthemill.net",
    "phone": "2075719648",
    "created_at": "2018-07-24 01:33:27.880983",
    "updated_at": "2018-08-24 00:40:07.76925",
    "country": "United States",
    "longitude": "-70.442601",
    "latitude": "43.501374"
  },
  {
    "id": "3068",
    "name": "Sea Dog Brewing",
    "brewery_type": "micro",
    "street": "1 Main St",
    "city": "Camden",
    "state": "Maine",
    "postal_code": "04843-1703",
    "website_url": "http://www.seadogbrewing.com",
    "phone": "",
    "created_at": "2018-07-24 01:33:27.909945",
    "updated_at": "2018-08-24 00:40:08.656236",
    "country": "United States",
    "longitude": "-69.064576",
    "latitude": "44.209809"
  },
  {
    "id": "3069",
    "name": "Sea Dog Brewing Co - Bangor",
    "brewery_type": "brewpub",
    "street": "26 Front St",
    "city": "Bangor",
    "state": "Maine",
    "postal_code": "04401-6418",
    "website_url": "http://www.seadogbrewing.com",
    "phone": "2079478009",
    "created_at": "2018-07-24 01:33:27.924182",
    "updated_at": "2018-08-24 00:40:09.075831",
    "country": "United States",
    "longitude": "-68.770233",
    "latitude": "44.7966948"
  },
  {
    "id": "3072",
    "name": "Sebago Brewing Co",
    "brewery_type": "micro",
    "street": "616 Main St",
    "city": "Gorham",
    "state": "Maine",
    "postal_code": "04038",
    "website_url": "http://www.sebagobrewing.com",
    "phone": "2078562537",
    "created_at": "2018-07-24 01:33:27.968854",
    "updated_at": "2018-08-24 00:40:10.360796",
    "country": "United States",
    "longitude": "-70.3970672263539",
    "latitude": "43.6895653252652"
  },
  {
    "id": "3077",
    "name": "Simplicity Brewing Company",
    "brewery_type": "micro",
    "street": "2473 Camden Rd",
    "city": "Warren",
    "state": "Maine",
    "postal_code": "04864-4113",
    "website_url": "http://www.mkt.com/simplicitybrewingsupplies",
    "phone": "2072730143",
    "created_at": "2018-07-24 01:33:28.049225",
    "updated_at": "2018-08-24 00:40:11.761071",
    "country": "United States",
    "longitude": "-69.18813489742",
    "latitude": "44.1517766212074"
  },
  {
    "id": "3080",
    "name": "Sunday River Brewing Company",
    "brewery_type": "brewpub",
    "street": "29 Sunday River Rd",
    "city": "Bethel",
    "state": "Maine",
    "postal_code": "04217-4623",
    "website_url": "http://www.sundayriverbrewingcompany.com",
    "phone": "2078244253",
    "created_at": "2018-07-24 01:33:28.100852",
    "updated_at": "2018-08-24 00:40:13.252059",
    "country": "United States",
    "longitude": "-70.8096128",
    "latitude": "44.4483482"
  },
  {
    "id": "3083",
    "name": "Tributary Brewing Company",
    "brewery_type": "micro",
    "street": "10 Shapleigh Rd",
    "city": "Kittery",
    "state": "Maine",
    "postal_code": "03904-1480",
    "website_url": "http://www.tributarybrewingcompany.com",
    "phone": "",
    "created_at": "2018-07-24 01:33:28.149242",
    "updated_at": "2018-08-24 00:40:14.108503",
    "country": "United States",
    "longitude": "-70.736801",
    "latitude": "43.090863"
  },
  {
    "id": "3085",
    "name": "Two Gramps Brewing",
    "brewery_type": "brewpub",
    "street": "266 Water St",
    "city": "Gardiner",
    "state": "Maine",
    "postal_code": "04345",
    "website_url": "http://www.twogrampsbrewing.com",
    "phone": "2075920776",
    "created_at": "2018-07-24 01:33:28.182002",
    "updated_at": "2018-08-24 00:40:15.015091",
    "country": "United States",
    "longitude": "-69.7729263367829",
    "latitude": "44.2295783203444"
  },
  {
    "id": "3087",
    "name": "Woodland Farms Brewery",
    "brewery_type": "micro",
    "street": "306 Route 1, Suite C",
    "city": "Kittery",
    "state": "Maine",
    "postal_code": "03904",
    "website_url": "http://www.wfbrewery.com",
    "phone": "2079943911",
    "created_at": "2018-07-24 01:33:28.210156",
    "updated_at": "2018-08-11 21:37:34.48626",
    "country": "United States",
    "longitude": "",
    "latitude": ""
  },
  {
    "id": "3089",
    "name": "York Beach Beer Company",
    "brewery_type": "planning",
    "street": "",
    "city": "York",
    "state": "Maine",
    "postal_code": "03902",
    "website_url": "",
    "phone": "",
    "created_at": "2018-07-24 01:33:28.235528",
    "updated_at": "2018-08-11 21:37:34.557942",
    "country": "United States",
    "longitude": "",
    "latitude": ""
  },
  {
    "id": "2985",
    "name": "Barreled Souls Brewing Company LLC",
    "brewery_type": "micro",
    "street": "743 Portland Rd",
    "city": "Saco",
    "state": "Maine",
    "postal_code": "04072-9005",
    "website_url": "http://www.barreledsouls.com",
    "phone": "2076026439",
    "created_at": "2018-07-24 01:33:26.810982",
    "updated_at": "2018-08-24 00:39:33.161571",
    "country": "United States",
    "longitude": "-70.405728",
    "latitude": "43.553358"
  },
  {
    "id": "3002",
    "name": "Definitive Brewing Company",
    "brewery_type": "micro",
    "street": "35 Industrial Way",
    "city": "Portland",
    "state": "Maine",
    "postal_code": "04103-1071",
    "website_url": "http://www.definitivebrewing.com",
    "phone": "",
    "created_at": "2018-07-24 01:33:27.02071",
    "updated_at": "2018-08-24 00:39:40.149564",
    "country": "United States",
    "longitude": "-70.3142737024466",
    "latitude": "43.7062952227186"
  },
  {
    "id": "3024",
    "name": "Inn On Peaks Island Brewery, The",
    "brewery_type": "brewpub",
    "street": "33 Island Ave",
    "city": "Peaks Island",
    "state": "Maine",
    "postal_code": "04108-1333",
    "website_url": "http://www.innonpeaks.com",
    "phone": "2077665100",
    "created_at": "2018-07-24 01:33:27.306331",
    "updated_at": "2018-08-24 00:39:50.246939",
    "country": "United States",
    "longitude": "-70.1979665982887",
    "latitude": "43.6541785122815"
  },
  {
    "id": "3037",
    "name": "Machias River Brewing Company",
    "brewery_type": "micro",
    "street": "86 Main St",
    "city": "Machias",
    "state": "Maine",
    "postal_code": "04654-1150",
    "website_url": "",
    "phone": "2072596001",
    "created_at": "2018-07-24 01:33:27.472737",
    "updated_at": "2018-08-24 00:39:55.80562",
    "country": "United States",
    "longitude": "-67.4580455052046",
    "latitude": "44.7144625749482"
  },
  {
    "id": "3047",
    "name": "North Haven Brewing Company",
    "brewery_type": "micro",
    "street": "2 Iron Point Rd # 2",
    "city": "North Haven",
    "state": "Maine",
    "postal_code": "04853",
    "website_url": "http://www.northhavenbrewing.com",
    "phone": "2078672337",
    "created_at": "2018-07-24 01:33:27.597838",
    "updated_at": "2018-08-24 00:39:59.640194",
    "country": "United States",
    "longitude": "-68.8719897",
    "latitude": "44.1280622"
  },
  {
    "id": "3070",
    "name": "Sea Dog Brewing Co - S. Portland",
    "brewery_type": "brewpub",
    "street": "125 Western Ave",
    "city": "S Portland",
    "state": "Maine",
    "postal_code": "04106-2413",
    "website_url": "http://www.seadogbrewing.com",
    "phone": "2078717000",
    "created_at": "2018-07-24 01:33:27.940506",
    "updated_at": "2018-08-24 00:40:09.500152",
    "country": "United States",
    "longitude": "-70.3190306679039",
    "latitude": "43.63519195"
  },
  {
    "id": "3088",
    "name": "Yes Brewing",
    "brewery_type": "micro",
    "street": "609 Main St",
    "city": "Westbrook",
    "state": "Maine",
    "postal_code": "04092-4143",
    "website_url": "http://www.yesbrewing.com",
    "phone": "2075910633",
    "created_at": "2018-07-24 01:33:28.222804",
    "updated_at": "2018-08-24 00:40:16.244678",
    "country": "United States",
    "longitude": "-70.357762851534",
    "latitude": "43.678384349842"
  },
  {
    "id": "2992",
    "name": "Bigelow Brewing Company",
    "brewery_type": "brewpub",
    "street": "473 Bigelow Hill Rd",
    "city": "Skowhegan",
    "state": "Maine",
    "postal_code": "04976-5126",
    "website_url": "http://www.bigelowbrewing.com",
    "phone": "2073996262",
    "created_at": "2018-07-24 01:33:26.894155",
    "updated_at": "2018-08-24 00:39:36.370873",
    "country": "United States",
    "longitude": "-69.7296161313716",
    "latitude": "44.7199196699464"
  },
  {
    "id": "3000",
    "name": "D.L. Geary Brewing Co Inc.",
    "brewery_type": "micro",
    "street": "38 Evergreen Dr",
    "city": "Portland",
    "state": "Maine",
    "postal_code": "04103-1066",
    "website_url": "http://www.gearybrewing.com",
    "phone": "2078782337",
    "created_at": "2018-07-24 01:33:26.993603",
    "updated_at": "2018-08-24 00:39:39.267236",
    "country": "United States",
    "longitude": "-70.314848130679",
    "latitude": "43.7076741571514"
  },
  {
    "id": "3021",
    "name": "Gritty McDuffs - Portland",
    "brewery_type": "brewpub",
    "street": "396 Fore St",
    "city": "Portland",
    "state": "Maine",
    "postal_code": "04101-4026",
    "website_url": "http://www.grittys.com",
    "phone": "2077722739",
    "created_at": "2018-07-24 01:33:27.26609",
    "updated_at": "2018-08-24 00:39:48.759561",
    "country": "United States",
    "longitude": "-70.2533609",
    "latitude": "43.6564108"
  },
  {
    "id": "3042",
    "name": "Mason's Brewing Company",
    "brewery_type": "micro",
    "street": "15 Hardy St",
    "city": "Brewer",
    "state": "Maine",
    "postal_code": "04412-2207",
    "website_url": "http://www.masonsbrewingcompany.com",
    "phone": "2079896300",
    "created_at": "2018-07-24 01:33:27.533054",
    "updated_at": "2018-08-24 00:39:57.57573",
    "country": "United States",
    "longitude": "-68.7695709213165",
    "latitude": "44.7914659606583"
  },
  {
    "id": "3049",
    "name": "Norway Brewing Company",
    "brewery_type": "brewpub",
    "street": "237 Main St",
    "city": "Norway",
    "state": "Maine",
    "postal_code": "04268-5913",
    "website_url": "http://www.norwaybrewing.com",
    "phone": "2077392126",
    "created_at": "2018-07-24 01:33:27.625823",
    "updated_at": "2018-08-24 00:40:01.014025",
    "country": "United States",
    "longitude": "-70.5268344",
    "latitude": "44.1973621"
  },
  {
    "id": "3075",
    "name": "Shipyard Brewing Co",
    "brewery_type": "regional",
    "street": "86 Newbury St",
    "city": "Portland",
    "state": "Maine",
    "postal_code": "04101-4219",
    "website_url": "http://www.shipyard.com",
    "phone": "2077610807",
    "created_at": "2018-07-24 01:33:28.019419",
    "updated_at": "2018-08-24 00:40:11.302378",
    "country": "United States",
    "longitude": "-70.2486231394133",
    "latitude": "43.6615851"
  },
  {
    "id": "2986",
    "name": "Bath Brewing Company",
    "brewery_type": "brewpub",
    "street": "141 Front St",
    "city": "Bath",
    "state": "Maine",
    "postal_code": "04530",
    "website_url": "http://www.bathbrewing.com",
    "phone": "2075603389",
    "created_at": "2018-07-24 01:33:26.823154",
    "updated_at": "2018-08-24 00:39:33.620094",
    "country": "United States",
    "longitude": "-69.8141459329791",
    "latitude": "43.9140854135672"
  },
  {
    "id": "3038",
    "name": "Maine Beer Co",
    "brewery_type": "micro",
    "street": "525 US Route 1",
    "city": "Freeport",
    "state": "Maine",
    "postal_code": "04032-7009",
    "website_url": "http://www.mainebeercompany.com",
    "phone": "2072215711",
    "created_at": "2018-07-24 01:33:27.484828",
    "updated_at": "2018-08-11 21:37:32.878388",
    "country": "United States",
    "longitude": "",
    "latitude": ""
  },
  {
    "id": "3034",
    "name": "Lost Valley Brewing Co",
    "brewery_type": "micro",
    "street": "200 Lost Valley Rd",
    "city": "Auburn",
    "state": "Maine",
    "postal_code": "04210",
    "website_url": "",
    "phone": "",
    "created_at": "2018-07-24 01:33:27.434389",
    "updated_at": "2018-08-24 00:39:54.884057",
    "country": "United States",
    "longitude": "-70.280399",
    "latitude": "44.130958"
  },
  {
    "id": "3035",
    "name": "Lubec Brewing Co",
    "brewery_type": "brewpub",
    "street": "41 Water St",
    "city": "Lubec",
    "state": "Maine",
    "postal_code": "04652-",
    "website_url": "",
    "phone": "2077334555",
    "created_at": "2018-07-24 01:33:27.44707",
    "updated_at": "2018-08-24 00:39:55.32726",
    "country": "United States",
    "longitude": "-66.9834808572428",
    "latitude": "44.8608311821362"
  },
  {
    "id": "3036",
    "name": "Lucky Pigeon Brewing",
    "brewery_type": "planning",
    "street": "",
    "city": "Gorham",
    "state": "Maine",
    "postal_code": "04038-2371",
    "website_url": "",
    "phone": "",
    "created_at": "2018-07-24 01:33:27.458614",
    "updated_at": "2018-08-11 21:37:32.805563",
    "country": "United States",
    "longitude": "",
    "latitude": ""
  },
  {
    "id": "2977",
    "name": "Andrews Brewing Co",
    "brewery_type": "micro",
    "street": "353 High St",
    "city": "Lincolnville",
    "state": "Maine",
    "postal_code": "04849-5846",
    "website_url": "",
    "phone": "2077633305",
    "created_at": "2018-07-24 01:33:26.707755",
    "updated_at": "2018-08-11 21:37:30.275254",
    "country": "United States",
    "longitude": "",
    "latitude": ""
  },
  {
    "id": "2978",
    "name": "Atlantic Brewing Co",
    "brewery_type": "micro",
    "street": "15 Knox Rd",
    "city": "Bar Harbor",
    "state": "Maine",
    "postal_code": "04609-7770",
    "website_url": "http://atlanticbrewing.com",
    "phone": "2072882337",
    "created_at": "2018-07-24 01:33:26.720517",
    "updated_at": "2018-08-11 21:37:30.310463",
    "country": "United States",
    "longitude": "",
    "latitude": ""
  },
  {
    "id": "2980",
    "name": "Austin Street Brewery",
    "brewery_type": "micro",
    "street": "1 Industrial Way Ste 8",
    "city": "Portland",
    "state": "Maine",
    "postal_code": "04103-1072",
    "website_url": "http://www.austinstreetbrewery.com",
    "phone": "2072001994",
    "created_at": "2018-07-24 01:33:26.747663",
    "updated_at": "2018-08-11 21:37:30.384519",
    "country": "United States",
    "longitude": "",
    "latitude": ""
  },
  {
    "id": "2982",
    "name": "Bag and Kettle, The",
    "brewery_type": "brewpub",
    "street": "9000 Main St Apt 21",
    "city": "Carrabassett Valley",
    "state": "Maine",
    "postal_code": "04947-6808",
    "website_url": "http://www.thebagandkettle.com",
    "phone": "2072372451",
    "created_at": "2018-07-24 01:33:26.77347",
    "updated_at": "2018-08-11 21:37:30.419882",
    "country": "United States",
    "longitude": "",
    "latitude": ""
  },
  {
    "id": "2983",
    "name": "Banded Brewing Company",
    "brewery_type": "micro",
    "street": "32 Main St. Bldg 13-W Ste 102",
    "city": "Biddeford",
    "state": "Maine",
    "postal_code": "04005-5145",
    "website_url": "http://www.bandedhorn.com",
    "phone": "2076021561",
    "created_at": "2018-07-24 01:33:26.785399",
    "updated_at": "2018-08-11 21:37:30.445497",
    "country": "United States",
    "longitude": "",
    "latitude": ""
  },
  {
    "id": "2984",
    "name": "Bangor Beer Co.",
    "brewery_type": "brewpub",
    "street": "330 Bangor Mall Blvd",
    "city": "Bangor",
    "state": "Maine",
    "postal_code": "04401-3644",
    "website_url": "http://www.bangorbeerco.com",
    "phone": "2079476605",
    "created_at": "2018-07-24 01:33:26.79752",
    "updated_at": "2018-08-11 21:37:30.506629",
    "country": "United States",
    "longitude": "",
    "latitude": ""
  },
  {
    "id": "2987",
    "name": "Battery Steele Brewing",
    "brewery_type": "micro",
    "street": "1 Industrial Way Ste 12",
    "city": "Portland",
    "state": "Maine",
    "postal_code": "04103-1072",
    "website_url": "http://www.batterysteele.com",
    "phone": "",
    "created_at": "2018-07-24 01:33:26.83569",
    "updated_at": "2018-08-11 21:37:30.649489",
    "country": "United States",
    "longitude": "",
    "latitude": ""
  },
  {
    "id": "2989",
    "name": "Bear Bones Beer",
    "brewery_type": "micro",
    "street": "2 Cottage St Ste 1",
    "city": "Bridgton",
    "state": "Maine",
    "postal_code": "04009-1137",
    "website_url": "",
    "phone": "2076478000",
    "created_at": "2018-07-24 01:33:26.858675",
    "updated_at": "2018-08-11 21:37:30.742683",
    "country": "United States",
    "longitude": "",
    "latitude": ""
  },
  {
    "id": "2974",
    "name": "2 Feet Brewing Company",
    "brewery_type": "brewpub",
    "street": "80 Columbia St",
    "city": "Bangor",
    "state": "Maine",
    "postal_code": "04401-6319",
    "website_url": "http://www.2feetbrewing.com",
    "phone": "2075731979",
    "created_at": "2018-07-24 01:33:26.6676",
    "updated_at": "2018-08-24 00:39:29.017962",
    "country": "United States",
    "longitude": "-68.7728309911078",
    "latitude": "44.8001268407908"
  },
  {
    "id": "2975",
    "name": "Airline Brewing Company",
    "brewery_type": "micro",
    "street": "22 Mill Ln",
    "city": "Amherst",
    "state": "Maine",
    "postal_code": "04428",
    "website_url": "http://www.abcmaine.beer",
    "phone": "2075842337",
    "created_at": "2018-07-24 01:33:26.681364",
    "updated_at": "2018-08-24 00:39:29.447538",
    "country": "United States",
    "longitude": "-68.3677435",
    "latitude": "44.8329462"
  },
  {
    "id": "2976",
    "name": "Allagash Brewing Co",
    "brewery_type": "regional",
    "street": "50 Industrial Way",
    "city": "Portland",
    "state": "Maine",
    "postal_code": "04103-1270",
    "website_url": "http://www.allagash.com",
    "phone": "2078785385",
    "created_at": "2018-07-24 01:33:26.694905",
    "updated_at": "2018-08-24 00:39:29.904503",
    "country": "United States",
    "longitude": "-70.3179518",
    "latitude": "43.7030951"
  },
  {
    "id": "2979",
    "name": "Atlantic Brewing Co / Bar Harbor Brewing",
    "brewery_type": "brewpub",
    "street": "52 Cottage Street Bar Harbor",
    "city": "Bar Harbor",
    "state": "Maine",
    "postal_code": "04609",
    "website_url": "http://www.barharborbrewing.com",
    "phone": "2072884592",
    "created_at": "2018-07-24 01:33:26.734138",
    "updated_at": "2018-08-24 00:39:31.014808",
    "country": "United States",
    "longitude": "-68.20607075",
    "latitude": "44.389488"
  },
  {
    "id": "2988",
    "name": "Baxter Brewing Co, LLC",
    "brewery_type": "regional",
    "street": "130 Mill St",
    "city": "Lewiston",
    "state": "Maine",
    "postal_code": "04240-7774",
    "website_url": "http://www.baxterbrewing.com",
    "phone": "2073336769",
    "created_at": "2018-07-24 01:33:26.847222",
    "updated_at": "2018-08-24 00:39:34.549134",
    "country": "United States",
    "longitude": "-70.219607",
    "latitude": "44.0956772791922"
  },
  {
    "id": "2990",
    "name": "Bear Bones Beer",
    "brewery_type": "micro",
    "street": "43 Lisbon St",
    "city": "Lewiston",
    "state": "Maine",
    "postal_code": "04240-7115",
    "website_url": "http://www.bearbonesbeer.com",
    "phone": "2072001324",
    "created_at": "2018-07-24 01:33:26.870666",
    "updated_at": "2018-08-24 00:39:35.481253",
    "country": "United States",
    "longitude": "-70.0960551875",
    "latitude": "44.0201273229167"
  },
  {
    "id": "2991",
    "name": "Belfast Bay Brewing Co",
    "brewery_type": "contract",
    "street": "100 Searsport Ave",
    "city": "Belfast",
    "state": "Maine",
    "postal_code": "04915-7221",
    "website_url": "http://www.belfastbaybrewing.com",
    "phone": "2074608654",
    "created_at": "2018-07-24 01:33:26.882351",
    "updated_at": "2018-08-24 00:39:35.918614",
    "country": "United States",
    "longitude": "-68.9880177",
    "latitude": "44.4309432"
  },
  {
    "id": "2994",
    "name": "Black Bear Brewery",
    "brewery_type": "micro",
    "street": "19 Mill St Ste 4",
    "city": "Orono",
    "state": "Maine",
    "postal_code": "04473-4095",
    "website_url": "http://www.blackbearmicrobrew.com",
    "phone": "2078899123",
    "created_at": "2018-07-24 01:33:26.917746",
    "updated_at": "2018-08-11 21:37:30.945281",
    "country": "United States",
    "longitude": "",
    "latitude": ""
  },
  {
    "id": "2995",
    "name": "Blank Canvas Brewery",
    "brewery_type": "micro",
    "street": "46 Betton St Ste 3",
    "city": "Brewer",
    "state": "Maine",
    "postal_code": "04412-2636",
    "website_url": "http://www.blankcanvasbrewery.wordpress.com",
    "phone": "",
    "created_at": "2018-07-24 01:33:26.929735",
    "updated_at": "2018-08-11 21:37:31.002617",
    "country": "United States",
    "longitude": "",
    "latitude": ""
  },
  {
    "id": "2996",
    "name": "Boothbay Craft Brewery, Inc",
    "brewery_type": "micro",
    "street": "301 Adams Pond Rd",
    "city": "Boothbay",
    "state": "Maine",
    "postal_code": "04537-4334",
    "website_url": "http://www.boothbaycraftbrewery.com",
    "phone": "2076333411",
    "created_at": "2018-07-24 01:33:26.942054",
    "updated_at": "2018-08-11 21:37:31.062897",
    "country": "United States",
    "longitude": "",
    "latitude": ""
  },
  {
    "id": "2997",
    "name": "Brewery in Planning - Portland",
    "brewery_type": "planning",
    "street": "",
    "city": "New Gloucester",
    "state": "Maine",
    "postal_code": "04260-4228",
    "website_url": "",
    "phone": "",
    "created_at": "2018-07-24 01:33:26.954273",
    "updated_at": "2018-08-11 21:37:31.123211",
    "country": "United States",
    "longitude": "",
    "latitude": ""
  },
  {
    "id": "2998",
    "name": "Bunker Brewing Co",
    "brewery_type": "micro",
    "street": "17 Westfield St Unit D",
    "city": "Portland",
    "state": "Maine",
    "postal_code": "04102-2730",
    "website_url": "http://www.bunkerbrewingco.com",
    "phone": "2074505014",
    "created_at": "2018-07-24 01:33:26.968228",
    "updated_at": "2018-08-11 21:37:31.175166",
    "country": "United States",
    "longitude": "",
    "latitude": ""
  },
  {
    "id": "3001",
    "name": "DeepWater Brewing Company",
    "brewery_type": "micro",
    "street": "33 Tenney Hl",
    "city": "Blue Hill",
    "state": "Maine",
    "postal_code": "04614",
    "website_url": "http://www.arborvine.com",
    "phone": "2073742411",
    "created_at": "2018-07-24 01:33:27.007271",
    "updated_at": "2018-08-11 21:37:31.399854",
    "country": "United States",
    "longitude": "",
    "latitude": ""
  },
  {
    "id": "3005",
    "name": "First Mile Brewing Company",
    "brewery_type": "micro",
    "street": "28 Market St Ste 103",
    "city": "Fort Kent",
    "state": "Maine",
    "postal_code": "04743",
    "website_url": "",
    "phone": "",
    "created_at": "2018-07-24 01:33:27.05546",
    "updated_at": "2018-08-11 21:37:31.54305",
    "country": "United States",
    "longitude": "",
    "latitude": ""
  },
  {
    "id": "3006",
    "name": "Flight Deck Brewing",
    "brewery_type": "micro",
    "street": "11 Atlantic Dr",
    "city": "Brunswick",
    "state": "Maine",
    "postal_code": "04011-4400",
    "website_url": "http://www.flightdeckbrewing.com",
    "phone": "2075045133",
    "created_at": "2018-07-24 01:33:27.067277",
    "updated_at": "2018-08-11 21:37:31.575427",
    "country": "United States",
    "longitude": "",
    "latitude": ""
  },
  {
    "id": "3010",
    "name": "Foundation Brewing Company",
    "brewery_type": "micro",
    "street": "1 Industrial Way Ste 5",
    "city": "Portland",
    "state": "Maine",
    "postal_code": "04103-1072",
    "website_url": "http://www.foundationbrew.com",
    "phone": "2073708187",
    "created_at": "2018-07-24 01:33:27.113329",
    "updated_at": "2018-08-11 21:37:31.775564",
    "country": "United States",
    "longitude": "",
    "latitude": ""
  },
  {
    "id": "3017",
    "name": "Goodfire Brewing Company",
    "brewery_type": "micro",
    "street": "219 Anderson St Ste 6",
    "city": "Portland",
    "state": "Maine",
    "postal_code": "04101-1401",
    "website_url": "http://www.goodfirebrewing.com",
    "phone": "2078088910",
    "created_at": "2018-07-24 01:33:27.209366",
    "updated_at": "2018-08-11 21:37:32.021603",
    "country": "United States",
    "longitude": "",
    "latitude": ""
  },
  {
    "id": "3018",
    "name": "Grateful Grain Brewing Company",
    "brewery_type": "micro",
    "street": "26 Route 126",
    "city": "Monmouth",
    "state": "Maine",
    "postal_code": "04259-7727",
    "website_url": "http://www.gratefulgrainbrewing.com",
    "phone": "",
    "created_at": "2018-07-24 01:33:27.223178",
    "updated_at": "2018-08-11 21:37:32.05698",
    "country": "United States",
    "longitude": "",
    "latitude": ""
  },
  {
    "id": "3019",
    "name": "Gritty McDuffs - Freeport",
    "brewery_type": "brewpub",
    "street": "187 Lower Main St",
    "city": "Freeport",
    "state": "Maine",
    "postal_code": "04032",
    "website_url": "http://www.grittys.com",
    "phone": "2078654321",
    "created_at": "2018-07-24 01:33:27.237663",
    "updated_at": "2018-08-11 21:37:32.107646",
    "country": "United States",
    "longitude": "",
    "latitude": ""
  },
  {
    "id": "3027",
    "name": "Kennebec River Brewery",
    "brewery_type": "brewpub",
    "street": "1771 US Rte 201",
    "city": "West Forks",
    "state": "Maine",
    "postal_code": "04985-0100",
    "website_url": "http://www.northernoutdoors.com",
    "phone": "8007657238",
    "created_at": "2018-07-24 01:33:27.344303",
    "updated_at": "2018-08-11 21:37:32.424095",
    "country": "United States",
    "longitude": "",
    "latitude": ""
  },
  {
    "id": "3028",
    "name": "Kennebunkport Brewery / Federal Jacks",
    "brewery_type": "brewpub",
    "street": "8 Western Ave Ste 6",
    "city": "Kennebunk",
    "state": "Maine",
    "postal_code": "04043-7756",
    "website_url": "http://www.federaljacks.com",
    "phone": "2079674311",
    "created_at": "2018-07-24 01:33:27.357447",
    "updated_at": "2018-08-11 21:37:32.479615",
    "country": "United States",
    "longitude": "",
    "latitude": ""
  },
  {
    "id": "3029",
    "name": "Lake St George Brewing Company",
    "brewery_type": "micro",
    "street": "4 Marshall Shore Rd",
    "city": "Liberty",
    "state": "Maine",
    "postal_code": "04949",
    "website_url": "http://www.lakestgeorgebrewing.com",
    "phone": "2075893031",
    "created_at": "2018-07-24 01:33:27.370607",
    "updated_at": "2018-08-11 21:37:32.532821",
    "country": "United States",
    "longitude": "",
    "latitude": ""
  },
  {
    "id": "3032",
    "name": "Liquid Riot Bottling Co.",
    "brewery_type": "brewpub",
    "street": "4 Canal Plz Ste 1",
    "city": "Portland",
    "state": "Maine",
    "postal_code": "04101-4594",
    "website_url": "http://www.novareresbiercafe.com",
    "phone": "2072218889",
    "created_at": "2018-07-24 01:33:27.409908",
    "updated_at": "2018-08-11 21:37:32.643966",
    "country": "United States",
    "longitude": "",
    "latitude": ""
  },
  {
    "id": "3039",
    "name": "Mainely Brews Restaurant and Brewhouse",
    "brewery_type": "contract",
    "street": "1 Post Office Sq Ste 302",
    "city": "Waterville",
    "state": "Maine",
    "postal_code": "04901-6651",
    "website_url": "http://www.mainelybrews.com",
    "phone": "2078732457",
    "created_at": "2018-07-24 01:33:27.496595",
    "updated_at": "2018-08-11 21:37:32.911409",
    "country": "United States",
    "longitude": "",
    "latitude": ""
  },
  {
    "id": "2993",
    "name": "Bissell Brothers Brewing",
    "brewery_type": "micro",
    "street": "4 Thompsons Pt Ste 108",
    "city": "Portland",
    "state": "Maine",
    "postal_code": "04102-2639",
    "website_url": "http://www.bissellbrothers.com",
    "phone": "2074233622",
    "created_at": "2018-07-24 01:33:26.906081",
    "updated_at": "2018-08-24 00:39:36.895031",
    "country": "United States",
    "longitude": "-70.2904097",
    "latitude": "43.6514062"
  },
  {
    "id": "2999",
    "name": "Cushnoc Brewing Company",
    "brewery_type": "brewpub",
    "street": "243 Water St",
    "city": "Augusta",
    "state": "Maine",
    "postal_code": "04330-4615",
    "website_url": "http://www.cushnocbrewing.com",
    "phone": "2072136332",
    "created_at": "2018-07-24 01:33:26.980655",
    "updated_at": "2018-08-24 00:39:38.726842",
    "country": "United States",
    "longitude": "-69.7734423233329",
    "latitude": "44.3166434906408"
  },
  {
    "id": "3003",
    "name": "Dirigo Brewing Co.",
    "brewery_type": "micro",
    "street": "28 Pearl St",
    "city": "Biddeford",
    "state": "Maine",
    "postal_code": "04005-2040",
    "website_url": "http://www.dirigobrewingcompany.com",
    "phone": "2078385321",
    "created_at": "2018-07-24 01:33:27.032708",
    "updated_at": "2018-08-24 00:39:40.600128",
    "country": "United States",
    "longitude": "-70.4560858434247",
    "latitude": "43.4954570369912"
  },
  {
    "id": "3004",
    "name": "Drumming Grouse Brewery, LLC",
    "brewery_type": "micro",
    "street": "318 Fosterville Rd",
    "city": "Bridgton",
    "state": "Maine",
    "postal_code": "04009-4032",
    "website_url": "http://www.drumminggrousebrewery.com",
    "phone": "4109609679",
    "created_at": "2018-07-24 01:33:27.044196",
    "updated_at": "2018-08-24 00:39:41.064889",
    "country": "United States",
    "longitude": "-70.68838325",
    "latitude": "43.97416125"
  },
  {
    "id": "3007",
    "name": "Fogtown Brewing Company",
    "brewery_type": "micro",
    "street": "25 Pine St",
    "city": "Ellsworth",
    "state": "Maine",
    "postal_code": "04605-2023",
    "website_url": "http://www.fogtownbrewing.com",
    "phone": "6103897224",
    "created_at": "2018-07-24 01:33:27.078802",
    "updated_at": "2018-08-24 00:39:42.386373",
    "country": "United States",
    "longitude": "-68.4225979085975",
    "latitude": "44.5408544017856"
  },
  {
    "id": "3008",
    "name": "Fore River Brewing Company",
    "brewery_type": "micro",
    "street": "45 Huntress Ave",
    "city": "South Portland",
    "state": "Maine",
    "postal_code": "04106-4115",
    "website_url": "http://www.foreriverbrewing.com",
    "phone": "2073700629",
    "created_at": "2018-07-24 01:33:27.090327",
    "updated_at": "2018-08-24 00:39:42.896808",
    "country": "United States",
    "longitude": "-70.2876710514231",
    "latitude": "43.6324906649993"
  },
  {
    "id": "3009",
    "name": "Foulmouthed Brewing",
    "brewery_type": "brewpub",
    "street": "15 Ocean St",
    "city": "South Portland",
    "state": "Maine",
    "postal_code": "04106-2838",
    "website_url": "http://www.foulmouthedbrewing.com",
    "phone": "2076186977",
    "created_at": "2018-07-24 01:33:27.101971",
    "updated_at": "2018-08-24 00:39:43.338415",
    "country": "United States",
    "longitude": "-70.2548007",
    "latitude": "43.640989"
  },
  {
    "id": "3011",
    "name": "Friars' Brewhouse",
    "brewery_type": "micro",
    "street": "84 Main St",
    "city": "Bucksport",
    "state": "Maine",
    "postal_code": "04416",
    "website_url": "",
    "phone": "2079473770",
    "created_at": "2018-07-24 01:33:27.125679",
    "updated_at": "2018-08-24 00:39:44.297916",
    "country": "United States",
    "longitude": "-68.7955841416602",
    "latitude": "44.572023444336"
  },
  {
    "id": "3012",
    "name": "Funky Bow Brewery & Beer Company",
    "brewery_type": "micro",
    "street": "21 Ledgewood Ln",
    "city": "Lyman",
    "state": "Maine",
    "postal_code": "04002-7376",
    "website_url": "http://www.funkybowbeercompany.com",
    "phone": "2074096814",
    "created_at": "2018-07-24 01:33:27.137806",
    "updated_at": "2018-08-24 00:39:44.707021",
    "country": "United States",
    "longitude": "-70.6014619517209",
    "latitude": "43.485394973714"
  },
  {
    "id": "3013",
    "name": "Gary's Olde Towne Tavern",
    "brewery_type": "micro",
    "street": "678 Roosevelt Trl",
    "city": "Naples",
    "state": "Maine",
    "postal_code": "04055-5335",
    "website_url": "http://www.garysoldetownetavern.com",
    "phone": "2076936806",
    "created_at": "2018-07-24 01:33:27.151896",
    "updated_at": "2018-08-24 00:39:45.189174",
    "country": "United States",
    "longitude": "-70.601073",
    "latitude": "43.969705"
  },
  {
    "id": "3014",
    "name": "Geaghan Brothers Brewing Co",
    "brewery_type": "micro",
    "street": "34 Abbott St",
    "city": "Brewer",
    "state": "Maine",
    "postal_code": "04412-2202",
    "website_url": "http://www.geaghanspub.com",
    "phone": "2079453730",
    "created_at": "2018-07-24 01:33:27.166298",
    "updated_at": "2018-08-24 00:39:45.634504",
    "country": "United States",
    "longitude": "-68.7731077570875",
    "latitude": "44.7820807899116"
  },
  {
    "id": "3015",
    "name": "Geaghan's Pub & Craft Brewery",
    "brewery_type": "brewpub",
    "street": "570 Main St",
    "city": "Bangor",
    "state": "Maine",
    "postal_code": "04401-6821",
    "website_url": "http://www.geaghanspub.com",
    "phone": "2079453730",
    "created_at": "2018-07-24 01:33:27.180176",
    "updated_at": "2018-08-24 00:39:46.086423",
    "country": "United States",
    "longitude": "-68.777503",
    "latitude": "44.7867295"
  },
  {
    "id": "3016",
    "name": "Gneiss Brewing",
    "brewery_type": "micro",
    "street": "94 Patterson Rd",
    "city": "Limerick",
    "state": "Maine",
    "postal_code": "04048-4242",
    "website_url": "http://www.gneissbeer.com",
    "phone": "2077930046",
    "created_at": "2018-07-24 01:33:27.195441",
    "updated_at": "2018-08-24 00:39:46.522274",
    "country": "United States",
    "longitude": "-70.817997472363",
    "latitude": "43.6483130614011"
  },
  {
    "id": "3020",
    "name": "Gritty McDuffs - Lewiston/Auburn",
    "brewery_type": "brewpub",
    "street": "68 Main St",
    "city": "Auburn",
    "state": "Maine",
    "postal_code": "04210-5812",
    "website_url": "",
    "phone": "2073762739",
    "created_at": "2018-07-24 01:33:27.25184",
    "updated_at": "2018-08-24 00:39:48.311665",
    "country": "United States",
    "longitude": "-70.2244866515385",
    "latitude": "44.0971728"
  },
  {
    "id": "3022",
    "name": "Gruit Brewing",
    "brewery_type": "micro",
    "street": "200 Anderson St",
    "city": "Portland",
    "state": "Maine",
    "postal_code": "04101-2562",
    "website_url": "http://www.fermentory.com",
    "phone": "2077738331",
    "created_at": "2018-07-24 01:33:27.281333",
    "updated_at": "2018-08-24 00:39:49.201895",
    "country": "United States",
    "longitude": "-70.255898",
    "latitude": "43.669074"
  },
  {
    "id": "3023",
    "name": "Hidden Cove Brewing Co",
    "brewery_type": "micro",
    "street": "73 Mile Rd",
    "city": "Wells",
    "state": "Maine",
    "postal_code": "04090-4135",
    "website_url": "http://www.hiddencovebrewingcompany.com",
    "phone": "2076460228",
    "created_at": "2018-07-24 01:33:27.294052",
    "updated_at": "2018-08-24 00:39:49.773707",
    "country": "United States",
    "longitude": "-70.5810454782609",
    "latitude": "43.3040770434783"
  },
  {
    "id": "3025",
    "name": "Island Dog Brewing",
    "brewery_type": "micro",
    "street": "125 John Roberts Rd",
    "city": "South Portland",
    "state": "Maine",
    "postal_code": "04106-3295",
    "website_url": "http://www.islanddogbrewing.com",
    "phone": "2073300283",
    "created_at": "2018-07-24 01:33:27.318983",
    "updated_at": "2018-08-24 00:39:50.726004",
    "country": "United States",
    "longitude": "-70.3310144167096",
    "latitude": "43.6305938611312"
  },
  {
    "id": "3026",
    "name": "Jack Russell's Steakhouse and Brewery / Maine Coast Brewing Co.",
    "brewery_type": "brewpub",
    "street": "102 Eden St",
    "city": "Bar Harbor",
    "state": "Maine",
    "postal_code": "04609-1106",
    "website_url": "http://www.jackrussellssteakhouse.com",
    "phone": "2072885214",
    "created_at": "2018-07-24 01:33:27.332152",
    "updated_at": "2018-08-24 00:39:51.187383",
    "country": "United States",
    "longitude": "-68.2231868",
    "latitude": "44.3946497"
  },
  {
    "id": "3030",
    "name": "Liberal Cup Public House and Brewery",
    "brewery_type": "brewpub",
    "street": "115 Water St",
    "city": "Hallowell",
    "state": "Maine",
    "postal_code": "04347-1357",
    "website_url": "http://www.theliberalcup.com",
    "phone": "2076232739",
    "created_at": "2018-07-24 01:33:27.38444",
    "updated_at": "2018-08-24 00:39:53.029261",
    "country": "United States",
    "longitude": "-69.7901306835835",
    "latitude": "44.2868199627939"
  },
  {
    "id": "3031",
    "name": "Liberty Craft Brewing",
    "brewery_type": "brewpub",
    "street": "7 Coon Mountain Ln",
    "city": "Liberty",
    "state": "Maine",
    "postal_code": "04949-3654",
    "website_url": "http://www.libertycraftbrewing.com",
    "phone": "2073227663",
    "created_at": "2018-07-24 01:33:27.39741",
    "updated_at": "2018-08-24 00:39:53.512443",
    "country": "United States",
    "longitude": "-69.3313975602951",
    "latitude": "44.3619996435424"
  },
  {
    "id": "3033",
    "name": "Lone Pine Brewing Company",
    "brewery_type": "micro",
    "street": "219 Anderson St #4",
    "city": "Portland",
    "state": "Maine",
    "postal_code": "04101-1400",
    "website_url": "http://www.lonepinebrewery.com",
    "phone": "2075364952",
    "created_at": "2018-07-24 01:33:27.422102",
    "updated_at": "2018-08-24 00:39:54.411148",
    "country": "United States",
    "longitude": "-70.2557731770637",
    "latitude": "43.6696532249529"
  },
  {
    "id": "3040",
    "name": "Marsh Island Brewing Company",
    "brewery_type": "micro",
    "street": "2 Main St",
    "city": "Orono",
    "state": "Maine",
    "postal_code": "04473-4004",
    "website_url": "http://www.marshislandbrewing.com",
    "phone": "2078661277",
    "created_at": "2018-07-24 01:33:27.509116",
    "updated_at": "2018-08-24 00:39:57.150246",
    "country": "United States",
    "longitude": "-68.671416",
    "latitude": "44.884496"
  },
  {
    "id": "3041",
    "name": "Marshall Wharf Brewing Co",
    "brewery_type": "micro",
    "street": "40 Marshall Wharf",
    "city": "Belfast",
    "state": "Maine",
    "postal_code": "04915-6835",
    "website_url": "http://www.marshallwharf.com",
    "phone": "2073381707",
    "created_at": "2018-07-24 01:33:27.521031",
    "updated_at": "2018-08-11 21:37:32.981492",
    "country": "United States",
    "longitude": "",
    "latitude": ""
  },
  {
    "id": "3046",
    "name": "Nonesuch River Brewing",
    "brewery_type": "brewpub",
    "street": "201 Gorham Rd",
    "city": "Scarborough",
    "state": "Maine",
    "postal_code": "04074-8970",
    "website_url": "http://www.nonesuchriverbrewing.com",
    "phone": "2072198948",
    "created_at": "2018-07-24 01:33:27.584518",
    "updated_at": "2018-08-11 21:37:33.17553",
    "country": "United States",
    "longitude": "",
    "latitude": ""
  },
  {
    "id": "3050",
    "name": "Nuts and Bolts Brewing",
    "brewery_type": "micro",
    "street": "10 Westpoint Ln Bldg 10 Ste 204",
    "city": "Biddeford",
    "state": "Maine",
    "postal_code": "04005",
    "website_url": "http://www.nutsnboltsbeer.com",
    "phone": "2074681538",
    "created_at": "2018-07-24 01:33:27.640185",
    "updated_at": "2018-08-11 21:37:33.326308",
    "country": "United States",
    "longitude": "",
    "latitude": ""
  },
  {
    "id": "3051",
    "name": "Oak Pond Brewing Co",
    "brewery_type": "micro",
    "street": "101 Oak Pond Rd",
    "city": "Skowhegan",
    "state": "Maine",
    "postal_code": "04976-4602",
    "website_url": "http://www.oakpondbrewery.com",
    "phone": "2074743233",
    "created_at": "2018-07-24 01:33:27.654831",
    "updated_at": "2018-08-11 21:37:33.377136",
    "country": "United States",
    "longitude": "",
    "latitude": ""
  },
  {
    "id": "3052",
    "name": "Odd Alewives Farm Brewery",
    "brewery_type": "micro",
    "street": "99 Old Rte One",
    "city": "Waldoboro",
    "state": "Maine",
    "postal_code": "04572",
    "website_url": "http://www.oddalewives.com",
    "phone": "2077908406",
    "created_at": "2018-07-24 01:33:27.670707",
    "updated_at": "2018-08-11 21:37:33.414713",
    "country": "United States",
    "longitude": "",
    "latitude": ""
  },
  {
    "id": "3053",
    "name": "One Eye Open Brewing Company",
    "brewery_type": "micro",
    "street": "41 Fox Street Shed A",
    "city": "Portland",
    "state": "Maine",
    "postal_code": "04101-2538",
    "website_url": "http://www.oeobrewing.com",
    "phone": "2075364176",
    "created_at": "2018-07-24 01:33:27.687667",
    "updated_at": "2018-08-11 21:37:33.446762",
    "country": "United States",
    "longitude": "",
    "latitude": ""
  },
  {
    "id": "3055",
    "name": "Orono Brewing Brewery & Draught Room",
    "brewery_type": "planning",
    "street": "",
    "city": "Orono",
    "state": "Maine",
    "postal_code": "04473",
    "website_url": "",
    "phone": "",
    "created_at": "2018-07-24 01:33:27.719125",
    "updated_at": "2018-08-11 21:37:33.502402",
    "country": "United States",
    "longitude": "",
    "latitude": ""
  },
  {
    "id": "3057",
    "name": "Outland Farm Brewery",
    "brewery_type": "planning",
    "street": "",
    "city": "Pittsfield",
    "state": "Maine",
    "postal_code": "04967-5811",
    "website_url": "http://www.outlandfarmbrewery.com",
    "phone": "2076168125",
    "created_at": "2018-07-24 01:33:27.747323",
    "updated_at": "2018-08-11 21:37:33.562282",
    "country": "United States",
    "longitude": "",
    "latitude": ""
  },
  {
    "id": "3061",
    "name": "Pennesseewassee Brewing",
    "brewery_type": "micro",
    "street": "458 Plains Rd",
    "city": "Harrison",
    "state": "Maine",
    "postal_code": "04040-3829",
    "website_url": "http://www.pennybrew.com",
    "phone": "2077439808",
    "created_at": "2018-07-24 01:33:27.804133",
    "updated_at": "2018-08-11 21:37:33.694404",
    "country": "United States",
    "longitude": "",
    "latitude": ""
  },
  {
    "id": "3067",
    "name": "Saco River Brewing",
    "brewery_type": "micro",
    "street": "10 Jockey Cap Ln",
    "city": "Fryeburg",
    "state": "Maine",
    "postal_code": "04037-1428",
    "website_url": "http://www.facebook.com/sacoriverbrewing",
    "phone": "2072563028",
    "created_at": "2018-07-24 01:33:27.894984",
    "updated_at": "2018-08-11 21:37:33.87533",
    "country": "United States",
    "longitude": "",
    "latitude": ""
  },
  {
    "id": "3071",
    "name": "Sebago Brewing Co",
    "brewery_type": "micro",
    "street": "48 Sanford Dr",
    "city": "Gorham",
    "state": "Maine",
    "postal_code": "04038-2646",
    "website_url": "",
    "phone": "",
    "created_at": "2018-07-24 01:33:27.954575",
    "updated_at": "2018-08-11 21:37:33.995207",
    "country": "United States",
    "longitude": "",
    "latitude": ""
  },
  {
    "id": "3073",
    "name": "Sheepscot Valley Brewing Co",
    "brewery_type": "micro",
    "street": "74 Hollywood Blvd",
    "city": "Whitefield",
    "state": "Maine",
    "postal_code": "04353-3729",
    "website_url": "http://www.sheepscotbrewing.com",
    "phone": "2075495530",
    "created_at": "2018-07-24 01:33:27.984083",
    "updated_at": "2018-08-11 21:37:34.057224",
    "country": "United States",
    "longitude": "",
    "latitude": ""
  },
  {
    "id": "3074",
    "name": "Shipyard Brew Pub Eliot",
    "brewery_type": "brewpub",
    "street": "28 Levesque Dr Ste 4 C/O Eliot Commons",
    "city": "Eliot",
    "state": "Maine",
    "postal_code": "03903-2073",
    "website_url": "http://www.shipyard.com",
    "phone": "2076862026",
    "created_at": "2018-07-24 01:33:27.998563",
    "updated_at": "2018-08-11 21:37:34.085214",
    "country": "United States",
    "longitude": "",
    "latitude": ""
  },
  {
    "id": "3076",
    "name": "Side By Each Brewing Co",
    "brewery_type": "planning",
    "street": "",
    "city": "Auburn",
    "state": "Maine",
    "postal_code": "04210-3739",
    "website_url": "",
    "phone": "2073479920",
    "created_at": "2018-07-24 01:33:28.035343",
    "updated_at": "2018-08-11 21:37:34.14074",
    "country": "United States",
    "longitude": "",
    "latitude": ""
  },
  {
    "id": "3078",
    "name": "SoMe Brewing Co",
    "brewery_type": "micro",
    "street": "1 York St Ste 3",
    "city": "York",
    "state": "Maine",
    "postal_code": "03909-1392",
    "website_url": "http://somebrewingco.com",
    "phone": "2073518162",
    "created_at": "2018-07-24 01:33:28.066258",
    "updated_at": "2018-08-11 21:37:34.206288",
    "country": "United States",
    "longitude": "",
    "latitude": ""
  },
  {
    "id": "3079",
    "name": "Strong Brewing",
    "brewery_type": "micro",
    "street": "7 Rope Ferry Rd",
    "city": "Sedgwick",
    "state": "Maine",
    "postal_code": "04676-3409",
    "website_url": "http://strongbrewing.com/",
    "phone": "2073598722",
    "created_at": "2018-07-24 01:33:28.083186",
    "updated_at": "2018-08-11 21:37:34.238517",
    "country": "United States",
    "longitude": "",
    "latitude": ""
  },
  {
    "id": "3081",
    "name": "The Pour Farm",
    "brewery_type": "planning",
    "street": "",
    "city": "Union",
    "state": "Maine",
    "postal_code": "04862",
    "website_url": "http://www.thepourfarm.com",
    "phone": "5083805372",
    "created_at": "2018-07-24 01:33:28.116592",
    "updated_at": "2018-08-11 21:37:34.295739",
    "country": "United States",
    "longitude": "",
    "latitude": ""
  },
  {
    "id": "3082",
    "name": "Threshers Brewing Company",
    "brewery_type": "micro",
    "street": "22 Main St N Bldg 3B",
    "city": "Searsmont",
    "state": "Maine",
    "postal_code": "04973-3409",
    "website_url": "http://www.threshersbrewingco.com",
    "phone": "2079753225",
    "created_at": "2018-07-24 01:33:28.134035",
    "updated_at": "2018-08-11 21:37:34.322384",
    "country": "United States",
    "longitude": "",
    "latitude": ""
  },
  {
    "id": "3084",
    "name": "Tumbledown Brewing LLC",
    "brewery_type": "micro",
    "street": "805 Farmington Falls Rd Ste 7",
    "city": "Farmington",
    "state": "Maine",
    "postal_code": "04938-6454",
    "website_url": "http://www.tumbledownbrewing.com",
    "phone": "2079440697",
    "created_at": "2018-07-24 01:33:28.165256",
    "updated_at": "2018-08-11 21:37:34.379357",
    "country": "United States",
    "longitude": "",
    "latitude": ""
  },
  {
    "id": "3086",
    "name": "Van Der Brew",
    "brewery_type": "planning",
    "street": "",
    "city": "Winthrop",
    "state": "Maine",
    "postal_code": "04364-1253",
    "website_url": "",
    "phone": "2074411102",
    "created_at": "2018-07-24 01:33:28.196549",
    "updated_at": "2018-08-11 21:37:34.455335",
    "country": "United States",
    "longitude": "",
    "latitude": ""
  },
  {
    "id": "3043",
    "name": "Mast Landing Brewing Company",
    "brewery_type": "micro",
    "street": "920 Main St",
    "city": "Westbrook",
    "state": "Maine",
    "postal_code": "04092-2862",
    "website_url": "http://www.mastlandingbrewing.com",
    "phone": "2077126051",
    "created_at": "2018-07-24 01:33:27.547289",
    "updated_at": "2018-08-24 00:39:58.083292",
    "country": "United States",
    "longitude": "-70.3692048571428",
    "latitude": "43.676947"
  },
  {
    "id": "3044",
    "name": "Moderation Brewing",
    "brewery_type": "micro",
    "street": "103 Maine St",
    "city": "Brunswick",
    "state": "Maine",
    "postal_code": "04011-2012",
    "website_url": "http://www.moderationbrewery.com",
    "phone": "12073479918",
    "created_at": "2018-07-24 01:33:27.559632",
    "updated_at": "2018-08-24 00:39:58.547333",
    "country": "United States",
    "longitude": "-69.965668329693",
    "latitude": "43.9163192065825"
  },
  {
    "id": "3045",
    "name": "Monhegan Brewing Co.",
    "brewery_type": "micro",
    "street": "1 Boody Lane",
    "city": "Monhegan",
    "state": "Maine",
    "postal_code": "04852",
    "website_url": "http://www.monheganbrewing.com",
    "phone": "2079753958",
    "created_at": "2018-07-24 01:33:27.572611",
    "updated_at": "2018-08-24 00:39:58.985845",
    "country": "United States",
    "longitude": "-69.320989",
    "latitude": "43.758828"
  },
  {
    "id": "3048",
    "name": "Northern Maine Brewing Co",
    "brewery_type": "brewpub",
    "street": "22 Main St",
    "city": "Caribou",
    "state": "Maine",
    "postal_code": "04736-4163",
    "website_url": "",
    "phone": "2074922185",
    "created_at": "2018-07-24 01:33:27.611098",
    "updated_at": "2018-08-24 00:40:00.145427",
    "country": "United States",
    "longitude": "-67.9967099528407",
    "latitude": "46.8140769171635"
  },
  {
    "id": "3054",
    "name": "Orono Brewing Bangor Draught Room",
    "brewery_type": "micro",
    "street": "26 State St",
    "city": "Bangor",
    "state": "Maine",
    "postal_code": "04401",
    "website_url": "",
    "phone": "",
    "created_at": "2018-07-24 01:33:27.703555",
    "updated_at": "2018-08-24 00:40:03.064707",
    "country": "United States",
    "longitude": "-68.7428115",
    "latitude": "44.8115948265306"
  },
  {
    "id": "3056",
    "name": "Orono Brewing Company",
    "brewery_type": "brewpub",
    "street": "20 Main St",
    "city": "Orono",
    "state": "Maine",
    "postal_code": "04473",
    "website_url": "http://www.oronobrewing.com",
    "phone": "2078664677",
    "created_at": "2018-07-24 01:33:27.732752",
    "updated_at": "2018-08-24 00:40:03.609309",
    "country": "United States",
    "longitude": "-68.669582",
    "latitude": "44.8875409375"
  },
  {
    "id": "3058",
    "name": "Oxbow Blending & Bottling",
    "brewery_type": "micro",
    "street": "49 Washington Ave",
    "city": "Portland",
    "state": "Maine",
    "postal_code": "04101",
    "website_url": "",
    "phone": "",
    "created_at": "2018-07-24 01:33:27.762868",
    "updated_at": "2018-08-24 00:40:04.074688",
    "country": "United States",
    "longitude": "-70.2513253",
    "latitude": "43.6649414"
  },
  {
    "id": "3059",
    "name": "Oxbow Brewing Co",
    "brewery_type": "micro",
    "street": "274 Jones Woods Rd",
    "city": "Newcastle",
    "state": "Maine",
    "postal_code": "04553-3123",
    "website_url": "http://www.oxbowbeer.com",
    "phone": "2073155962",
    "created_at": "2018-07-24 01:33:27.777159",
    "updated_at": "2018-08-24 00:40:04.516107",
    "country": "United States",
    "longitude": "-69.5639953",
    "latitude": "44.0830789"
  },
  {
    "id": "3060",
    "name": "Peak Organic Brewing Co",
    "brewery_type": "proprietor",
    "street": "110 Marginal Way # 802",
    "city": "Portland",
    "state": "Maine",
    "postal_code": "04101-2442",
    "website_url": "http://www.peakbrewing.com",
    "phone": "2075865586",
    "created_at": "2018-07-24 01:33:27.789558",
    "updated_at": "2018-08-24 00:40:04.990187",
    "country": "United States",
    "longitude": "-70.2645487791521",
    "latitude": "43.6624477565325"
  },
  {
    "id": "3062",
    "name": "Penobscot Bay Brewery",
    "brewery_type": "micro",
    "street": "279 South Main Street",
    "city": "Winterport",
    "state": "Maine",
    "postal_code": "04496-0405",
    "website_url": "http://www.winterportwinery.com/brewery.asp",
    "phone": "2072234500",
    "created_at": "2018-07-24 01:33:27.82084",
    "updated_at": "2018-08-24 00:40:05.879705",
    "country": "United States",
    "longitude": "-68.847883",
    "latitude": "44.634187"
  },
  {
    "id": "3063",
    "name": "Rising Tide Brewing Co",
    "brewery_type": "micro",
    "street": "103 Fox St",
    "city": "Portland",
    "state": "Maine",
    "postal_code": "04101-2539",
    "website_url": "http://www.risingtidebrewing.com",
    "phone": "2073702337",
    "created_at": "2018-07-24 01:33:27.83442",
    "updated_at": "2018-08-24 00:40:06.303359",
    "country": "United States",
    "longitude": "-70.2570974",
    "latitude": "43.6655545"
  },
  {
    "id": "3064",
    "name": "Rock Harbor Brewing Co.",
    "brewery_type": "micro",
    "street": "5 Payne Ave",
    "city": "Rockland",
    "state": "Maine",
    "postal_code": "04841",
    "website_url": "http://www.rockharborbrewing.com",
    "phone": "2077017811",
    "created_at": "2018-07-24 01:33:27.849726",
    "updated_at": "2018-08-24 00:40:06.730528",
    "country": "United States",
    "longitude": "-69.127326",
    "latitude": "44.100544"
  },
  {
    "id": "3065",
    "name": "Rock Harbor Pub & Brewery",
    "brewery_type": "brewpub",
    "street": "416 Main St",
    "city": "Rockland",
    "state": "Maine",
    "postal_code": "04841-3345",
    "website_url": "",
    "phone": "2075937488",
    "created_at": "2018-07-24 01:33:27.866152",
    "updated_at": "2018-08-24 00:40:07.170036",
    "country": "United States",
    "longitude": "-69.1090755677013",
    "latitude": "44.1049557"
  },
  {
    "id": "3066",
    "name": "Run of the Mill Public House & Brewery",
    "brewery_type": "brewpub",
    "street": "100 Main St",
    "city": "Saco",
    "state": "Maine",
    "postal_code": "04072-3500",
    "website_url": "http://www.therunofthemill.net",
    "phone": "2075719648",
    "created_at": "2018-07-24 01:33:27.880983",
    "updated_at": "2018-08-24 00:40:07.76925",
    "country": "United States",
    "longitude": "-70.442601",
    "latitude": "43.501374"
  },
  {
    "id": "3068",
    "name": "Sea Dog Brewing",
    "brewery_type": "micro",
    "street": "1 Main St",
    "city": "Camden",
    "state": "Maine",
    "postal_code": "04843-1703",
    "website_url": "http://www.seadogbrewing.com",
    "phone": "",
    "created_at": "2018-07-24 01:33:27.909945",
    "updated_at": "2018-08-24 00:40:08.656236",
    "country": "United States",
    "longitude": "-69.064576",
    "latitude": "44.209809"
  },
  {
    "id": "3069",
    "name": "Sea Dog Brewing Co - Bangor",
    "brewery_type": "brewpub",
    "street": "26 Front St",
    "city": "Bangor",
    "state": "Maine",
    "postal_code": "04401-6418",
    "website_url": "http://www.seadogbrewing.com",
    "phone": "2079478009",
    "created_at": "2018-07-24 01:33:27.924182",
    "updated_at": "2018-08-24 00:40:09.075831",
    "country": "United States",
    "longitude": "-68.770233",
    "latitude": "44.7966948"
  },
  {
    "id": "3072",
    "name": "Sebago Brewing Co",
    "brewery_type": "micro",
    "street": "616 Main St",
    "city": "Gorham",
    "state": "Maine",
    "postal_code": "04038",
    "website_url": "http://www.sebagobrewing.com",
    "phone": "2078562537",
    "created_at": "2018-07-24 01:33:27.968854",
    "updated_at": "2018-08-24 00:40:10.360796",
    "country": "United States",
    "longitude": "-70.3970672263539",
    "latitude": "43.6895653252652"
  },
  {
    "id": "3077",
    "name": "Simplicity Brewing Company",
    "brewery_type": "micro",
    "street": "2473 Camden Rd",
    "city": "Warren",
    "state": "Maine",
    "postal_code": "04864-4113",
    "website_url": "http://www.mkt.com/simplicitybrewingsupplies",
    "phone": "2072730143",
    "created_at": "2018-07-24 01:33:28.049225",
    "updated_at": "2018-08-24 00:40:11.761071",
    "country": "United States",
    "longitude": "-69.18813489742",
    "latitude": "44.1517766212074"
  },
  {
    "id": "3080",
    "name": "Sunday River Brewing Company",
    "brewery_type": "brewpub",
    "street": "29 Sunday River Rd",
    "city": "Bethel",
    "state": "Maine",
    "postal_code": "04217-4623",
    "website_url": "http://www.sundayriverbrewingcompany.com",
    "phone": "2078244253",
    "created_at": "2018-07-24 01:33:28.100852",
    "updated_at": "2018-08-24 00:40:13.252059",
    "country": "United States",
    "longitude": "-70.8096128",
    "latitude": "44.4483482"
  },
  {
    "id": "3083",
    "name": "Tributary Brewing Company",
    "brewery_type": "micro",
    "street": "10 Shapleigh Rd",
    "city": "Kittery",
    "state": "Maine",
    "postal_code": "03904-1480",
    "website_url": "http://www.tributarybrewingcompany.com",
    "phone": "",
    "created_at": "2018-07-24 01:33:28.149242",
    "updated_at": "2018-08-24 00:40:14.108503",
    "country": "United States",
    "longitude": "-70.736801",
    "latitude": "43.090863"
  },
  {
    "id": "3085",
    "name": "Two Gramps Brewing",
    "brewery_type": "brewpub",
    "street": "266 Water St",
    "city": "Gardiner",
    "state": "Maine",
    "postal_code": "04345",
    "website_url": "http://www.twogrampsbrewing.com",
    "phone": "2075920776",
    "created_at": "2018-07-24 01:33:28.182002",
    "updated_at": "2018-08-24 00:40:15.015091",
    "country": "United States",
    "longitude": "-69.7729263367829",
    "latitude": "44.2295783203444"
  },
  {
    "id": "3087",
    "name": "Woodland Farms Brewery",
    "brewery_type": "micro",
    "street": "306 Route 1, Suite C",
    "city": "Kittery",
    "state": "Maine",
    "postal_code": "03904",
    "website_url": "http://www.wfbrewery.com",
    "phone": "2079943911",
    "created_at": "2018-07-24 01:33:28.210156",
    "updated_at": "2018-08-11 21:37:34.48626",
    "country": "United States",
    "longitude": "",
    "latitude": ""
  },
  {
    "id": "3089",
    "name": "York Beach Beer Company",
    "brewery_type": "planning",
    "street": "",
    "city": "York",
    "state": "Maine",
    "postal_code": "03902",
    "website_url": "",
    "phone": "",
    "created_at": "2018-07-24 01:33:28.235528",
    "updated_at": "2018-08-11 21:37:34.557942",
    "country": "United States",
    "longitude": "",
    "latitude": ""
  },
  {
    "id": "2985",
    "name": "Barreled Souls Brewing Company LLC",
    "brewery_type": "micro",
    "street": "743 Portland Rd",
    "city": "Saco",
    "state": "Maine",
    "postal_code": "04072-9005",
    "website_url": "http://www.barreledsouls.com",
    "phone": "2076026439",
    "created_at": "2018-07-24 01:33:26.810982",
    "updated_at": "2018-08-24 00:39:33.161571",
    "country": "United States",
    "longitude": "-70.405728",
    "latitude": "43.553358"
  },
  {
    "id": "3002",
    "name": "Definitive Brewing Company",
    "brewery_type": "micro",
    "street": "35 Industrial Way",
    "city": "Portland",
    "state": "Maine",
    "postal_code": "04103-1071",
    "website_url": "http://www.definitivebrewing.com",
    "phone": "",
    "created_at": "2018-07-24 01:33:27.02071",
    "updated_at": "2018-08-24 00:39:40.149564",
    "country": "United States",
    "longitude": "-70.3142737024466",
    "latitude": "43.7062952227186"
  },
  {
    "id": "3024",
    "name": "Inn On Peaks Island Brewery, The",
    "brewery_type": "brewpub",
    "street": "33 Island Ave",
    "city": "Peaks Island",
    "state": "Maine",
    "postal_code": "04108-1333",
    "website_url": "http://www.innonpeaks.com",
    "phone": "2077665100",
    "created_at": "2018-07-24 01:33:27.306331",
    "updated_at": "2018-08-24 00:39:50.246939",
    "country": "United States",
    "longitude": "-70.1979665982887",
    "latitude": "43.6541785122815"
  },
  {
    "id": "3037",
    "name": "Machias River Brewing Company",
    "brewery_type": "micro",
    "street": "86 Main St",
    "city": "Machias",
    "state": "Maine",
    "postal_code": "04654-1150",
    "website_url": "",
    "phone": "2072596001",
    "created_at": "2018-07-24 01:33:27.472737",
    "updated_at": "2018-08-24 00:39:55.80562",
    "country": "United States",
    "longitude": "-67.4580455052046",
    "latitude": "44.7144625749482"
  },
  {
    "id": "3047",
    "name": "North Haven Brewing Company",
    "brewery_type": "micro",
    "street": "2 Iron Point Rd # 2",
    "city": "North Haven",
    "state": "Maine",
    "postal_code": "04853",
    "website_url": "http://www.northhavenbrewing.com",
    "phone": "2078672337",
    "created_at": "2018-07-24 01:33:27.597838",
    "updated_at": "2018-08-24 00:39:59.640194",
    "country": "United States",
    "longitude": "-68.8719897",
    "latitude": "44.1280622"
  },
  {
    "id": "3070",
    "name": "Sea Dog Brewing Co - S. Portland",
    "brewery_type": "brewpub",
    "street": "125 Western Ave",
    "city": "S Portland",
    "state": "Maine",
    "postal_code": "04106-2413",
    "website_url": "http://www.seadogbrewing.com",
    "phone": "2078717000",
    "created_at": "2018-07-24 01:33:27.940506",
    "updated_at": "2018-08-24 00:40:09.500152",
    "country": "United States",
    "longitude": "-70.3190306679039",
    "latitude": "43.63519195"
  },
  {
    "id": "3088",
    "name": "Yes Brewing",
    "brewery_type": "micro",
    "street": "609 Main St",
    "city": "Westbrook",
    "state": "Maine",
    "postal_code": "04092-4143",
    "website_url": "http://www.yesbrewing.com",
    "phone": "2075910633",
    "created_at": "2018-07-24 01:33:28.222804",
    "updated_at": "2018-08-24 00:40:16.244678",
    "country": "United States",
    "longitude": "-70.357762851534",
    "latitude": "43.678384349842"
  }
]