[
  {
    "id": "3099",
    "name": "Barley and Hops Grill",
    "brewery_type": "brewpub",
    "street": "5473 Urbana Pike",
    "city": "Frederick",
    "state": "Maryland",
    "postal_code": "21704-7275",
    "website_url": "http://www.barleyandhops.net",
    "phone": "3016685555",
    "created_at": "2018-07-24 01:33:28.388667",
    "updated_at": "2018-08-24 00:40:19.465918",
    "country": "United States",
    "longitude": "-77.3995969",
    "latitude": "39.38204685"
  },
  {
    "id": "3105",
    "name": "Brewer's Alley Restaurant and Brewery",
    "brewery_type": "brewpub",
    "street": "124 N Market St",
    "city": "Frederick",
    "state": "Maryland",
    "postal_code": "21701-5422",
    "website_url": "http://www.brewers-alley.com",
    "phone": "3016310089",
    "created_at": "2018-07-24 01:33:28.474973",
    "updated_at": "2018-08-24 00:40:21.333837",
    "country": "United States",
    "longitude": "-77.4104551496397",
    "latitude": "39.41607325"
  },
  {
    "id": "3132",
    "name": "Evolution Craft Brewing Co",
    "brewery_type": "regional",
    "street": "200 Elmwood St",
    "city": "Salisbury",
    "state": "Maryland",
    "postal_code": "21804-5522",
    "website_url": "http://www.evolutioncraftbrewing.com",
    "phone": "4432602337",
    "created_at": "2018-07-24 01:33:28.870127",
    "updated_at": "2018-08-24 00:40:29.438247",
    "country": "United States",
    "longitude": "-75.595254",
    "latitude": "38.361979"
  },
  {
    "id": "3136",
    "name": "Flying Dog Brewery",
    "brewery_type": "regional",
    "street": "4607 Wedgewood Blvd",
    "city": "Frederick",
    "state": "Maryland",
    "postal_code": "21703-7120",
    "website_url": "http://www.flyingdogbrewery.com",
    "phone": "3016947899",
    "created_at": "2018-07-24 01:33:28.920835",
    "updated_at": "2018-08-24 00:40:30.783562",
    "country": "United States",
    "longitude": "-77.4267910677553",
    "latitude": "39.3628322"
  },
  {
    "id": "3137",
    "name": "Franklins General Store",
    "brewery_type": "micro",
    "street": "5123 Baltimore Ave",
    "city": "Hyattsville",
    "state": "Maryland",
    "postal_code": "20781-2042",
    "website_url": "http://Franklinsbrewery.com",
    "phone": "3019272740",
    "created_at": "2018-07-24 01:33:28.934325",
    "updated_at": "2018-08-24 00:40:31.278567",
    "country": "United States",
    "longitude": "-76.9407411387391",
    "latitude": "38.9519439895478"
  },
  {
    "id": "3146",
    "name": "Greene Growlers",
    "brewery_type": "brewpub",
    "street": "227 E Diamond Ave",
    "city": "Gaithersburg",
    "state": "Maryland",
    "postal_code": "20877",
    "website_url": "http://www.greenegrowlers.com",
    "phone": "2402616196",
    "created_at": "2018-07-24 01:33:29.066136",
    "updated_at": "2018-08-24 00:40:34.510006",
    "country": "United States",
    "longitude": "-77.1935558364428",
    "latitude": "39.1419364"
  },
  {
    "id": "3176",
    "name": "Pub Dog Brewing Company",
    "brewery_type": "micro",
    "street": "1203 New Windsor Rd",
    "city": "Westminster",
    "state": "Maryland",
    "postal_code": "21158-6704",
    "website_url": "http://www.pubdog.com",
    "phone": "4108483993",
    "created_at": "2018-07-24 01:33:29.505843",
    "updated_at": "2018-08-24 00:40:44.020674",
    "country": "United States",
    "longitude": "-77.0522979602972",
    "latitude": "39.5504519724238"
  },
  {
    "id": "3184",
    "name": "Saints Row Brewing",
    "brewery_type": "micro",
    "street": "1211 Taft St",
    "city": "Rockville",
    "state": "Maryland",
    "postal_code": "20850-1344",
    "website_url": "http://www.saintsrowbeer.com",
    "phone": "",
    "created_at": "2018-07-24 01:33:29.615319",
    "updated_at": "2018-08-24 00:40:47.652887",
    "country": "United States",
    "longitude": "-77.1340180802385",
    "latitude": "39.0936171503817"
  },
  {
    "id": "3196",
    "name": "The Brewer's Art / Old Line Brewery LLC",
    "brewery_type": "brewpub",
    "street": "1106 N Charles St",
    "city": "Baltimore",
    "state": "Maryland",
    "postal_code": "21201-5557",
    "website_url": "http://www.thebrewersart.com",
    "phone": "",
    "created_at": "2018-07-24 01:33:29.773277",
    "updated_at": "2018-08-24 00:40:52.085196",
    "country": "United States",
    "longitude": "-76.6146068",
    "latitude": "39.303716"
  },
  {
    "id": "3144",
    "name": "Grail Point Brewery",
    "brewery_type": "proprietor",
    "street": "",
    "city": "Emmitsburg",
    "state": "Maryland",
    "postal_code": "21727-0702",
    "website_url": "http://www.grailpointbeer.co",
    "phone": "2408442379",
    "created_at": "2018-07-24 01:33:29.039884",
    "updated_at": "2018-08-11 21:37:36.27253",
    "country": "United States",
    "longitude": "",
    "latitude": ""
  },
  {
    "id": "3090",
    "name": "1623 Brewing CO, llc",
    "brewery_type": "contract",
    "street": "1146 colonel Joshua Ct",
    "city": "Westminister",
    "state": "Maryland",
    "postal_code": "21157",
    "website_url": "",
    "phone": "",
    "created_at": "2018-07-24 01:33:28.260574",
    "updated_at": "2018-08-11 21:37:34.588804",
    "country": "United States",
    "longitude": "",
    "latitude": ""
  },
  {
    "id": "3091",
    "name": "7 Locks Brewing",
    "brewery_type": "micro",
    "street": "12227 Wilkins Ave",
    "city": "Rockville",
    "state": "Maryland",
    "postal_code": "20852-1833",
    "website_url": "http://www.7locksbrewing.com",
    "phone": "3018417123",
    "created_at": "2018-07-24 01:33:28.273967",
    "updated_at": "2018-08-11 21:37:34.634016",
    "country": "United States",
    "longitude": "",
    "latitude": ""
  },
  {
    "id": "3093",
    "name": "Astro Lab Brewing",
    "brewery_type": "planning",
    "street": "",
    "city": "Silver Spring",
    "state": "Maryland",
    "postal_code": "20910-4519",
    "website_url": "http://www.astrolabbrewing.com",
    "phone": "3106910475",
    "created_at": "2018-07-24 01:33:28.300891",
    "updated_at": "2018-08-11 21:37:34.692798",
    "country": "United States",
    "longitude": "",
    "latitude": ""
  },
  {
    "id": "3094",
    "name": "Attaboy Beer",
    "brewery_type": "micro",
    "street": "400 Sagner Ave Ste 400",
    "city": "Frederick",
    "state": "Maryland",
    "postal_code": "21701-6083",
    "website_url": "",
    "phone": "4157106459",
    "created_at": "2018-07-24 01:33:28.315678",
    "updated_at": "2018-08-11 21:37:34.727938",
    "country": "United States",
    "longitude": "",
    "latitude": ""
  },
  {
    "id": "3095",
    "name": "B.C. Brewery",
    "brewery_type": "micro",
    "street": "10950 Gilroy Rd Ste F",
    "city": "Hunt Valley",
    "state": "Maryland",
    "postal_code": "21031-1327",
    "website_url": "http://www.bcbrewerymd.com",
    "phone": "4433913847",
    "created_at": "2018-07-24 01:33:28.330544",
    "updated_at": "2018-08-11 21:37:34.756035",
    "country": "United States",
    "longitude": "",
    "latitude": ""
  },
  {
    "id": "3096",
    "name": "Back Creek Brewing Company",
    "brewery_type": "planning",
    "street": "",
    "city": "Annapolis",
    "state": "Maryland",
    "postal_code": "21401-4019",
    "website_url": "http://www.backcreekbrewing.com",
    "phone": "4103206904",
    "created_at": "2018-07-24 01:33:28.347458",
    "updated_at": "2018-08-11 21:37:34.800582",
    "country": "United States",
    "longitude": "",
    "latitude": ""
  },
  {
    "id": "3097",
    "name": "Backshore Brewing Co.",
    "brewery_type": "brewpub",
    "street": "913 Atlantic Ave",
    "city": "Ocean City",
    "state": "Maryland",
    "postal_code": "21842-6689",
    "website_url": "http://www.BackshoreBrew.com",
    "phone": "4102890008",
    "created_at": "2018-07-24 01:33:28.361849",
    "updated_at": "2018-08-11 21:37:34.836405",
    "country": "United States",
    "longitude": "",
    "latitude": ""
  },
  {
    "id": "3098",
    "name": "Baltimore Washington Beer Works",
    "brewery_type": "contract",
    "street": "2500 Grays Rd",
    "city": "Dundalk",
    "state": "Maryland",
    "postal_code": "21222",
    "website_url": "http://www.ravenbeer.com",
    "phone": "4438476223",
    "created_at": "2018-07-24 01:33:28.374578",
    "updated_at": "2018-08-11 21:37:34.864778",
    "country": "United States",
    "longitude": "",
    "latitude": ""
  },
  {
    "id": "3100",
    "name": "Big Truck Brewery",
    "brewery_type": "planning",
    "street": "",
    "city": "Parkton",
    "state": "Maryland",
    "postal_code": "21120-9004",
    "website_url": "http://www.bigtruckfarms.com",
    "phone": "4436775451",
    "created_at": "2018-07-24 01:33:28.403157",
    "updated_at": "2018-08-11 21:37:34.921667",
    "country": "United States",
    "longitude": "",
    "latitude": ""
  },
  {
    "id": "3101",
    "name": "Bird Nickel Brewing Company",
    "brewery_type": "planning",
    "street": "",
    "city": "Easton",
    "state": "Maryland",
    "postal_code": "21601-3904",
    "website_url": "",
    "phone": "4103106042",
    "created_at": "2018-07-24 01:33:28.418418",
    "updated_at": "2018-08-11 21:37:34.949585",
    "country": "United States",
    "longitude": "",
    "latitude": ""
  },
  {
    "id": "3103",
    "name": "Brawling Bear",
    "brewery_type": "micro",
    "street": "15 Fulks Corner Ave",
    "city": "Gaithersburg",
    "state": "Maryland",
    "postal_code": "20877-2067",
    "website_url": "http://www.brawlingbear.com",
    "phone": "2408423272",
    "created_at": "2018-07-24 01:33:28.448571",
    "updated_at": "2018-08-11 21:37:35.008302",
    "country": "United States",
    "longitude": "",
    "latitude": ""
  },
  {
    "id": "3106",
    "name": "Brewery In Planning - Arnold",
    "brewery_type": "planning",
    "street": "",
    "city": "Annapolis",
    "state": "Maryland",
    "postal_code": "21409-5402",
    "website_url": "",
    "phone": "",
    "created_at": "2018-07-24 01:33:28.487002",
    "updated_at": "2018-08-11 21:37:35.128466",
    "country": "United States",
    "longitude": "",
    "latitude": ""
  },
  {
    "id": "3107",
    "name": "Brewery In Planning - Germantown",
    "brewery_type": "planning",
    "street": "",
    "city": "Germantown",
    "state": "Maryland",
    "postal_code": "20876-4443",
    "website_url": "",
    "phone": "",
    "created_at": "2018-07-24 01:33:28.500528",
    "updated_at": "2018-08-11 21:37:35.154993",
    "country": "United States",
    "longitude": "",
    "latitude": ""
  },
  {
    "id": "3108",
    "name": "Brewery In Planning - Mounnt Airy",
    "brewery_type": "planning",
    "street": "",
    "city": "Mount Airy",
    "state": "Maryland",
    "postal_code": "21771-8820",
    "website_url": "",
    "phone": "4435366455",
    "created_at": "2018-07-24 01:33:28.512904",
    "updated_at": "2018-08-11 21:37:35.186396",
    "country": "United States",
    "longitude": "",
    "latitude": ""
  },
  {
    "id": "3109",
    "name": "Brewery in Planning - Silver Spring",
    "brewery_type": "planning",
    "street": "",
    "city": "Silver Spring",
    "state": "Maryland",
    "postal_code": "20910-5122",
    "website_url": "",
    "phone": "2027148869",
    "created_at": "2018-07-24 01:33:28.526669",
    "updated_at": "2018-08-11 21:37:35.217588",
    "country": "United States",
    "longitude": "",
    "latitude": ""
  },
  {
    "id": "3110",
    "name": "Broken Gate Brewing",
    "brewery_type": "planning",
    "street": "",
    "city": "Baltimore",
    "state": "Maryland",
    "postal_code": "21230-4464",
    "website_url": "",
    "phone": "3103453570",
    "created_at": "2018-07-24 01:33:28.540273",
    "updated_at": "2018-08-11 21:37:35.246986",
    "country": "United States",
    "longitude": "",
    "latitude": ""
  },
  {
    "id": "3112",
    "name": "Bull and Goat Brewery",
    "brewery_type": "micro",
    "street": "204 Banjo Ln",
    "city": "Centreville",
    "state": "Maryland",
    "postal_code": "21617-1067",
    "website_url": "http://www.bullandgoatbrewery.com",
    "phone": "",
    "created_at": "2018-07-24 01:33:28.571092",
    "updated_at": "2018-08-11 21:37:35.304462",
    "country": "United States",
    "longitude": "",
    "latitude": ""
  },
  {
    "id": "3114",
    "name": "BW Farm, LLC",
    "brewery_type": "planning",
    "street": "",
    "city": "Owings",
    "state": "Maryland",
    "postal_code": "20736-9109",
    "website_url": "",
    "phone": "2406727995",
    "created_at": "2018-07-24 01:33:28.601252",
    "updated_at": "2018-08-11 21:37:35.374473",
    "country": "United States",
    "longitude": "",
    "latitude": ""
  },
  {
    "id": "3116",
    "name": "Calvert Brewing Co",
    "brewery_type": "micro",
    "street": "15850 Commerce Ct",
    "city": "Upper Marlboro",
    "state": "Maryland",
    "postal_code": "20774-7437",
    "website_url": "http://calvertbrewingcompany.com",
    "phone": "2402454609",
    "created_at": "2018-07-24 01:33:28.631571",
    "updated_at": "2018-08-11 21:37:35.43762",
    "country": "United States",
    "longitude": "",
    "latitude": ""
  },
  {
    "id": "3123",
    "name": "Cult Classic Brewing",
    "brewery_type": "planning",
    "street": "",
    "city": "Stevensville",
    "state": "Maryland",
    "postal_code": "21666-4051",
    "website_url": "http://www.cultclassicbrewing.com",
    "phone": "4432236480",
    "created_at": "2018-07-24 01:33:28.741244",
    "updated_at": "2018-08-11 21:37:35.647403",
    "country": "United States",
    "longitude": "",
    "latitude": ""
  },
  {
    "id": "3124",
    "name": "Cushwa Brewing Co",
    "brewery_type": "micro",
    "street": "10212 Governor Lane Blvd Ste 1012",
    "city": "Williamsport",
    "state": "Maryland",
    "postal_code": "21795",
    "website_url": "http://www.cushwabrewing.com",
    "phone": "",
    "created_at": "2018-07-24 01:33:28.754907",
    "updated_at": "2018-08-11 21:37:35.676025",
    "country": "United States",
    "longitude": "",
    "latitude": ""
  },
  {
    "id": "3128",
    "name": "DuClaw Brewing Co",
    "brewery_type": "regional",
    "street": "8901 Yellow Brick Rd Ste B",
    "city": "Baltimore",
    "state": "Maryland",
    "postal_code": "21237-2349",
    "website_url": "http://www.duclaw.com",
    "phone": "4435599900",
    "created_at": "2018-07-24 01:33:28.810657",
    "updated_at": "2018-08-11 21:37:35.777433",
    "country": "United States",
    "longitude": "",
    "latitude": ""
  },
  {
    "id": "3130",
    "name": "Elder Pine Brewing and Blending Co",
    "brewery_type": "micro",
    "street": "4200 Sundown Rd",
    "city": "Gaithersburg",
    "state": "Maryland",
    "postal_code": "20882",
    "website_url": "http://www.elderpine.com",
    "phone": "",
    "created_at": "2018-07-24 01:33:28.843094",
    "updated_at": "2018-08-11 21:37:35.83399",
    "country": "United States",
    "longitude": "",
    "latitude": ""
  },
  {
    "id": "3135",
    "name": "Farmacy Brewing",
    "brewery_type": "planning",
    "street": "",
    "city": "Reisterstown",
    "state": "Maryland",
    "postal_code": "21136-3817",
    "website_url": "",
    "phone": "4109352551",
    "created_at": "2018-07-24 01:33:28.908055",
    "updated_at": "2018-08-11 21:37:35.986592",
    "country": "United States",
    "longitude": "",
    "latitude": ""
  },
  {
    "id": "3102",
    "name": "Black Flag Brewing Company",
    "brewery_type": "micro",
    "street": "9315 Snowden River Pkwy",
    "city": "Columbia",
    "state": "Maryland",
    "postal_code": "21046-2091",
    "website_url": "http://www.blackflagbrewingco.com",
    "phone": "4438645139",
    "created_at": "2018-07-24 01:33:28.433303",
    "updated_at": "2018-08-24 00:40:19.980241",
    "country": "United States",
    "longitude": "-76.810364",
    "latitude": "39.192524"
  },
  {
    "id": "3104",
    "name": "Brew House No 16",
    "brewery_type": "brewpub",
    "street": "831 N Calvert St",
    "city": "Baltimore",
    "state": "Maryland",
    "postal_code": "21202-3705",
    "website_url": "http://www.brewhouseno16.com",
    "phone": "4106594084",
    "created_at": "2018-07-24 01:33:28.461941",
    "updated_at": "2018-08-24 00:40:20.888498",
    "country": "United States",
    "longitude": "-76.6127119165296",
    "latitude": "39.29963095"
  },
  {
    "id": "3111",
    "name": "Brookeville Beer Farm",
    "brewery_type": "micro",
    "street": "20315 Georgia Ave",
    "city": "Brookeville",
    "state": "Maryland",
    "postal_code": "20833-1711",
    "website_url": "http://www.brookevillebeerfarm.com",
    "phone": "3012601000",
    "created_at": "2018-07-24 01:33:28.557759",
    "updated_at": "2018-08-24 00:40:21.824329",
    "country": "United States",
    "longitude": "-77.0579247",
    "latitude": "39.1780888"
  },
  {
    "id": "3113",
    "name": "Burley Oak Craft Brewery",
    "brewery_type": "micro",
    "street": "10016 Old Ocean City Blvd",
    "city": "Berlin",
    "state": "Maryland",
    "postal_code": "21811-1145",
    "website_url": "http://www.burleyoak.com",
    "phone": "4104228887",
    "created_at": "2018-07-24 01:33:28.587241",
    "updated_at": "2018-08-24 00:40:22.301209",
    "country": "United States",
    "longitude": "-75.2169864020113",
    "latitude": "38.3336448"
  },
  {
    "id": "3117",
    "name": "Checkerspot Brewing Company",
    "brewery_type": "brewpub",
    "street": "175 W Ostend St",
    "city": "Baltimore",
    "state": "Maryland",
    "postal_code": "21230",
    "website_url": "http://www.checkerspotbrewing.com",
    "phone": "4105915527",
    "created_at": "2018-07-24 01:33:28.647199",
    "updated_at": "2018-08-24 00:40:23.69505",
    "country": "United States",
    "longitude": "-76.6195028",
    "latitude": "39.2749156"
  },
  {
    "id": "3118",
    "name": "Chesapeake Brewing Co",
    "brewery_type": "brewpub",
    "street": "114 West St",
    "city": "Annapolis",
    "state": "Maryland",
    "postal_code": "21401-2802",
    "website_url": "http://www.chesbrewco.com",
    "phone": "4102680000",
    "created_at": "2018-07-24 01:33:28.661785",
    "updated_at": "2018-08-24 00:40:24.174185",
    "country": "United States",
    "longitude": "-76.4974843026646",
    "latitude": "38.9780984"
  },
  {
    "id": "3119",
    "name": "Chesepiooc Real Ale Brewery",
    "brewery_type": "micro",
    "street": "2408 Crofton Blvd",
    "city": "Crofton",
    "state": "Maryland",
    "postal_code": "21114",
    "website_url": "http://www.brewcrab.com",
    "phone": "4106301579",
    "created_at": "2018-07-24 01:33:28.674931",
    "updated_at": "2018-08-24 00:40:24.678234",
    "country": "United States",
    "longitude": "-76.6980466578072",
    "latitude": "39.0168716900273"
  },
  {
    "id": "3121",
    "name": "Costa Ventosa Winery & Vineyard",
    "brewery_type": "brewpub",
    "street": "9031 Whaleyville Rd",
    "city": "Whaleyville",
    "state": "Maryland",
    "postal_code": "21872-2116",
    "website_url": "http://www.costaventosa.com",
    "phone": "4433339867",
    "created_at": "2018-07-24 01:33:28.710411",
    "updated_at": "2018-08-24 00:40:25.130689",
    "country": "United States",
    "longitude": "-75.2600410714286",
    "latitude": "38.4235868714286"
  },
  {
    "id": "3122",
    "name": "Crooked Crab Brewing Company",
    "brewery_type": "micro",
    "street": "8251 Telegraph Rd",
    "city": "Odenton",
    "state": "Maryland",
    "postal_code": "21113",
    "website_url": "http://www.cookedcrabbrewing.com",
    "phone": "4435699187",
    "created_at": "2018-07-24 01:33:28.727411",
    "updated_at": "2018-08-24 00:40:25.626131",
    "country": "United States",
    "longitude": "-76.6948240454546",
    "latitude": "39.0972915909091"
  },
  {
    "id": "3125",
    "name": "Dempsey's Brew Pub and Restaurant - Baltimore",
    "brewery_type": "brewpub",
    "street": "333 W Camden St",
    "city": "Baltimore",
    "state": "Maryland",
    "postal_code": "21201",
    "website_url": "http://www.dempseysbaltimore.com",
    "phone": "4108437901",
    "created_at": "2018-07-24 01:33:28.769848",
    "updated_at": "2018-08-24 00:40:26.525482",
    "country": "United States",
    "longitude": "-76.6201383333333",
    "latitude": "39.2851846666667"
  },
  {
    "id": "3126",
    "name": "Denizens Brewing Company",
    "brewery_type": "brewpub",
    "street": "1115 E West Hwy",
    "city": "Silver Spring",
    "state": "Maryland",
    "postal_code": "20910-4852",
    "website_url": "http://www.denizensbrewingco.com",
    "phone": "3015579818",
    "created_at": "2018-07-24 01:33:28.782763",
    "updated_at": "2018-08-24 00:40:27.043945",
    "country": "United States",
    "longitude": "-77.0284814165893",
    "latitude": "38.9895771493914"
  },
  {
    "id": "3129",
    "name": "Eastern Shore Brewing",
    "brewery_type": "micro",
    "street": "605 S Talbot St",
    "city": "Saint Michaels",
    "state": "Maryland",
    "postal_code": "21663",
    "website_url": "http://www.easternshorebrewing.com",
    "phone": "4107458010",
    "created_at": "2018-07-24 01:33:28.82723",
    "updated_at": "2018-08-24 00:40:27.950815",
    "country": "United States",
    "longitude": "-76.2219944992277",
    "latitude": "38.7811356237258"
  },
  {
    "id": "3131",
    "name": "Ellicott Mills Brewing Co",
    "brewery_type": "brewpub",
    "street": "8308 Main St",
    "city": "Ellicott City",
    "state": "Maryland",
    "postal_code": "21043-4601",
    "website_url": "http://www.ellicottmillsbrewing.com",
    "phone": "4103138141",
    "created_at": "2018-07-24 01:33:28.856864",
    "updated_at": "2018-08-24 00:40:28.994767",
    "country": "United States",
    "longitude": "-76.7994431375514",
    "latitude": "39.2681041"
  },
  {
    "id": "3133",
    "name": "Evolution Craft Brewing Co - Salisbury",
    "brewery_type": "brewpub",
    "street": "201 E Vine St",
    "city": "Salisbury",
    "state": "Maryland",
    "postal_code": "21804-5515",
    "website_url": "",
    "phone": "",
    "created_at": "2018-07-24 01:33:28.882728",
    "updated_at": "2018-08-24 00:40:29.897461",
    "country": "United States",
    "longitude": "-75.595628",
    "latitude": "38.360471"
  },
  {
    "id": "3134",
    "name": "Falling Branch Brewery",
    "brewery_type": "micro",
    "street": "825 Highland Rd",
    "city": "Street",
    "state": "Maryland",
    "postal_code": "21154-1312",
    "website_url": "http://fallingbranchbeer.com",
    "phone": "",
    "created_at": "2018-07-24 01:33:28.895411",
    "updated_at": "2018-08-24 00:40:30.363739",
    "country": "United States",
    "longitude": "-76.3708166016169",
    "latitude": "39.6666500412926"
  },
  {
    "id": "3138",
    "name": "Frey's Brewing Company",
    "brewery_type": "micro",
    "street": "8601 Mapleville Rd",
    "city": "Mount Airy",
    "state": "Maryland",
    "postal_code": "21771-9705",
    "website_url": "http://www.freysbrewing.com",
    "phone": "3016397146",
    "created_at": "2018-07-24 01:33:28.948021",
    "updated_at": "2018-08-11 21:37:36.075388",
    "country": "United States",
    "longitude": "",
    "latitude": ""
  },
  {
    "id": "3142",
    "name": "Gordon Biersch Brewery Restaurant - Baltimore",
    "brewery_type": "brewpub",
    "street": "1000 Lancaster St Ste B",
    "city": "Baltimore",
    "state": "Maryland",
    "postal_code": "21202-4631",
    "website_url": "http://www.craftworksrestaurants.com",
    "phone": "4102309501",
    "created_at": "2018-07-24 01:33:29.012107",
    "updated_at": "2018-08-11 21:37:36.209831",
    "country": "United States",
    "longitude": "",
    "latitude": ""
  },
  {
    "id": "3143",
    "name": "Gordon Biersch Brewery Restaurant - Rockville",
    "brewery_type": "brewpub",
    "street": "200 E Middle Ln Unit A",
    "city": "Rockville",
    "state": "Maryland",
    "postal_code": "20850-2206",
    "website_url": "http://www.craftworksrestaurants.com",
    "phone": "3013407159",
    "created_at": "2018-07-24 01:33:29.026847",
    "updated_at": "2018-08-11 21:37:36.235421",
    "country": "United States",
    "longitude": "",
    "latitude": ""
  },
  {
    "id": "3145",
    "name": "Granite City Food & Brewery",
    "brewery_type": "brewpub",
    "street": "200 American Way",
    "city": "Oxon Hill",
    "state": "Maryland",
    "postal_code": "20745-4502",
    "website_url": "",
    "phone": "2404933900",
    "created_at": "2018-07-24 01:33:29.053464",
    "updated_at": "2018-08-11 21:37:36.305642",
    "country": "United States",
    "longitude": "",
    "latitude": ""
  },
  {
    "id": "3147",
    "name": "Greenspring Brewing Company",
    "brewery_type": "micro",
    "street": "",
    "city": "Chesapeake Beach",
    "state": "Maryland",
    "postal_code": "20732-4664",
    "website_url": "http://www.greenspringbrewingcompany.com",
    "phone": "4102063918",
    "created_at": "2018-07-24 01:33:29.079469",
    "updated_at": "2018-08-11 21:37:36.361542",
    "country": "United States",
    "longitude": "",
    "latitude": ""
  },
  {
    "id": "3149",
    "name": "Gypsy Brewing Company",
    "brewery_type": "micro",
    "street": "",
    "city": "Huntingtown",
    "state": "Maryland",
    "postal_code": "20639",
    "website_url": "",
    "phone": "",
    "created_at": "2018-07-24 01:33:29.109949",
    "updated_at": "2018-08-11 21:37:36.431885",
    "country": "United States",
    "longitude": "",
    "latitude": ""
  },
  {
    "id": "3150",
    "name": "Heart & Solar Brewing",
    "brewery_type": "planning",
    "street": "",
    "city": "Parkton",
    "state": "Maryland",
    "postal_code": "21120-9253",
    "website_url": "http://www.heartandsolarbrewing.com",
    "phone": "4104938030",
    "created_at": "2018-07-24 01:33:29.125159",
    "updated_at": "2018-08-11 21:37:36.46019",
    "country": "United States",
    "longitude": "",
    "latitude": ""
  },
  {
    "id": "3151",
    "name": "Heavy Seas Beer",
    "brewery_type": "regional",
    "street": "4615 Hollins Ferry Rd Ste B",
    "city": "Baltimore",
    "state": "Maryland",
    "postal_code": "21227-4624",
    "website_url": "http://www.hsbeer.com",
    "phone": "4102477822",
    "created_at": "2018-07-24 01:33:29.140022",
    "updated_at": "2018-08-11 21:37:36.487608",
    "country": "United States",
    "longitude": "",
    "latitude": ""
  },
  {
    "id": "3152",
    "name": "HopScratch Farm & Brewery",
    "brewery_type": "planning",
    "street": "",
    "city": "Harwood",
    "state": "Maryland",
    "postal_code": "20776",
    "website_url": "",
    "phone": "",
    "created_at": "2018-07-24 01:33:29.15477",
    "updated_at": "2018-08-11 21:37:36.518023",
    "country": "United States",
    "longitude": "",
    "latitude": ""
  },
  {
    "id": "3153",
    "name": "House Cat Brewing Company",
    "brewery_type": "planning",
    "street": "",
    "city": "Frederick",
    "state": "Maryland",
    "postal_code": "21704",
    "website_url": "",
    "phone": "3016050733",
    "created_at": "2018-07-24 01:33:29.167768",
    "updated_at": "2018-08-11 21:37:36.549225",
    "country": "United States",
    "longitude": "",
    "latitude": ""
  },
  {
    "id": "3154",
    "name": "Hysteria Brewing Company",
    "brewery_type": "micro",
    "street": "9570 Berger Rd Ste J",
    "city": "Columbia",
    "state": "Maryland",
    "postal_code": "21046-1559",
    "website_url": "http://www.hysteriabrewing.com",
    "phone": "4103608319",
    "created_at": "2018-07-24 01:33:29.18074",
    "updated_at": "2018-08-11 21:37:36.583955",
    "country": "United States",
    "longitude": "",
    "latitude": ""
  },
  {
    "id": "3156",
    "name": "Jailbreak Brewing Company",
    "brewery_type": "micro",
    "street": "9445 Washington Blvd N Ste F",
    "city": "Laurel",
    "state": "Maryland",
    "postal_code": "20723-1380",
    "website_url": "http://www.jailbreakbrewing.com",
    "phone": "4433459699",
    "created_at": "2018-07-24 01:33:29.210863",
    "updated_at": "2018-08-11 21:37:36.648483",
    "country": "United States",
    "longitude": "",
    "latitude": ""
  },
  {
    "id": "3158",
    "name": "Key Brewing Co.",
    "brewery_type": "micro",
    "street": "2500 Grays Rd",
    "city": "Dundalk",
    "state": "Maryland",
    "postal_code": "21222-5044",
    "website_url": "",
    "phone": "",
    "created_at": "2018-07-24 01:33:29.238323",
    "updated_at": "2018-08-11 21:37:36.707715",
    "country": "United States",
    "longitude": "",
    "latitude": ""
  },
  {
    "id": "3159",
    "name": "Mad Science Brewing Company",
    "brewery_type": "micro",
    "street": "1619 Buckeystown Pike",
    "city": "Adamstown",
    "state": "Maryland",
    "postal_code": "21710",
    "website_url": "http://www.madsciencebrewing.com",
    "phone": "2404098723",
    "created_at": "2018-07-24 01:33:29.253843",
    "updated_at": "2018-08-11 21:37:36.738646",
    "country": "United States",
    "longitude": "",
    "latitude": ""
  },
  {
    "id": "3160",
    "name": "Manor Hill Brewing",
    "brewery_type": "micro",
    "street": "4411 Manor Ln",
    "city": "Ellicott City",
    "state": "Maryland",
    "postal_code": "21042-6111",
    "website_url": "http://www.manorhillbrewing.com",
    "phone": "4109977771",
    "created_at": "2018-07-24 01:33:29.267804",
    "updated_at": "2018-08-11 21:37:36.76425",
    "country": "United States",
    "longitude": "",
    "latitude": ""
  },
  {
    "id": "3162",
    "name": "Mastiff Brewery",
    "brewery_type": "planning",
    "street": "",
    "city": "Middle River",
    "state": "Maryland",
    "postal_code": "21220-2818",
    "website_url": "",
    "phone": "3023127011",
    "created_at": "2018-07-24 01:33:29.295979",
    "updated_at": "2018-08-11 21:37:36.826916",
    "country": "United States",
    "longitude": "",
    "latitude": ""
  },
  {
    "id": "3163",
    "name": "Milkhouse Brewery at Stillpoint Farm",
    "brewery_type": "micro",
    "street": "8253 Dollyhyde Rd",
    "city": "Mount Airy",
    "state": "Maryland",
    "postal_code": "21771-9404",
    "website_url": "http://www.milkhousebrewery.com",
    "phone": "2404011517",
    "created_at": "2018-07-24 01:33:29.310944",
    "updated_at": "2018-08-11 21:37:36.859033",
    "country": "United States",
    "longitude": "",
    "latitude": ""
  },
  {
    "id": "3164",
    "name": "Mobtown Brewing Co",
    "brewery_type": "planning",
    "street": "",
    "city": "Baltimore",
    "state": "Maryland",
    "postal_code": "21224-4716",
    "website_url": "",
    "phone": "4104198312",
    "created_at": "2018-07-24 01:33:29.328377",
    "updated_at": "2018-08-11 21:37:36.888887",
    "country": "United States",
    "longitude": "",
    "latitude": ""
  },
  {
    "id": "3166",
    "name": "Monument City Brewing Co",
    "brewery_type": "micro",
    "street": "1 N Haven St Ste A",
    "city": "Baltimore",
    "state": "Maryland",
    "postal_code": "21224-1614",
    "website_url": "http://www.monumentcitybrewing.com",
    "phone": "4105993008",
    "created_at": "2018-07-24 01:33:29.356538",
    "updated_at": "2018-08-11 21:37:36.944685",
    "country": "United States",
    "longitude": "",
    "latitude": ""
  },
  {
    "id": "3167",
    "name": "Mully's Brewery",
    "brewery_type": "micro",
    "street": "141 Schooner Ln Ste 15",
    "city": "Prince Frederick",
    "state": "Maryland",
    "postal_code": "20678-3482",
    "website_url": "http://www.mullysbrewery.com",
    "phone": "4439689426",
    "created_at": "2018-07-24 01:33:29.372526",
    "updated_at": "2018-08-11 21:37:36.976008",
    "country": "United States",
    "longitude": "",
    "latitude": ""
  },
  {
    "id": "3168",
    "name": "National Brewing Company",
    "brewery_type": "contract",
    "street": "28102 Baileys Neck Rd",
    "city": "Easton",
    "state": "Maryland",
    "postal_code": "21601-8520",
    "website_url": "http://www.nationalpremiumbeer.com",
    "phone": "4103103553",
    "created_at": "2018-07-24 01:33:29.388591",
    "updated_at": "2018-08-11 21:37:37.004279",
    "country": "United States",
    "longitude": "",
    "latitude": ""
  },
  {
    "id": "3169",
    "name": "Nepenthe Homebrew & Brewery",
    "brewery_type": "planning",
    "street": "",
    "city": "Baltimore",
    "state": "Maryland",
    "postal_code": "21211-1900",
    "website_url": "http://www.nepenthehomebrew.com",
    "phone": "4434384846",
    "created_at": "2018-07-24 01:33:29.40162",
    "updated_at": "2018-08-11 21:37:37.030048",
    "country": "United States",
    "longitude": "",
    "latitude": ""
  },
  {
    "id": "3178",
    "name": "Red Shedman Farm Brewery",
    "brewery_type": "micro",
    "street": "13601 Glissans Mill Rd",
    "city": "Mount Airy",
    "state": "Maryland",
    "postal_code": "21771-8507",
    "website_url": "http://www.redshedman.com",
    "phone": "3018315889",
    "created_at": "2018-07-24 01:33:29.538433",
    "updated_at": "2018-08-11 21:37:37.312119",
    "country": "United States",
    "longitude": "",
    "latitude": ""
  },
  {
    "id": "3183",
    "name": "Ruhlman Brewery/Our Ales",
    "brewery_type": "micro",
    "street": "2300 Harvey Gummel Rd",
    "city": "Hampstead",
    "state": "Maryland",
    "postal_code": "21074-1033",
    "website_url": "",
    "phone": "",
    "created_at": "2018-07-24 01:33:29.603143",
    "updated_at": "2018-08-11 21:37:37.444763",
    "country": "United States",
    "longitude": "",
    "latitude": ""
  },
  {
    "id": "3139",
    "name": "Frisco Tap House & Push Brewery",
    "brewery_type": "brewpub",
    "street": "6695 Dobbin Rd",
    "city": "Columbia",
    "state": "Maryland",
    "postal_code": "21045-4755",
    "website_url": "http://www.friscogrille.com",
    "phone": "4103124907",
    "created_at": "2018-07-24 01:33:28.964138",
    "updated_at": "2018-08-24 00:40:32.222924",
    "country": "United States",
    "longitude": "-76.8252248",
    "latitude": "39.1860574"
  },
  {
    "id": "3148",
    "name": "Guinness Open Gate Brewery and Barrel House",
    "brewery_type": "large",
    "street": "5001 Washington Blvd",
    "city": "Halethorpe",
    "state": "Maryland",
    "postal_code": "21227-5000",
    "website_url": "",
    "phone": "9022663839",
    "created_at": "2018-07-24 01:33:29.094225",
    "updated_at": "2018-08-24 00:40:35.012541",
    "country": "United States",
    "longitude": "-76.6984386545525",
    "latitude": "39.222265"
  },
  {
    "id": "3155",
    "name": "Independent Brewing Company",
    "brewery_type": "micro",
    "street": "418 N Main St",
    "city": "Bel Air",
    "state": "Maryland",
    "postal_code": "21014-3509",
    "website_url": "",
    "phone": "4108368313",
    "created_at": "2018-07-24 01:33:29.19389",
    "updated_at": "2018-08-24 00:40:36.374012",
    "country": "United States",
    "longitude": "-76.3564778438863",
    "latitude": "39.53986125"
  },
  {
    "id": "3157",
    "name": "Johanssons Dining House",
    "brewery_type": "brewpub",
    "street": "4 W Main St",
    "city": "Westminster",
    "state": "Maryland",
    "postal_code": "21157-4816",
    "website_url": "http://www.johanssonsdininghouse.com",
    "phone": "4108760101",
    "created_at": "2018-07-24 01:33:29.224612",
    "updated_at": "2018-08-24 00:40:37.453619",
    "country": "United States",
    "longitude": "-76.9959315",
    "latitude": "39.5753896"
  },
  {
    "id": "3165",
    "name": "Monocacy Brewing Co",
    "brewery_type": "micro",
    "street": "1781 N Market St",
    "city": "Frederick",
    "state": "Maryland",
    "postal_code": "21701-4305",
    "website_url": "",
    "phone": "3016310671",
    "created_at": "2018-07-24 01:33:29.341234",
    "updated_at": "2018-08-24 00:40:39.225007",
    "country": "United States",
    "longitude": "-77.3989904",
    "latitude": "39.4403205"
  },
  {
    "id": "3170",
    "name": "Ocean City Brewing Company",
    "brewery_type": "brewpub",
    "street": "5509 Coastal Hwy",
    "city": "Ocean City",
    "state": "Maryland",
    "postal_code": "21842-3144",
    "website_url": "http://www.ocbrewingcompany.com",
    "phone": "4436646842",
    "created_at": "2018-07-24 01:33:29.414683",
    "updated_at": "2018-08-24 00:40:41.102112",
    "country": "United States",
    "longitude": "-75.0683876080806",
    "latitude": "38.3796575943299"
  },
  {
    "id": "3171",
    "name": "Olde Mother Brewing, LLC",
    "brewery_type": "micro",
    "street": "911 E Patrick St",
    "city": "Frederick",
    "state": "Maryland",
    "postal_code": "21701-3132",
    "website_url": "http://OldeMother.com",
    "phone": "3016241700",
    "created_at": "2018-07-24 01:33:29.426789",
    "updated_at": "2018-08-24 00:40:41.579998",
    "country": "United States",
    "longitude": "-77.3912138",
    "latitude": "39.40928"
  },
  {
    "id": "3172",
    "name": "Oliver Brewing Company",
    "brewery_type": "micro",
    "street": "4216 Shannon Dr",
    "city": "Baltimore",
    "state": "Maryland",
    "postal_code": "21213-2144",
    "website_url": "http://www.oliverbrewingco.com",
    "phone": "4104833302",
    "created_at": "2018-07-24 01:33:29.447977",
    "updated_at": "2018-08-24 00:40:42.045701",
    "country": "United States",
    "longitude": "-76.5531768042595",
    "latitude": "39.3149018"
  },
  {
    "id": "3173",
    "name": "Patriot Acres Farm Brewery",
    "brewery_type": "micro",
    "street": "1621 Millington Rd",
    "city": "Sudlersville",
    "state": "Maryland",
    "postal_code": "21668-1427",
    "website_url": "http://www.patriotacresfarmbrewery.com",
    "phone": "4107085424",
    "created_at": "2018-07-24 01:33:29.463363",
    "updated_at": "2018-08-24 00:40:42.502986",
    "country": "United States",
    "longitude": "-75.8673613621863",
    "latitude": "39.2222829829489"
  },
  {
    "id": "3174",
    "name": "Peabody Heights Brewery",
    "brewery_type": "micro",
    "street": "401 E 30th St",
    "city": "Baltimore",
    "state": "Maryland",
    "postal_code": "21218-3935",
    "website_url": "http://www.peabodyheightsbrewery.com",
    "phone": "4104677837",
    "created_at": "2018-07-24 01:33:29.475815",
    "updated_at": "2018-08-24 00:40:43.049695",
    "country": "United States",
    "longitude": "-76.6104150492571",
    "latitude": "39.32410525"
  },
  {
    "id": "3175",
    "name": "Pratt Street Ale House",
    "brewery_type": "brewpub",
    "street": "206 W Pratt St",
    "city": "Baltimore",
    "state": "Maryland",
    "postal_code": "21201-2426",
    "website_url": "http://www.oliverales.com",
    "phone": "4102448900",
    "created_at": "2018-07-24 01:33:29.49016",
    "updated_at": "2018-08-24 00:40:43.550315",
    "country": "United States",
    "longitude": "-76.6181543559366",
    "latitude": "39.28659055"
  },
  {
    "id": "3177",
    "name": "RAR Brewing",
    "brewery_type": "proprietor",
    "street": "504 Poplar St",
    "city": "Cambridge",
    "state": "Maryland",
    "postal_code": "21613-1834",
    "website_url": "http://www.rarbrewing.com",
    "phone": "4107257922",
    "created_at": "2018-07-24 01:33:29.525659",
    "updated_at": "2018-08-24 00:40:44.440988",
    "country": "United States",
    "longitude": "-76.0774552",
    "latitude": "38.5702289"
  },
  {
    "id": "3179",
    "name": "Rock Bottom Brewery - Bethesda",
    "brewery_type": "brewpub",
    "street": "7900 Norfolk Ave",
    "city": "Bethesda",
    "state": "Maryland",
    "postal_code": "20814-2502",
    "website_url": "http://www.rockbottom.com",
    "phone": "3016521311",
    "created_at": "2018-07-24 01:33:29.55252",
    "updated_at": "2018-08-24 00:40:45.335139",
    "country": "United States",
    "longitude": "-77.0976716",
    "latitude": "38.9890033"
  },
  {
    "id": "3181",
    "name": "Rubber Soul Brewing",
    "brewery_type": "micro",
    "street": "1930 Northwood Dr",
    "city": "Salisbury",
    "state": "Maryland",
    "postal_code": "21801-7824",
    "website_url": "http://www.rubbersoulbrewing.com",
    "phone": "4433047685",
    "created_at": "2018-07-24 01:33:29.578437",
    "updated_at": "2018-08-24 00:40:46.37091",
    "country": "United States",
    "longitude": "-75.5841880101684",
    "latitude": "38.3910967353605"
  },
  {
    "id": "3182",
    "name": "Ruddy Duck Brewery and Grill",
    "brewery_type": "brewpub",
    "street": "13200 Dowell Rd",
    "city": "Dowell",
    "state": "Maryland",
    "postal_code": "20629",
    "website_url": "http://www.ruddyduckbrewery.com",
    "phone": "4103943825",
    "created_at": "2018-07-24 01:33:29.590997",
    "updated_at": "2018-08-24 00:40:46.801651",
    "country": "United States",
    "longitude": "-76.45795",
    "latitude": "38.350501"
  },
  {
    "id": "3185",
    "name": "Scorpion Brewing",
    "brewery_type": "micro",
    "street": "929 Skinners Turn Rd, Suite 100",
    "city": "Owings",
    "state": "Maryland",
    "postal_code": "20736",
    "website_url": "http://www.scorpionbrewing.com",
    "phone": "7033072400",
    "created_at": "2018-07-24 01:33:29.627999",
    "updated_at": "2018-08-11 21:37:37.513498",
    "country": "United States",
    "longitude": "",
    "latitude": ""
  },
  {
    "id": "3186",
    "name": "Sigma Ingredients LLC",
    "brewery_type": "planning",
    "street": "",
    "city": "Salisbury",
    "state": "Maryland",
    "postal_code": "21801-6739",
    "website_url": "http://www.sigmaingredients.com",
    "phone": "4104308903",
    "created_at": "2018-07-24 01:33:29.640986",
    "updated_at": "2018-08-11 21:37:37.546188",
    "country": "United States",
    "longitude": "",
    "latitude": ""
  },
  {
    "id": "3187",
    "name": "Silver Branch Brewing Company",
    "brewery_type": "planning",
    "street": "",
    "city": "Silver Spring",
    "state": "Maryland",
    "postal_code": "20910-3487",
    "website_url": "http://www.silverbranchbrewing.com",
    "phone": "2028418646",
    "created_at": "2018-07-24 01:33:29.653408",
    "updated_at": "2018-08-11 21:37:37.576585",
    "country": "United States",
    "longitude": "",
    "latitude": ""
  },
  {
    "id": "3194",
    "name": "Tall Tales Brewing Co. LLC",
    "brewery_type": "brewpub",
    "street": "6929 Heron Grove Ct Ste 102",
    "city": "Parsonsburg",
    "state": "Maryland",
    "postal_code": "21849-2155",
    "website_url": "http://www.talltalesbrew.com",
    "phone": "4105432739",
    "created_at": "2018-07-24 01:33:29.744542",
    "updated_at": "2018-08-11 21:37:37.785216",
    "country": "United States",
    "longitude": "",
    "latitude": ""
  },
  {
    "id": "3195",
    "name": "TenEyck Brewing",
    "brewery_type": "planning",
    "street": "",
    "city": "Queenstown",
    "state": "Maryland",
    "postal_code": "21658-1386",
    "website_url": "",
    "phone": "8134777249",
    "created_at": "2018-07-24 01:33:29.759448",
    "updated_at": "2018-08-11 21:37:37.810603",
    "country": "United States",
    "longitude": "",
    "latitude": ""
  },
  {
    "id": "3199",
    "name": "Tuppers Hop Pocket Ale",
    "brewery_type": "contract",
    "street": "6404 Redwing Rd",
    "city": "Bethesda",
    "state": "Maryland",
    "postal_code": "20817-5920",
    "website_url": "http://www.tuppersbeers.com",
    "phone": "3012292027",
    "created_at": "2018-07-24 01:33:29.811655",
    "updated_at": "2018-08-11 21:37:37.923966",
    "country": "United States",
    "longitude": "",
    "latitude": ""
  },
  {
    "id": "3200",
    "name": "Tusculum Farm Enterprises, LLC",
    "brewery_type": "planning",
    "street": "",
    "city": "Laytonsville",
    "state": "Maryland",
    "postal_code": "20882-2117",
    "website_url": "http://tusculumfarm.com",
    "phone": "8337332216",
    "created_at": "2018-07-24 01:33:29.82407",
    "updated_at": "2018-08-11 21:37:37.954266",
    "country": "United States",
    "longitude": "",
    "latitude": ""
  },
  {
    "id": "3202",
    "name": "Union Craft Brewing",
    "brewery_type": "micro",
    "street": "1700 Union Ave Ste D",
    "city": "Baltimore",
    "state": "Maryland",
    "postal_code": "21211-1499",
    "website_url": "http://www.unioncraftbrewing.com",
    "phone": "4106169282",
    "created_at": "2018-07-24 01:33:29.852825",
    "updated_at": "2018-08-11 21:37:37.980294",
    "country": "United States",
    "longitude": "",
    "latitude": ""
  },
  {
    "id": "3203",
    "name": "Waredaca Brewing Company",
    "brewery_type": "micro",
    "street": "4017 Damascus Rd",
    "city": "Gaithersburg",
    "state": "Maryland",
    "postal_code": "20882-2105",
    "website_url": "http://www.waredacabrewing.com",
    "phone": "2404322255",
    "created_at": "2018-07-24 01:33:29.868748",
    "updated_at": "2018-08-11 21:37:38.022713",
    "country": "United States",
    "longitude": "",
    "latitude": ""
  },
  {
    "id": "3204",
    "name": "Waverly Brewing Company",
    "brewery_type": "micro",
    "street": "1625-C Union Ave",
    "city": "Baltimore",
    "state": "Maryland",
    "postal_code": "21211",
    "website_url": "http://www.waverlybrewingcompany.com",
    "phone": "4434385765",
    "created_at": "2018-07-24 01:33:29.882079",
    "updated_at": "2018-08-11 21:37:38.076632",
    "country": "United States",
    "longitude": "",
    "latitude": ""
  },
  {
    "id": "3205",
    "name": "White Marsh Brewing Co/Red Brick Station",
    "brewery_type": "brewpub",
    "street": "8149 Honeygo Blvd Ste A",
    "city": "Baltimore",
    "state": "Maryland",
    "postal_code": "21236-8209",
    "website_url": "http://www.redbrickstation.com",
    "phone": "4109317827",
    "created_at": "2018-07-24 01:33:29.897594",
    "updated_at": "2018-08-11 21:37:38.109928",
    "country": "United States",
    "longitude": "",
    "latitude": ""
  },
  {
    "id": "3188",
    "name": "Slate Farm Brewery",
    "brewery_type": "micro",
    "street": "2128 Whiteford Rd",
    "city": "Whiteford",
    "state": "Maryland",
    "postal_code": "21160-1402",
    "website_url": "",
    "phone": "",
    "created_at": "2018-07-24 01:33:29.665743",
    "updated_at": "2018-08-24 00:40:48.577979",
    "country": "United States",
    "longitude": "-76.3369752",
    "latitude": "39.7036891"
  },
  {
    "id": "3189",
    "name": "Smoketown Brewing Station",
    "brewery_type": "micro",
    "street": "223 W Potomac St",
    "city": "Brunswick",
    "state": "Maryland",
    "postal_code": "21716-1117",
    "website_url": "http://www.smoketownbrewing.com",
    "phone": "3018344828",
    "created_at": "2018-07-24 01:33:29.677767",
    "updated_at": "2018-08-24 00:40:49.0265",
    "country": "United States",
    "longitude": "-77.6302935",
    "latitude": "39.3136514"
  },
  {
    "id": "3191",
    "name": "Stillwater Artisanal Ales",
    "brewery_type": "contract",
    "street": "720 S Conkling St",
    "city": "Baltimore",
    "state": "Maryland",
    "postal_code": "21224-4301",
    "website_url": "",
    "phone": "4436685255",
    "created_at": "2018-07-24 01:33:29.704265",
    "updated_at": "2018-08-24 00:40:50.054821",
    "country": "United States",
    "longitude": "-76.5672643515205",
    "latitude": "39.28408355"
  },
  {
    "id": "3193",
    "name": "Suspended Brewing Co",
    "brewery_type": "micro",
    "street": "912 Washington Blvd",
    "city": "Baltimore",
    "state": "Maryland",
    "postal_code": "21230-2318",
    "website_url": "http://www.suspendedbrewing.com",
    "phone": "3016466359",
    "created_at": "2018-07-24 01:33:29.732061",
    "updated_at": "2018-08-24 00:40:51.037808",
    "country": "United States",
    "longitude": "-76.6314892106433",
    "latitude": "39.2831169"
  },
  {
    "id": "3197",
    "name": "The Federal Brewing Company",
    "brewery_type": "micro",
    "street": "102 S Main St",
    "city": "Federalsburg",
    "state": "Maryland",
    "postal_code": "21632-1215",
    "website_url": "http://www.fedbrew.com",
    "phone": "",
    "created_at": "2018-07-24 01:33:29.785459",
    "updated_at": "2018-08-24 00:40:52.539601",
    "country": "United States",
    "longitude": "-75.77333325",
    "latitude": "38.693604875"
  },
  {
    "id": "3198",
    "name": "True Respite Brewing Company",
    "brewery_type": "micro",
    "street": "7301 Calhoun Pl Ste 600",
    "city": "Derwood",
    "state": "Maryland",
    "postal_code": "20855-2740",
    "website_url": "http://www.truerespite.com",
    "phone": "3012848447",
    "created_at": "2018-07-24 01:33:29.798203",
    "updated_at": "2018-08-24 00:40:52.986648",
    "country": "United States",
    "longitude": "-77.152035",
    "latitude": "39.108112"
  },
  {
    "id": "3092",
    "name": "Antietam Brewery,LLC",
    "brewery_type": "micro",
    "street": "140 Western Maryland Pkwy Unit G",
    "city": "Hagerstown",
    "state": "Maryland",
    "postal_code": "21740-5197",
    "website_url": "http://www.antietambrewery.com",
    "phone": "3017915915",
    "created_at": "2018-07-24 01:33:28.287924",
    "updated_at": "2018-08-11 21:37:34.664753",
    "country": "United States",
    "longitude": "",
    "latitude": ""
  },
  {
    "id": "3115",
    "name": "Calvert Brewing Co",
    "brewery_type": "micro",
    "street": "150 Adelina Rd",
    "city": "Prince Frederick",
    "state": "Maryland",
    "postal_code": "20678-3709",
    "website_url": "http://www.calvertbrewingcompany.com",
    "phone": "4104148486",
    "created_at": "2018-07-24 01:33:28.616573",
    "updated_at": "2018-08-11 21:37:35.405277",
    "country": "United States",
    "longitude": "",
    "latitude": ""
  },
  {
    "id": "3140",
    "name": "Full Tilt Brewing",
    "brewery_type": "contract",
    "street": "5604 York Road",
    "city": "Baltimore",
    "state": "Maryland",
    "postal_code": "21212",
    "website_url": "http://www.fulltiltbrewing.com",
    "phone": "",
    "created_at": "2018-07-24 01:33:28.982224",
    "updated_at": "2018-08-11 21:37:36.152674",
    "country": "United States",
    "longitude": "",
    "latitude": ""
  },
  {
    "id": "3141",
    "name": "Gordon Biersch Brewery Restaurant - Annapolis",
    "brewery_type": "brewpub",
    "street": "1906 Towne Centre Blvd Ste 155",
    "city": "Annapolis",
    "state": "Maryland",
    "postal_code": "21401-3681",
    "website_url": "http://www.craftworksrestaurants.com",
    "phone": "4102665965",
    "created_at": "2018-07-24 01:33:28.997112",
    "updated_at": "2018-08-11 21:37:36.181514",
    "country": "United States",
    "longitude": "",
    "latitude": ""
  },
  {
    "id": "3180",
    "name": "Rockwell Brewery",
    "brewery_type": "micro",
    "street": "880 N East St Unit 201",
    "city": "Frederick",
    "state": "Maryland",
    "postal_code": "21701-5045",
    "website_url": "http://www.rockwellbrewery.com",
    "phone": "3017324880",
    "created_at": "2018-07-24 01:33:29.565967",
    "updated_at": "2018-08-11 21:37:37.364283",
    "country": "United States",
    "longitude": "",
    "latitude": ""
  },
  {
    "id": "3161",
    "name": "Market Street Public House",
    "brewery_type": "brewpub",
    "street": "200 Market St",
    "city": "Denton",
    "state": "Maryland",
    "postal_code": "21629-1037",
    "website_url": "http://www.marketstreet.pub",
    "phone": "4104794720",
    "created_at": "2018-07-24 01:33:29.28339",
    "updated_at": "2018-08-24 00:40:38.324968",
    "country": "United States",
    "longitude": "-75.831804",
    "latitude": "38.886037"
  },
  {
    "id": "3190",
    "name": "Steinhardt Brewing Company",
    "brewery_type": "micro",
    "street": "5710 Jefferson Blvd",
    "city": "Frederick",
    "state": "Maryland",
    "postal_code": "21703-6947",
    "website_url": "http://www.steinhardtbrewing.com",
    "phone": "",
    "created_at": "2018-07-24 01:33:29.690666",
    "updated_at": "2018-08-24 00:40:49.588618",
    "country": "United States",
    "longitude": "-77.512519",
    "latitude": "39.391045"
  },
  {
    "id": "3192",
    "name": "Streetcar 82 Brewing Co.",
    "brewery_type": "micro",
    "street": "4824 Rhode Island Ave",
    "city": "Hyattsville",
    "state": "Maryland",
    "postal_code": "20781-2034",
    "website_url": "http://www.streetcar82brewing.com",
    "phone": "2407820152",
    "created_at": "2018-07-24 01:33:29.717725",
    "updated_at": "2018-08-24 00:40:50.528089",
    "country": "United States",
    "longitude": "-76.9430028",
    "latitude": "38.9493263"
  },
  {
    "id": "3099",
    "name": "Barley and Hops Grill",
    "brewery_type": "brewpub",
    "street": "5473 Urbana Pike",
    "city": "Frederick",
    "state": "Maryland",
    "postal_code": "21704-7275",
    "website_url": "http://www.barleyandhops.net",
    "phone": "3016685555",
    "created_at": "2018-07-24 01:33:28.388667",
    "updated_at": "2018-08-24 00:40:19.465918",
    "country": "United States",
    "longitude": "-77.3995969",
    "latitude": "39.38204685"
  },
  {
    "id": "3105",
    "name": "Brewer's Alley Restaurant and Brewery",
    "brewery_type": "brewpub",
    "street": "124 N Market St",
    "city": "Frederick",
    "state": "Maryland",
    "postal_code": "21701-5422",
    "website_url": "http://www.brewers-alley.com",
    "phone": "3016310089",
    "created_at": "2018-07-24 01:33:28.474973",
    "updated_at": "2018-08-24 00:40:21.333837",
    "country": "United States",
    "longitude": "-77.4104551496397",
    "latitude": "39.41607325"
  },
  {
    "id": "3132",
    "name": "Evolution Craft Brewing Co",
    "brewery_type": "regional",
    "street": "200 Elmwood St",
    "city": "Salisbury",
    "state": "Maryland",
    "postal_code": "21804-5522",
    "website_url": "http://www.evolutioncraftbrewing.com",
    "phone": "4432602337",
    "created_at": "2018-07-24 01:33:28.870127",
    "updated_at": "2018-08-24 00:40:29.438247",
    "country": "United States",
    "longitude": "-75.595254",
    "latitude": "38.361979"
  },
  {
    "id": "3136",
    "name": "Flying Dog Brewery",
    "brewery_type": "regional",
    "street": "4607 Wedgewood Blvd",
    "city": "Frederick",
    "state": "Maryland",
    "postal_code": "21703-7120",
    "website_url": "http://www.flyingdogbrewery.com",
    "phone": "3016947899",
    "created_at": "2018-07-24 01:33:28.920835",
    "updated_at": "2018-08-24 00:40:30.783562",
    "country": "United States",
    "longitude": "-77.4267910677553",
    "latitude": "39.3628322"
  },
  {
    "id": "3137",
    "name": "Franklins General Store",
    "brewery_type": "micro",
    "street": "5123 Baltimore Ave",
    "city": "Hyattsville",
    "state": "Maryland",
    "postal_code": "20781-2042",
    "website_url": "http://Franklinsbrewery.com",
    "phone": "3019272740",
    "created_at": "2018-07-24 01:33:28.934325",
    "updated_at": "2018-08-24 00:40:31.278567",
    "country": "United States",
    "longitude": "-76.9407411387391",
    "latitude": "38.9519439895478"
  },
  {
    "id": "3146",
    "name": "Greene Growlers",
    "brewery_type": "brewpub",
    "street": "227 E Diamond Ave",
    "city": "Gaithersburg",
    "state": "Maryland",
    "postal_code": "20877",
    "website_url": "http://www.greenegrowlers.com",
    "phone": "2402616196",
    "created_at": "2018-07-24 01:33:29.066136",
    "updated_at": "2018-08-24 00:40:34.510006",
    "country": "United States",
    "longitude": "-77.1935558364428",
    "latitude": "39.1419364"
  },
  {
    "id": "3176",
    "name": "Pub Dog Brewing Company",
    "brewery_type": "micro",
    "street": "1203 New Windsor Rd",
    "city": "Westminster",
    "state": "Maryland",
    "postal_code": "21158-6704",
    "website_url": "http://www.pubdog.com",
    "phone": "4108483993",
    "created_at": "2018-07-24 01:33:29.505843",
    "updated_at": "2018-08-24 00:40:44.020674",
    "country": "United States",
    "longitude": "-77.0522979602972",
    "latitude": "39.5504519724238"
  },
  {
    "id": "3184",
    "name": "Saints Row Brewing",
    "brewery_type": "micro",
    "street": "1211 Taft St",
    "city": "Rockville",
    "state": "Maryland",
    "postal_code": "20850-1344",
    "website_url": "http://www.saintsrowbeer.com",
    "phone": "",
    "created_at": "2018-07-24 01:33:29.615319",
    "updated_at": "2018-08-24 00:40:47.652887",
    "country": "United States",
    "longitude": "-77.1340180802385",
    "latitude": "39.0936171503817"
  },
  {
    "id": "3196",
    "name": "The Brewer's Art / Old Line Brewery LLC",
    "brewery_type": "brewpub",
    "street": "1106 N Charles St",
    "city": "Baltimore",
    "state": "Maryland",
    "postal_code": "21201-5557",
    "website_url": "http://www.thebrewersart.com",
    "phone": "",
    "created_at": "2018-07-24 01:33:29.773277",
    "updated_at": "2018-08-24 00:40:52.085196",
    "country": "United States",
    "longitude": "-76.6146068",
    "latitude": "39.303716"
  },
  {
    "id": "3144",
    "name": "Grail Point Brewery",
    "brewery_type": "proprietor",
    "street": "",
    "city": "Emmitsburg",
    "state": "Maryland",
    "postal_code": "21727-0702",
    "website_url": "http://www.grailpointbeer.co",
    "phone": "2408442379",
    "created_at": "2018-07-24 01:33:29.039884",
    "updated_at": "2018-08-11 21:37:36.27253",
    "country": "United States",
    "longitude": "",
    "latitude": ""
  },
  {
    "id": "3090",
    "name": "1623 Brewing CO, llc",
    "brewery_type": "contract",
    "street": "1146 colonel Joshua Ct",
    "city": "Westminister",
    "state": "Maryland",
    "postal_code": "21157",
    "website_url": "",
    "phone": "",
    "created_at": "2018-07-24 01:33:28.260574",
    "updated_at": "2018-08-11 21:37:34.588804",
    "country": "United States",
    "longitude": "",
    "latitude": ""
  },
  {
    "id": "3091",
    "name": "7 Locks Brewing",
    "brewery_type": "micro",
    "street": "12227 Wilkins Ave",
    "city": "Rockville",
    "state": "Maryland",
    "postal_code": "20852-1833",
    "website_url": "http://www.7locksbrewing.com",
    "phone": "3018417123",
    "created_at": "2018-07-24 01:33:28.273967",
    "updated_at": "2018-08-11 21:37:34.634016",
    "country": "United States",
    "longitude": "",
    "latitude": ""
  },
  {
    "id": "3093",
    "name": "Astro Lab Brewing",
    "brewery_type": "planning",
    "street": "",
    "city": "Silver Spring",
    "state": "Maryland",
    "postal_code": "20910-4519",
    "website_url": "http://www.astrolabbrewing.com",
    "phone": "3106910475",
    "created_at": "2018-07-24 01:33:28.300891",
    "updated_at": "2018-08-11 21:37:34.692798",
    "country": "United States",
    "longitude": "",
    "latitude": ""
  },
  {
    "id": "3094",
    "name": "Attaboy Beer",
    "brewery_type": "micro",
    "street": "400 Sagner Ave Ste 400",
    "city": "Frederick",
    "state": "Maryland",
    "postal_code": "21701-6083",
    "website_url": "",
    "phone": "4157106459",
    "created_at": "2018-07-24 01:33:28.315678",
    "updated_at": "2018-08-11 21:37:34.727938",
    "country": "United States",
    "longitude": "",
    "latitude": ""
  },
  {
    "id": "3095",
    "name": "B.C. Brewery",
    "brewery_type": "micro",
    "street": "10950 Gilroy Rd Ste F",
    "city": "Hunt Valley",
    "state": "Maryland",
    "postal_code": "21031-1327",
    "website_url": "http://www.bcbrewerymd.com",
    "phone": "4433913847",
    "created_at": "2018-07-24 01:33:28.330544",
    "updated_at": "2018-08-11 21:37:34.756035",
    "country": "United States",
    "longitude": "",
    "latitude": ""
  },
  {
    "id": "3096",
    "name": "Back Creek Brewing Company",
    "brewery_type": "planning",
    "street": "",
    "city": "Annapolis",
    "state": "Maryland",
    "postal_code": "21401-4019",
    "website_url": "http://www.backcreekbrewing.com",
    "phone": "4103206904",
    "created_at": "2018-07-24 01:33:28.347458",
    "updated_at": "2018-08-11 21:37:34.800582",
    "country": "United States",
    "longitude": "",
    "latitude": ""
  },
  {
    "id": "3097",
    "name": "Backshore Brewing Co.",
    "brewery_type": "brewpub",
    "street": "913 Atlantic Ave",
    "city": "Ocean City",
    "state": "Maryland",
    "postal_code": "21842-6689",
    "website_url": "http://www.BackshoreBrew.com",
    "phone": "4102890008",
    "created_at": "2018-07-24 01:33:28.361849",
    "updated_at": "2018-08-11 21:37:34.836405",
    "country": "United States",
    "longitude": "",
    "latitude": ""
  },
  {
    "id": "3098",
    "name": "Baltimore Washington Beer Works",
    "brewery_type": "contract",
    "street": "2500 Grays Rd",
    "city": "Dundalk",
    "state": "Maryland",
    "postal_code": "21222",
    "website_url": "http://www.ravenbeer.com",
    "phone": "4438476223",
    "created_at": "2018-07-24 01:33:28.374578",
    "updated_at": "2018-08-11 21:37:34.864778",
    "country": "United States",
    "longitude": "",
    "latitude": ""
  },
  {
    "id": "3100",
    "name": "Big Truck Brewery",
    "brewery_type": "planning",
    "street": "",
    "city": "Parkton",
    "state": "Maryland",
    "postal_code": "21120-9004",
    "website_url": "http://www.bigtruckfarms.com",
    "phone": "4436775451",
    "created_at": "2018-07-24 01:33:28.403157",
    "updated_at": "2018-08-11 21:37:34.921667",
    "country": "United States",
    "longitude": "",
    "latitude": ""
  },
  {
    "id": "3101",
    "name": "Bird Nickel Brewing Company",
    "brewery_type": "planning",
    "street": "",
    "city": "Easton",
    "state": "Maryland",
    "postal_code": "21601-3904",
    "website_url": "",
    "phone": "4103106042",
    "created_at": "2018-07-24 01:33:28.418418",
    "updated_at": "2018-08-11 21:37:34.949585",
    "country": "United States",
    "longitude": "",
    "latitude": ""
  },
  {
    "id": "3103",
    "name": "Brawling Bear",
    "brewery_type": "micro",
    "street": "15 Fulks Corner Ave",
    "city": "Gaithersburg",
    "state": "Maryland",
    "postal_code": "20877-2067",
    "website_url": "http://www.brawlingbear.com",
    "phone": "2408423272",
    "created_at": "2018-07-24 01:33:28.448571",
    "updated_at": "2018-08-11 21:37:35.008302",
    "country": "United States",
    "longitude": "",
    "latitude": ""
  },
  {
    "id": "3106",
    "name": "Brewery In Planning - Arnold",
    "brewery_type": "planning",
    "street": "",
    "city": "Annapolis",
    "state": "Maryland",
    "postal_code": "21409-5402",
    "website_url": "",
    "phone": "",
    "created_at": "2018-07-24 01:33:28.487002",
    "updated_at": "2018-08-11 21:37:35.128466",
    "country": "United States",
    "longitude": "",
    "latitude": ""
  },
  {
    "id": "3107",
    "name": "Brewery In Planning - Germantown",
    "brewery_type": "planning",
    "street": "",
    "city": "Germantown",
    "state": "Maryland",
    "postal_code": "20876-4443",
    "website_url": "",
    "phone": "",
    "created_at": "2018-07-24 01:33:28.500528",
    "updated_at": "2018-08-11 21:37:35.154993",
    "country": "United States",
    "longitude": "",
    "latitude": ""
  },
  {
    "id": "3108",
    "name": "Brewery In Planning - Mounnt Airy",
    "brewery_type": "planning",
    "street": "",
    "city": "Mount Airy",
    "state": "Maryland",
    "postal_code": "21771-8820",
    "website_url": "",
    "phone": "4435366455",
    "created_at": "2018-07-24 01:33:28.512904",
    "updated_at": "2018-08-11 21:37:35.186396",
    "country": "United States",
    "longitude": "",
    "latitude": ""
  },
  {
    "id": "3109",
    "name": "Brewery in Planning - Silver Spring",
    "brewery_type": "planning",
    "street": "",
    "city": "Silver Spring",
    "state": "Maryland",
    "postal_code": "20910-5122",
    "website_url": "",
    "phone": "2027148869",
    "created_at": "2018-07-24 01:33:28.526669",
    "updated_at": "2018-08-11 21:37:35.217588",
    "country": "United States",
    "longitude": "",
    "latitude": ""
  },
  {
    "id": "3110",
    "name": "Broken Gate Brewing",
    "brewery_type": "planning",
    "street": "",
    "city": "Baltimore",
    "state": "Maryland",
    "postal_code": "21230-4464",
    "website_url": "",
    "phone": "3103453570",
    "created_at": "2018-07-24 01:33:28.540273",
    "updated_at": "2018-08-11 21:37:35.246986",
    "country": "United States",
    "longitude": "",
    "latitude": ""
  },
  {
    "id": "3112",
    "name": "Bull and Goat Brewery",
    "brewery_type": "micro",
    "street": "204 Banjo Ln",
    "city": "Centreville",
    "state": "Maryland",
    "postal_code": "21617-1067",
    "website_url": "http://www.bullandgoatbrewery.com",
    "phone": "",
    "created_at": "2018-07-24 01:33:28.571092",
    "updated_at": "2018-08-11 21:37:35.304462",
    "country": "United States",
    "longitude": "",
    "latitude": ""
  },
  {
    "id": "3114",
    "name": "BW Farm, LLC",
    "brewery_type": "planning",
    "street": "",
    "city": "Owings",
    "state": "Maryland",
    "postal_code": "20736-9109",
    "website_url": "",
    "phone": "2406727995",
    "created_at": "2018-07-24 01:33:28.601252",
    "updated_at": "2018-08-11 21:37:35.374473",
    "country": "United States",
    "longitude": "",
    "latitude": ""
  },
  {
    "id": "3116",
    "name": "Calvert Brewing Co",
    "brewery_type": "micro",
    "street": "15850 Commerce Ct",
    "city": "Upper Marlboro",
    "state": "Maryland",
    "postal_code": "20774-7437",
    "website_url": "http://calvertbrewingcompany.com",
    "phone": "2402454609",
    "created_at": "2018-07-24 01:33:28.631571",
    "updated_at": "2018-08-11 21:37:35.43762",
    "country": "United States",
    "longitude": "",
    "latitude": ""
  },
  {
    "id": "3123",
    "name": "Cult Classic Brewing",
    "brewery_type": "planning",
    "street": "",
    "city": "Stevensville",
    "state": "Maryland",
    "postal_code": "21666-4051",
    "website_url": "http://www.cultclassicbrewing.com",
    "phone": "4432236480",
    "created_at": "2018-07-24 01:33:28.741244",
    "updated_at": "2018-08-11 21:37:35.647403",
    "country": "United States",
    "longitude": "",
    "latitude": ""
  },
  {
    "id": "3124",
    "name": "Cushwa Brewing Co",
    "brewery_type": "micro",
    "street": "10212 Governor Lane Blvd Ste 1012",
    "city": "Williamsport",
    "state": "Maryland",
    "postal_code": "21795",
    "website_url": "http://www.cushwabrewing.com",
    "phone": "",
    "created_at": "2018-07-24 01:33:28.754907",
    "updated_at": "2018-08-11 21:37:35.676025",
    "country": "United States",
    "longitude": "",
    "latitude": ""
  },
  {
    "id": "3128",
    "name": "DuClaw Brewing Co",
    "brewery_type": "regional",
    "street": "8901 Yellow Brick Rd Ste B",
    "city": "Baltimore",
    "state": "Maryland",
    "postal_code": "21237-2349",
    "website_url": "http://www.duclaw.com",
    "phone": "4435599900",
    "created_at": "2018-07-24 01:33:28.810657",
    "updated_at": "2018-08-11 21:37:35.777433",
    "country": "United States",
    "longitude": "",
    "latitude": ""
  },
  {
    "id": "3130",
    "name": "Elder Pine Brewing and Blending Co",
    "brewery_type": "micro",
    "street": "4200 Sundown Rd",
    "city": "Gaithersburg",
    "state": "Maryland",
    "postal_code": "20882",
    "website_url": "http://www.elderpine.com",
    "phone": "",
    "created_at": "2018-07-24 01:33:28.843094",
    "updated_at": "2018-08-11 21:37:35.83399",
    "country": "United States",
    "longitude": "",
    "latitude": ""
  },
  {
    "id": "3135",
    "name": "Farmacy Brewing",
    "brewery_type": "planning",
    "street": "",
    "city": "Reisterstown",
    "state": "Maryland",
    "postal_code": "21136-3817",
    "website_url": "",
    "phone": "4109352551",
    "created_at": "2018-07-24 01:33:28.908055",
    "updated_at": "2018-08-11 21:37:35.986592",
    "country": "United States",
    "longitude": "",
    "latitude": ""
  },
  {
    "id": "3102",
    "name": "Black Flag Brewing Company",
    "brewery_type": "micro",
    "street": "9315 Snowden River Pkwy",
    "city": "Columbia",
    "state": "Maryland",
    "postal_code": "21046-2091",
    "website_url": "http://www.blackflagbrewingco.com",
    "phone": "4438645139",
    "created_at": "2018-07-24 01:33:28.433303",
    "updated_at": "2018-08-24 00:40:19.980241",
    "country": "United States",
    "longitude": "-76.810364",
    "latitude": "39.192524"
  },
  {
    "id": "3104",
    "name": "Brew House No 16",
    "brewery_type": "brewpub",
    "street": "831 N Calvert St",
    "city": "Baltimore",
    "state": "Maryland",
    "postal_code": "21202-3705",
    "website_url": "http://www.brewhouseno16.com",
    "phone": "4106594084",
    "created_at": "2018-07-24 01:33:28.461941",
    "updated_at": "2018-08-24 00:40:20.888498",
    "country": "United States",
    "longitude": "-76.6127119165296",
    "latitude": "39.29963095"
  },
  {
    "id": "3111",
    "name": "Brookeville Beer Farm",
    "brewery_type": "micro",
    "street": "20315 Georgia Ave",
    "city": "Brookeville",
    "state": "Maryland",
    "postal_code": "20833-1711",
    "website_url": "http://www.brookevillebeerfarm.com",
    "phone": "3012601000",
    "created_at": "2018-07-24 01:33:28.557759",
    "updated_at": "2018-08-24 00:40:21.824329",
    "country": "United States",
    "longitude": "-77.0579247",
    "latitude": "39.1780888"
  },
  {
    "id": "3113",
    "name": "Burley Oak Craft Brewery",
    "brewery_type": "micro",
    "street": "10016 Old Ocean City Blvd",
    "city": "Berlin",
    "state": "Maryland",
    "postal_code": "21811-1145",
    "website_url": "http://www.burleyoak.com",
    "phone": "4104228887",
    "created_at": "2018-07-24 01:33:28.587241",
    "updated_at": "2018-08-24 00:40:22.301209",
    "country": "United States",
    "longitude": "-75.2169864020113",
    "latitude": "38.3336448"
  },
  {
    "id": "3117",
    "name": "Checkerspot Brewing Company",
    "brewery_type": "brewpub",
    "street": "175 W Ostend St",
    "city": "Baltimore",
    "state": "Maryland",
    "postal_code": "21230",
    "website_url": "http://www.checkerspotbrewing.com",
    "phone": "4105915527",
    "created_at": "2018-07-24 01:33:28.647199",
    "updated_at": "2018-08-24 00:40:23.69505",
    "country": "United States",
    "longitude": "-76.6195028",
    "latitude": "39.2749156"
  },
  {
    "id": "3118",
    "name": "Chesapeake Brewing Co",
    "brewery_type": "brewpub",
    "street": "114 West St",
    "city": "Annapolis",
    "state": "Maryland",
    "postal_code": "21401-2802",
    "website_url": "http://www.chesbrewco.com",
    "phone": "4102680000",
    "created_at": "2018-07-24 01:33:28.661785",
    "updated_at": "2018-08-24 00:40:24.174185",
    "country": "United States",
    "longitude": "-76.4974843026646",
    "latitude": "38.9780984"
  },
  {
    "id": "3119",
    "name": "Chesepiooc Real Ale Brewery",
    "brewery_type": "micro",
    "street": "2408 Crofton Blvd",
    "city": "Crofton",
    "state": "Maryland",
    "postal_code": "21114",
    "website_url": "http://www.brewcrab.com",
    "phone": "4106301579",
    "created_at": "2018-07-24 01:33:28.674931",
    "updated_at": "2018-08-24 00:40:24.678234",
    "country": "United States",
    "longitude": "-76.6980466578072",
    "latitude": "39.0168716900273"
  },
  {
    "id": "3121",
    "name": "Costa Ventosa Winery & Vineyard",
    "brewery_type": "brewpub",
    "street": "9031 Whaleyville Rd",
    "city": "Whaleyville",
    "state": "Maryland",
    "postal_code": "21872-2116",
    "website_url": "http://www.costaventosa.com",
    "phone": "4433339867",
    "created_at": "2018-07-24 01:33:28.710411",
    "updated_at": "2018-08-24 00:40:25.130689",
    "country": "United States",
    "longitude": "-75.2600410714286",
    "latitude": "38.4235868714286"
  },
  {
    "id": "3122",
    "name": "Crooked Crab Brewing Company",
    "brewery_type": "micro",
    "street": "8251 Telegraph Rd",
    "city": "Odenton",
    "state": "Maryland",
    "postal_code": "21113",
    "website_url": "http://www.cookedcrabbrewing.com",
    "phone": "4435699187",
    "created_at": "2018-07-24 01:33:28.727411",
    "updated_at": "2018-08-24 00:40:25.626131",
    "country": "United States",
    "longitude": "-76.6948240454546",
    "latitude": "39.0972915909091"
  },
  {
    "id": "3125",
    "name": "Dempsey's Brew Pub and Restaurant - Baltimore",
    "brewery_type": "brewpub",
    "street": "333 W Camden St",
    "city": "Baltimore",
    "state": "Maryland",
    "postal_code": "21201",
    "website_url": "http://www.dempseysbaltimore.com",
    "phone": "4108437901",
    "created_at": "2018-07-24 01:33:28.769848",
    "updated_at": "2018-08-24 00:40:26.525482",
    "country": "United States",
    "longitude": "-76.6201383333333",
    "latitude": "39.2851846666667"
  },
  {
    "id": "3126",
    "name": "Denizens Brewing Company",
    "brewery_type": "brewpub",
    "street": "1115 E West Hwy",
    "city": "Silver Spring",
    "state": "Maryland",
    "postal_code": "20910-4852",
    "website_url": "http://www.denizensbrewingco.com",
    "phone": "3015579818",
    "created_at": "2018-07-24 01:33:28.782763",
    "updated_at": "2018-08-24 00:40:27.043945",
    "country": "United States",
    "longitude": "-77.0284814165893",
    "latitude": "38.9895771493914"
  },
  {
    "id": "3129",
    "name": "Eastern Shore Brewing",
    "brewery_type": "micro",
    "street": "605 S Talbot St",
    "city": "Saint Michaels",
    "state": "Maryland",
    "postal_code": "21663",
    "website_url": "http://www.easternshorebrewing.com",
    "phone": "4107458010",
    "created_at": "2018-07-24 01:33:28.82723",
    "updated_at": "2018-08-24 00:40:27.950815",
    "country": "United States",
    "longitude": "-76.2219944992277",
    "latitude": "38.7811356237258"
  },
  {
    "id": "3131",
    "name": "Ellicott Mills Brewing Co",
    "brewery_type": "brewpub",
    "street": "8308 Main St",
    "city": "Ellicott City",
    "state": "Maryland",
    "postal_code": "21043-4601",
    "website_url": "http://www.ellicottmillsbrewing.com",
    "phone": "4103138141",
    "created_at": "2018-07-24 01:33:28.856864",
    "updated_at": "2018-08-24 00:40:28.994767",
    "country": "United States",
    "longitude": "-76.7994431375514",
    "latitude": "39.2681041"
  },
  {
    "id": "3133",
    "name": "Evolution Craft Brewing Co - Salisbury",
    "brewery_type": "brewpub",
    "street": "201 E Vine St",
    "city": "Salisbury",
    "state": "Maryland",
    "postal_code": "21804-5515",
    "website_url": "",
    "phone": "",
    "created_at": "2018-07-24 01:33:28.882728",
    "updated_at": "2018-08-24 00:40:29.897461",
    "country": "United States",
    "longitude": "-75.595628",
    "latitude": "38.360471"
  },
  {
    "id": "3134",
    "name": "Falling Branch Brewery",
    "brewery_type": "micro",
    "street": "825 Highland Rd",
    "city": "Street",
    "state": "Maryland",
    "postal_code": "21154-1312",
    "website_url": "http://fallingbranchbeer.com",
    "phone": "",
    "created_at": "2018-07-24 01:33:28.895411",
    "updated_at": "2018-08-24 00:40:30.363739",
    "country": "United States",
    "longitude": "-76.3708166016169",
    "latitude": "39.6666500412926"
  },
  {
    "id": "3138",
    "name": "Frey's Brewing Company",
    "brewery_type": "micro",
    "street": "8601 Mapleville Rd",
    "city": "Mount Airy",
    "state": "Maryland",
    "postal_code": "21771-9705",
    "website_url": "http://www.freysbrewing.com",
    "phone": "3016397146",
    "created_at": "2018-07-24 01:33:28.948021",
    "updated_at": "2018-08-11 21:37:36.075388",
    "country": "United States",
    "longitude": "",
    "latitude": ""
  },
  {
    "id": "3142",
    "name": "Gordon Biersch Brewery Restaurant - Baltimore",
    "brewery_type": "brewpub",
    "street": "1000 Lancaster St Ste B",
    "city": "Baltimore",
    "state": "Maryland",
    "postal_code": "21202-4631",
    "website_url": "http://www.craftworksrestaurants.com",
    "phone": "4102309501",
    "created_at": "2018-07-24 01:33:29.012107",
    "updated_at": "2018-08-11 21:37:36.209831",
    "country": "United States",
    "longitude": "",
    "latitude": ""
  },
  {
    "id": "3143",
    "name": "Gordon Biersch Brewery Restaurant - Rockville",
    "brewery_type": "brewpub",
    "street": "200 E Middle Ln Unit A",
    "city": "Rockville",
    "state": "Maryland",
    "postal_code": "20850-2206",
    "website_url": "http://www.craftworksrestaurants.com",
    "phone": "3013407159",
    "created_at": "2018-07-24 01:33:29.026847",
    "updated_at": "2018-08-11 21:37:36.235421",
    "country": "United States",
    "longitude": "",
    "latitude": ""
  },
  {
    "id": "3145",
    "name": "Granite City Food & Brewery",
    "brewery_type": "brewpub",
    "street": "200 American Way",
    "city": "Oxon Hill",
    "state": "Maryland",
    "postal_code": "20745-4502",
    "website_url": "",
    "phone": "2404933900",
    "created_at": "2018-07-24 01:33:29.053464",
    "updated_at": "2018-08-11 21:37:36.305642",
    "country": "United States",
    "longitude": "",
    "latitude": ""
  },
  {
    "id": "3147",
    "name": "Greenspring Brewing Company",
    "brewery_type": "micro",
    "street": "",
    "city": "Chesapeake Beach",
    "state": "Maryland",
    "postal_code": "20732-4664",
    "website_url": "http://www.greenspringbrewingcompany.com",
    "phone": "4102063918",
    "created_at": "2018-07-24 01:33:29.079469",
    "updated_at": "2018-08-11 21:37:36.361542",
    "country": "United States",
    "longitude": "",
    "latitude": ""
  },
  {
    "id": "3149",
    "name": "Gypsy Brewing Company",
    "brewery_type": "micro",
    "street": "",
    "city": "Huntingtown",
    "state": "Maryland",
    "postal_code": "20639",
    "website_url": "",
    "phone": "",
    "created_at": "2018-07-24 01:33:29.109949",
    "updated_at": "2018-08-11 21:37:36.431885",
    "country": "United States",
    "longitude": "",
    "latitude": ""
  },
  {
    "id": "3150",
    "name": "Heart & Solar Brewing",
    "brewery_type": "planning",
    "street": "",
    "city": "Parkton",
    "state": "Maryland",
    "postal_code": "21120-9253",
    "website_url": "http://www.heartandsolarbrewing.com",
    "phone": "4104938030",
    "created_at": "2018-07-24 01:33:29.125159",
    "updated_at": "2018-08-11 21:37:36.46019",
    "country": "United States",
    "longitude": "",
    "latitude": ""
  },
  {
    "id": "3151",
    "name": "Heavy Seas Beer",
    "brewery_type": "regional",
    "street": "4615 Hollins Ferry Rd Ste B",
    "city": "Baltimore",
    "state": "Maryland",
    "postal_code": "21227-4624",
    "website_url": "http://www.hsbeer.com",
    "phone": "4102477822",
    "created_at": "2018-07-24 01:33:29.140022",
    "updated_at": "2018-08-11 21:37:36.487608",
    "country": "United States",
    "longitude": "",
    "latitude": ""
  },
  {
    "id": "3152",
    "name": "HopScratch Farm & Brewery",
    "brewery_type": "planning",
    "street": "",
    "city": "Harwood",
    "state": "Maryland",
    "postal_code": "20776",
    "website_url": "",
    "phone": "",
    "created_at": "2018-07-24 01:33:29.15477",
    "updated_at": "2018-08-11 21:37:36.518023",
    "country": "United States",
    "longitude": "",
    "latitude": ""
  },
  {
    "id": "3153",
    "name": "House Cat Brewing Company",
    "brewery_type": "planning",
    "street": "",
    "city": "Frederick",
    "state": "Maryland",
    "postal_code": "21704",
    "website_url": "",
    "phone": "3016050733",
    "created_at": "2018-07-24 01:33:29.167768",
    "updated_at": "2018-08-11 21:37:36.549225",
    "country": "United States",
    "longitude": "",
    "latitude": ""
  },
  {
    "id": "3154",
    "name": "Hysteria Brewing Company",
    "brewery_type": "micro",
    "street": "9570 Berger Rd Ste J",
    "city": "Columbia",
    "state": "Maryland",
    "postal_code": "21046-1559",
    "website_url": "http://www.hysteriabrewing.com",
    "phone": "4103608319",
    "created_at": "2018-07-24 01:33:29.18074",
    "updated_at": "2018-08-11 21:37:36.583955",
    "country": "United States",
    "longitude": "",
    "latitude": ""
  },
  {
    "id": "3156",
    "name": "Jailbreak Brewing Company",
    "brewery_type": "micro",
    "street": "9445 Washington Blvd N Ste F",
    "city": "Laurel",
    "state": "Maryland",
    "postal_code": "20723-1380",
    "website_url": "http://www.jailbreakbrewing.com",
    "phone": "4433459699",
    "created_at": "2018-07-24 01:33:29.210863",
    "updated_at": "2018-08-11 21:37:36.648483",
    "country": "United States",
    "longitude": "",
    "latitude": ""
  },
  {
    "id": "3158",
    "name": "Key Brewing Co.",
    "brewery_type": "micro",
    "street": "2500 Grays Rd",
    "city": "Dundalk",
    "state": "Maryland",
    "postal_code": "21222-5044",
    "website_url": "",
    "phone": "",
    "created_at": "2018-07-24 01:33:29.238323",
    "updated_at": "2018-08-11 21:37:36.707715",
    "country": "United States",
    "longitude": "",
    "latitude": ""
  },
  {
    "id": "3159",
    "name": "Mad Science Brewing Company",
    "brewery_type": "micro",
    "street": "1619 Buckeystown Pike",
    "city": "Adamstown",
    "state": "Maryland",
    "postal_code": "21710",
    "website_url": "http://www.madsciencebrewing.com",
    "phone": "2404098723",
    "created_at": "2018-07-24 01:33:29.253843",
    "updated_at": "2018-08-11 21:37:36.738646",
    "country": "United States",
    "longitude": "",
    "latitude": ""
  },
  {
    "id": "3160",
    "name": "Manor Hill Brewing",
    "brewery_type": "micro",
    "street": "4411 Manor Ln",
    "city": "Ellicott City",
    "state": "Maryland",
    "postal_code": "21042-6111",
    "website_url": "http://www.manorhillbrewing.com",
    "phone": "4109977771",
    "created_at": "2018-07-24 01:33:29.267804",
    "updated_at": "2018-08-11 21:37:36.76425",
    "country": "United States",
    "longitude": "",
    "latitude": ""
  },
  {
    "id": "3162",
    "name": "Mastiff Brewery",
    "brewery_type": "planning",
    "street": "",
    "city": "Middle River",
    "state": "Maryland",
    "postal_code": "21220-2818",
    "website_url": "",
    "phone": "3023127011",
    "created_at": "2018-07-24 01:33:29.295979",
    "updated_at": "2018-08-11 21:37:36.826916",
    "country": "United States",
    "longitude": "",
    "latitude": ""
  },
  {
    "id": "3163",
    "name": "Milkhouse Brewery at Stillpoint Farm",
    "brewery_type": "micro",
    "street": "8253 Dollyhyde Rd",
    "city": "Mount Airy",
    "state": "Maryland",
    "postal_code": "21771-9404",
    "website_url": "http://www.milkhousebrewery.com",
    "phone": "2404011517",
    "created_at": "2018-07-24 01:33:29.310944",
    "updated_at": "2018-08-11 21:37:36.859033",
    "country": "United States",
    "longitude": "",
    "latitude": ""
  },
  {
    "id": "3164",
    "name": "Mobtown Brewing Co",
    "brewery_type": "planning",
    "street": "",
    "city": "Baltimore",
    "state": "Maryland",
    "postal_code": "21224-4716",
    "website_url": "",
    "phone": "4104198312",
    "created_at": "2018-07-24 01:33:29.328377",
    "updated_at": "2018-08-11 21:37:36.888887",
    "country": "United States",
    "longitude": "",
    "latitude": ""
  },
  {
    "id": "3166",
    "name": "Monument City Brewing Co",
    "brewery_type": "micro",
    "street": "1 N Haven St Ste A",
    "city": "Baltimore",
    "state": "Maryland",
    "postal_code": "21224-1614",
    "website_url": "http://www.monumentcitybrewing.com",
    "phone": "4105993008",
    "created_at": "2018-07-24 01:33:29.356538",
    "updated_at": "2018-08-11 21:37:36.944685",
    "country": "United States",
    "longitude": "",
    "latitude": ""
  },
  {
    "id": "3167",
    "name": "Mully's Brewery",
    "brewery_type": "micro",
    "street": "141 Schooner Ln Ste 15",
    "city": "Prince Frederick",
    "state": "Maryland",
    "postal_code": "20678-3482",
    "website_url": "http://www.mullysbrewery.com",
    "phone": "4439689426",
    "created_at": "2018-07-24 01:33:29.372526",
    "updated_at": "2018-08-11 21:37:36.976008",
    "country": "United States",
    "longitude": "",
    "latitude": ""
  },
  {
    "id": "3168",
    "name": "National Brewing Company",
    "brewery_type": "contract",
    "street": "28102 Baileys Neck Rd",
    "city": "Easton",
    "state": "Maryland",
    "postal_code": "21601-8520",
    "website_url": "http://www.nationalpremiumbeer.com",
    "phone": "4103103553",
    "created_at": "2018-07-24 01:33:29.388591",
    "updated_at": "2018-08-11 21:37:37.004279",
    "country": "United States",
    "longitude": "",
    "latitude": ""
  },
  {
    "id": "3169",
    "name": "Nepenthe Homebrew & Brewery",
    "brewery_type": "planning",
    "street": "",
    "city": "Baltimore",
    "state": "Maryland",
    "postal_code": "21211-1900",
    "website_url": "http://www.nepenthehomebrew.com",
    "phone": "4434384846",
    "created_at": "2018-07-24 01:33:29.40162",
    "updated_at": "2018-08-11 21:37:37.030048",
    "country": "United States",
    "longitude": "",
    "latitude": ""
  },
  {
    "id": "3178",
    "name": "Red Shedman Farm Brewery",
    "brewery_type": "micro",
    "street": "13601 Glissans Mill Rd",
    "city": "Mount Airy",
    "state": "Maryland",
    "postal_code": "21771-8507",
    "website_url": "http://www.redshedman.com",
    "phone": "3018315889",
    "created_at": "2018-07-24 01:33:29.538433",
    "updated_at": "2018-08-11 21:37:37.312119",
    "country": "United States",
    "longitude": "",
    "latitude": ""
  },
  {
    "id": "3183",
    "name": "Ruhlman Brewery/Our Ales",
    "brewery_type": "micro",
    "street": "2300 Harvey Gummel Rd",
    "city": "Hampstead",
    "state": "Maryland",
    "postal_code": "21074-1033",
    "website_url": "",
    "phone": "",
    "created_at": "2018-07-24 01:33:29.603143",
    "updated_at": "2018-08-11 21:37:37.444763",
    "country": "United States",
    "longitude": "",
    "latitude": ""
  },
  {
    "id": "3139",
    "name": "Frisco Tap House & Push Brewery",
    "brewery_type": "brewpub",
    "street": "6695 Dobbin Rd",
    "city": "Columbia",
    "state": "Maryland",
    "postal_code": "21045-4755",
    "website_url": "http://www.friscogrille.com",
    "phone": "4103124907",
    "created_at": "2018-07-24 01:33:28.964138",
    "updated_at": "2018-08-24 00:40:32.222924",
    "country": "United States",
    "longitude": "-76.8252248",
    "latitude": "39.1860574"
  },
  {
    "id": "3148",
    "name": "Guinness Open Gate Brewery and Barrel House",
    "brewery_type": "large",
    "street": "5001 Washington Blvd",
    "city": "Halethorpe",
    "state": "Maryland",
    "postal_code": "21227-5000",
    "website_url": "",
    "phone": "9022663839",
    "created_at": "2018-07-24 01:33:29.094225",
    "updated_at": "2018-08-24 00:40:35.012541",
    "country": "United States",
    "longitude": "-76.6984386545525",
    "latitude": "39.222265"
  },
  {
    "id": "3155",
    "name": "Independent Brewing Company",
    "brewery_type": "micro",
    "street": "418 N Main St",
    "city": "Bel Air",
    "state": "Maryland",
    "postal_code": "21014-3509",
    "website_url": "",
    "phone": "4108368313",
    "created_at": "2018-07-24 01:33:29.19389",
    "updated_at": "2018-08-24 00:40:36.374012",
    "country": "United States",
    "longitude": "-76.3564778438863",
    "latitude": "39.53986125"
  },
  {
    "id": "3157",
    "name": "Johanssons Dining House",
    "brewery_type": "brewpub",
    "street": "4 W Main St",
    "city": "Westminster",
    "state": "Maryland",
    "postal_code": "21157-4816",
    "website_url": "http://www.johanssonsdininghouse.com",
    "phone": "4108760101",
    "created_at": "2018-07-24 01:33:29.224612",
    "updated_at": "2018-08-24 00:40:37.453619",
    "country": "United States",
    "longitude": "-76.9959315",
    "latitude": "39.5753896"
  },
  {
    "id": "3165",
    "name": "Monocacy Brewing Co",
    "brewery_type": "micro",
    "street": "1781 N Market St",
    "city": "Frederick",
    "state": "Maryland",
    "postal_code": "21701-4305",
    "website_url": "",
    "phone": "3016310671",
    "created_at": "2018-07-24 01:33:29.341234",
    "updated_at": "2018-08-24 00:40:39.225007",
    "country": "United States",
    "longitude": "-77.3989904",
    "latitude": "39.4403205"
  },
  {
    "id": "3170",
    "name": "Ocean City Brewing Company",
    "brewery_type": "brewpub",
    "street": "5509 Coastal Hwy",
    "city": "Ocean City",
    "state": "Maryland",
    "postal_code": "21842-3144",
    "website_url": "http://www.ocbrewingcompany.com",
    "phone": "4436646842",
    "created_at": "2018-07-24 01:33:29.414683",
    "updated_at": "2018-08-24 00:40:41.102112",
    "country": "United States",
    "longitude": "-75.0683876080806",
    "latitude": "38.3796575943299"
  },
  {
    "id": "3171",
    "name": "Olde Mother Brewing, LLC",
    "brewery_type": "micro",
    "street": "911 E Patrick St",
    "city": "Frederick",
    "state": "Maryland",
    "postal_code": "21701-3132",
    "website_url": "http://OldeMother.com",
    "phone": "3016241700",
    "created_at": "2018-07-24 01:33:29.426789",
    "updated_at": "2018-08-24 00:40:41.579998",
    "country": "United States",
    "longitude": "-77.3912138",
    "latitude": "39.40928"
  },
  {
    "id": "3172",
    "name": "Oliver Brewing Company",
    "brewery_type": "micro",
    "street": "4216 Shannon Dr",
    "city": "Baltimore",
    "state": "Maryland",
    "postal_code": "21213-2144",
    "website_url": "http://www.oliverbrewingco.com",
    "phone": "4104833302",
    "created_at": "2018-07-24 01:33:29.447977",
    "updated_at": "2018-08-24 00:40:42.045701",
    "country": "United States",
    "longitude": "-76.5531768042595",
    "latitude": "39.3149018"
  },
  {
    "id": "3173",
    "name": "Patriot Acres Farm Brewery",
    "brewery_type": "micro",
    "street": "1621 Millington Rd",
    "city": "Sudlersville",
    "state": "Maryland",
    "postal_code": "21668-1427",
    "website_url": "http://www.patriotacresfarmbrewery.com",
    "phone": "4107085424",
    "created_at": "2018-07-24 01:33:29.463363",
    "updated_at": "2018-08-24 00:40:42.502986",
    "country": "United States",
    "longitude": "-75.8673613621863",
    "latitude": "39.2222829829489"
  },
  {
    "id": "3174",
    "name": "Peabody Heights Brewery",
    "brewery_type": "micro",
    "street": "401 E 30th St",
    "city": "Baltimore",
    "state": "Maryland",
    "postal_code": "21218-3935",
    "website_url": "http://www.peabodyheightsbrewery.com",
    "phone": "4104677837",
    "created_at": "2018-07-24 01:33:29.475815",
    "updated_at": "2018-08-24 00:40:43.049695",
    "country": "United States",
    "longitude": "-76.6104150492571",
    "latitude": "39.32410525"
  },
  {
    "id": "3175",
    "name": "Pratt Street Ale House",
    "brewery_type": "brewpub",
    "street": "206 W Pratt St",
    "city": "Baltimore",
    "state": "Maryland",
    "postal_code": "21201-2426",
    "website_url": "http://www.oliverales.com",
    "phone": "4102448900",
    "created_at": "2018-07-24 01:33:29.49016",
    "updated_at": "2018-08-24 00:40:43.550315",
    "country": "United States",
    "longitude": "-76.6181543559366",
    "latitude": "39.28659055"
  },
  {
    "id": "3177",
    "name": "RAR Brewing",
    "brewery_type": "proprietor",
    "street": "504 Poplar St",
    "city": "Cambridge",
    "state": "Maryland",
    "postal_code": "21613-1834",
    "website_url": "http://www.rarbrewing.com",
    "phone": "4107257922",
    "created_at": "2018-07-24 01:33:29.525659",
    "updated_at": "2018-08-24 00:40:44.440988",
    "country": "United States",
    "longitude": "-76.0774552",
    "latitude": "38.5702289"
  },
  {
    "id": "3179",
    "name": "Rock Bottom Brewery - Bethesda",
    "brewery_type": "brewpub",
    "street": "7900 Norfolk Ave",
    "city": "Bethesda",
    "state": "Maryland",
    "postal_code": "20814-2502",
    "website_url": "http://www.rockbottom.com",
    "phone": "3016521311",
    "created_at": "2018-07-24 01:33:29.55252",
    "updated_at": "2018-08-24 00:40:45.335139",
    "country": "United States",
    "longitude": "-77.0976716",
    "latitude": "38.9890033"
  },
  {
    "id": "3181",
    "name": "Rubber Soul Brewing",
    "brewery_type": "micro",
    "street": "1930 Northwood Dr",
    "city": "Salisbury",
    "state": "Maryland",
    "postal_code": "21801-7824",
    "website_url": "http://www.rubbersoulbrewing.com",
    "phone": "4433047685",
    "created_at": "2018-07-24 01:33:29.578437",
    "updated_at": "2018-08-24 00:40:46.37091",
    "country": "United States",
    "longitude": "-75.5841880101684",
    "latitude": "38.3910967353605"
  },
  {
    "id": "3182",
    "name": "Ruddy Duck Brewery and Grill",
    "brewery_type": "brewpub",
    "street": "13200 Dowell Rd",
    "city": "Dowell",
    "state": "Maryland",
    "postal_code": "20629",
    "website_url": "http://www.ruddyduckbrewery.com",
    "phone": "4103943825",
    "created_at": "2018-07-24 01:33:29.590997",
    "updated_at": "2018-08-24 00:40:46.801651",
    "country": "United States",
    "longitude": "-76.45795",
    "latitude": "38.350501"
  },
  {
    "id": "3185",
    "name": "Scorpion Brewing",
    "brewery_type": "micro",
    "street": "929 Skinners Turn Rd, Suite 100",
    "city": "Owings",
    "state": "Maryland",
    "postal_code": "20736",
    "website_url": "http://www.scorpionbrewing.com",
    "phone": "7033072400",
    "created_at": "2018-07-24 01:33:29.627999",
    "updated_at": "2018-08-11 21:37:37.513498",
    "country": "United States",
    "longitude": "",
    "latitude": ""
  },
  {
    "id": "3186",
    "name": "Sigma Ingredients LLC",
    "brewery_type": "planning",
    "street": "",
    "city": "Salisbury",
    "state": "Maryland",
    "postal_code": "21801-6739",
    "website_url": "http://www.sigmaingredients.com",
    "phone": "4104308903",
    "created_at": "2018-07-24 01:33:29.640986",
    "updated_at": "2018-08-11 21:37:37.546188",
    "country": "United States",
    "longitude": "",
    "latitude": ""
  },
  {
    "id": "3187",
    "name": "Silver Branch Brewing Company",
    "brewery_type": "planning",
    "street": "",
    "city": "Silver Spring",
    "state": "Maryland",
    "postal_code": "20910-3487",
    "website_url": "http://www.silverbranchbrewing.com",
    "phone": "2028418646",
    "created_at": "2018-07-24 01:33:29.653408",
    "updated_at": "2018-08-11 21:37:37.576585",
    "country": "United States",
    "longitude": "",
    "latitude": ""
  },
  {
    "id": "3194",
    "name": "Tall Tales Brewing Co. LLC",
    "brewery_type": "brewpub",
    "street": "6929 Heron Grove Ct Ste 102",
    "city": "Parsonsburg",
    "state": "Maryland",
    "postal_code": "21849-2155",
    "website_url": "http://www.talltalesbrew.com",
    "phone": "4105432739",
    "created_at": "2018-07-24 01:33:29.744542",
    "updated_at": "2018-08-11 21:37:37.785216",
    "country": "United States",
    "longitude": "",
    "latitude": ""
  },
  {
    "id": "3195",
    "name": "TenEyck Brewing",
    "brewery_type": "planning",
    "street": "",
    "city": "Queenstown",
    "state": "Maryland",
    "postal_code": "21658-1386",
    "website_url": "",
    "phone": "8134777249",
    "created_at": "2018-07-24 01:33:29.759448",
    "updated_at": "2018-08-11 21:37:37.810603",
    "country": "United States",
    "longitude": "",
    "latitude": ""
  },
  {
    "id": "3199",
    "name": "Tuppers Hop Pocket Ale",
    "brewery_type": "contract",
    "street": "6404 Redwing Rd",
    "city": "Bethesda",
    "state": "Maryland",
    "postal_code": "20817-5920",
    "website_url": "http://www.tuppersbeers.com",
    "phone": "3012292027",
    "created_at": "2018-07-24 01:33:29.811655",
    "updated_at": "2018-08-11 21:37:37.923966",
    "country": "United States",
    "longitude": "",
    "latitude": ""
  },
  {
    "id": "3200",
    "name": "Tusculum Farm Enterprises, LLC",
    "brewery_type": "planning",
    "street": "",
    "city": "Laytonsville",
    "state": "Maryland",
    "postal_code": "20882-2117",
    "website_url": "http://tusculumfarm.com",
    "phone": "8337332216",
    "created_at": "2018-07-24 01:33:29.82407",
    "updated_at": "2018-08-11 21:37:37.954266",
    "country": "United States",
    "longitude": "",
    "latitude": ""
  },
  {
    "id": "3202",
    "name": "Union Craft Brewing",
    "brewery_type": "micro",
    "street": "1700 Union Ave Ste D",
    "city": "Baltimore",
    "state": "Maryland",
    "postal_code": "21211-1499",
    "website_url": "http://www.unioncraftbrewing.com",
    "phone": "4106169282",
    "created_at": "2018-07-24 01:33:29.852825",
    "updated_at": "2018-08-11 21:37:37.980294",
    "country": "United States",
    "longitude": "",
    "latitude": ""
  },
  {
    "id": "3203",
    "name": "Waredaca Brewing Company",
    "brewery_type": "micro",
    "street": "4017 Damascus Rd",
    "city": "Gaithersburg",
    "state": "Maryland",
    "postal_code": "20882-2105",
    "website_url": "http://www.waredacabrewing.com",
    "phone": "2404322255",
    "created_at": "2018-07-24 01:33:29.868748",
    "updated_at": "2018-08-11 21:37:38.022713",
    "country": "United States",
    "longitude": "",
    "latitude": ""
  },
  {
    "id": "3204",
    "name": "Waverly Brewing Company",
    "brewery_type": "micro",
    "street": "1625-C Union Ave",
    "city": "Baltimore",
    "state": "Maryland",
    "postal_code": "21211",
    "website_url": "http://www.waverlybrewingcompany.com",
    "phone": "4434385765",
    "created_at": "2018-07-24 01:33:29.882079",
    "updated_at": "2018-08-11 21:37:38.076632",
    "country": "United States",
    "longitude": "",
    "latitude": ""
  },
  {
    "id": "3205",
    "name": "White Marsh Brewing Co/Red Brick Station",
    "brewery_type": "brewpub",
    "street": "8149 Honeygo Blvd Ste A",
    "city": "Baltimore",
    "state": "Maryland",
    "postal_code": "21236-8209",
    "website_url": "http://www.redbrickstation.com",
    "phone": "4109317827",
    "created_at": "2018-07-24 01:33:29.897594",
    "updated_at": "2018-08-11 21:37:38.109928",
    "country": "United States",
    "longitude": "",
    "latitude": ""
  },
  {
    "id": "3188",
    "name": "Slate Farm Brewery",
    "brewery_type": "micro",
    "street": "2128 Whiteford Rd",
    "city": "Whiteford",
    "state": "Maryland",
    "postal_code": "21160-1402",
    "website_url": "",
    "phone": "",
    "created_at": "2018-07-24 01:33:29.665743",
    "updated_at": "2018-08-24 00:40:48.577979",
    "country": "United States",
    "longitude": "-76.3369752",
    "latitude": "39.7036891"
  },
  {
    "id": "3189",
    "name": "Smoketown Brewing Station",
    "brewery_type": "micro",
    "street": "223 W Potomac St",
    "city": "Brunswick",
    "state": "Maryland",
    "postal_code": "21716-1117",
    "website_url": "http://www.smoketownbrewing.com",
    "phone": "3018344828",
    "created_at": "2018-07-24 01:33:29.677767",
    "updated_at": "2018-08-24 00:40:49.0265",
    "country": "United States",
    "longitude": "-77.6302935",
    "latitude": "39.3136514"
  },
  {
    "id": "3191",
    "name": "Stillwater Artisanal Ales",
    "brewery_type": "contract",
    "street": "720 S Conkling St",
    "city": "Baltimore",
    "state": "Maryland",
    "postal_code": "21224-4301",
    "website_url": "",
    "phone": "4436685255",
    "created_at": "2018-07-24 01:33:29.704265",
    "updated_at": "2018-08-24 00:40:50.054821",
    "country": "United States",
    "longitude": "-76.5672643515205",
    "latitude": "39.28408355"
  },
  {
    "id": "3193",
    "name": "Suspended Brewing Co",
    "brewery_type": "micro",
    "street": "912 Washington Blvd",
    "city": "Baltimore",
    "state": "Maryland",
    "postal_code": "21230-2318",
    "website_url": "http://www.suspendedbrewing.com",
    "phone": "3016466359",
    "created_at": "2018-07-24 01:33:29.732061",
    "updated_at": "2018-08-24 00:40:51.037808",
    "country": "United States",
    "longitude": "-76.6314892106433",
    "latitude": "39.2831169"
  },
  {
    "id": "3197",
    "name": "The Federal Brewing Company",
    "brewery_type": "micro",
    "street": "102 S Main St",
    "city": "Federalsburg",
    "state": "Maryland",
    "postal_code": "21632-1215",
    "website_url": "http://www.fedbrew.com",
    "phone": "",
    "created_at": "2018-07-24 01:33:29.785459",
    "updated_at": "2018-08-24 00:40:52.539601",
    "country": "United States",
    "longitude": "-75.77333325",
    "latitude": "38.693604875"
  },
  {
    "id": "3198",
    "name": "True Respite Brewing Company",
    "brewery_type": "micro",
    "street": "7301 Calhoun Pl Ste 600",
    "city": "Derwood",
    "state": "Maryland",
    "postal_code": "20855-2740",
    "website_url": "http://www.truerespite.com",
    "phone": "3012848447",
    "created_at": "2018-07-24 01:33:29.798203",
    "updated_at": "2018-08-24 00:40:52.986648",
    "country": "United States",
    "longitude": "-77.152035",
    "latitude": "39.108112"
  },
  {
    "id": "3092",
    "name": "Antietam Brewery,LLC",
    "brewery_type": "micro",
    "street": "140 Western Maryland Pkwy Unit G",
    "city": "Hagerstown",
    "state": "Maryland",
    "postal_code": "21740-5197",
    "website_url": "http://www.antietambrewery.com",
    "phone": "3017915915",
    "created_at": "2018-07-24 01:33:28.287924",
    "updated_at": "2018-08-11 21:37:34.664753",
    "country": "United States",
    "longitude": "",
    "latitude": ""
  },
  {
    "id": "3115",
    "name": "Calvert Brewing Co",
    "brewery_type": "micro",
    "street": "150 Adelina Rd",
    "city": "Prince Frederick",
    "state": "Maryland",
    "postal_code": "20678-3709",
    "website_url": "http://www.calvertbrewingcompany.com",
    "phone": "4104148486",
    "created_at": "2018-07-24 01:33:28.616573",
    "updated_at": "2018-08-11 21:37:35.405277",
    "country": "United States",
    "longitude": "",
    "latitude": ""
  },
  {
    "id": "3140",
    "name": "Full Tilt Brewing",
    "brewery_type": "contract",
    "street": "5604 York Road",
    "city": "Baltimore",
    "state": "Maryland",
    "postal_code": "21212",
    "website_url": "http://www.fulltiltbrewing.com",
    "phone": "",
    "created_at": "2018-07-24 01:33:28.982224",
    "updated_at": "2018-08-11 21:37:36.152674",
    "country": "United States",
    "longitude": "",
    "latitude": ""
  },
  {
    "id": "3141",
    "name": "Gordon Biersch Brewery Restaurant - Annapolis",
    "brewery_type": "brewpub",
    "street": "1906 Towne Centre Blvd Ste 155",
    "city": "Annapolis",
    "state": "Maryland",
    "postal_code": "21401-3681",
    "website_url": "http://www.craftworksrestaurants.com",
    "phone": "4102665965",
    "created_at": "2018-07-24 01:33:28.997112",
    "updated_at": "2018-08-11 21:37:36.181514",
    "country": "United States",
    "longitude": "",
    "latitude": ""
  },
  {
    "id": "3180",
    "name": "Rockwell Brewery",
    "brewery_type": "micro",
    "street": "880 N East St Unit 201",
    "city": "Frederick",
    "state": "Maryland",
    "postal_code": "21701-5045",
    "website_url": "http://www.rockwellbrewery.com",
    "phone": "3017324880",
    "created_at": "2018-07-24 01:33:29.565967",
    "updated_at": "2018-08-11 21:37:37.364283",
    "country": "United States",
    "longitude": "",
    "latitude": ""
  },
  {
    "id": "3161",
    "name": "Market Street Public House",
    "brewery_type": "brewpub",
    "street": "200 Market St",
    "city": "Denton",
    "state": "Maryland",
    "postal_code": "21629-1037",
    "website_url": "http://www.marketstreet.pub",
    "phone": "4104794720",
    "created_at": "2018-07-24 01:33:29.28339",
    "updated_at": "2018-08-24 00:40:38.324968",
    "country": "United States",
    "longitude": "-75.831804",
    "latitude": "38.886037"
  },
  {
    "id": "3190",
    "name": "Steinhardt Brewing Company",
    "brewery_type": "micro",
    "street": "5710 Jefferson Blvd",
    "city": "Frederick",
    "state": "Maryland",
    "postal_code": "21703-6947",
    "website_url": "http://www.steinhardtbrewing.com",
    "phone": "",
    "created_at": "2018-07-24 01:33:29.690666",
    "updated_at": "2018-08-24 00:40:49.588618",
    "country": "United States",
    "longitude": "-77.512519",
    "latitude": "39.391045"
  },
  {
    "id": "3192",
    "name": "Streetcar 82 Brewing Co.",
    "brewery_type": "micro",
    "street": "4824 Rhode Island Ave",
    "city": "Hyattsville",
    "state": "Maryland",
    "postal_code": "20781-2034",
    "website_url": "http://www.streetcar82brewing.com",
    "phone": "2407820152",
    "created_at": "2018-07-24 01:33:29.717725",
    "updated_at": "2018-08-24 00:40:50.528089",
    "country": "United States",
    "longitude": "-76.9430028",
    "latitude": "38.9493263"
  }
]