[
  {
    "id": "3229",
    "name": "Berkshire Brewing Co Inc",
    "brewery_type": "regional",
    "street": "12 Railroad St",
    "city": "South Deerfield",
    "state": "Massachusetts",
    "postal_code": "01373-0096",
    "website_url": "http://www.Berkshire-Brewing.com",
    "phone": "4136656600",
    "created_at": "2018-07-24 01:33:30.25886",
    "updated_at": "2018-08-24 00:41:03.580098",
    "country": "United States",
    "longitude": "-72.6102508608935",
    "latitude": "42.4777979726281"
  },
  {
    "id": "3230",
    "name": "Big Elm Brewing",
    "brewery_type": "micro",
    "street": "65 Silver St",
    "city": "Sheffield",
    "state": "Massachusetts",
    "postal_code": "01257",
    "website_url": "http://www.bigelmbrewery.com",
    "phone": "4132292348",
    "created_at": "2018-07-24 01:33:30.272528",
    "updated_at": "2018-08-24 00:41:04.144706",
    "country": "United States",
    "longitude": "-73.351236",
    "latitude": "42.093595"
  },
  {
    "id": "3252",
    "name": "Brewmasters Tavern / Brewmasters Brewing Services",
    "brewery_type": "micro",
    "street": "4 Main St",
    "city": "Williamsburg",
    "state": "Massachusetts",
    "postal_code": "01096-9428",
    "website_url": "",
    "phone": "4132682199",
    "created_at": "2018-07-24 01:33:30.561154",
    "updated_at": "2018-08-24 00:41:09.225066",
    "country": "United States",
    "longitude": "-72.7305059",
    "latitude": "42.3923659"
  },
  {
    "id": "3271",
    "name": "Deadwood Brewery / Boston Bowl",
    "brewery_type": "brewpub",
    "street": "820 William T Morrissey Blvd",
    "city": "Boston",
    "state": "Massachusetts",
    "postal_code": "02122-3404",
    "website_url": "http://www.deadwoodbrewery.com",
    "phone": "6177401440",
    "created_at": "2018-07-24 01:33:30.852745",
    "updated_at": "2018-08-24 00:41:15.440932",
    "country": "United States",
    "longitude": "-71.047997482376",
    "latitude": "42.2948560502166"
  },
  {
    "id": "3279",
    "name": "Entitled Beer Company",
    "brewery_type": "proprietor",
    "street": "21 North St",
    "city": "Hingham",
    "state": "Massachusetts",
    "postal_code": "02043-",
    "website_url": "http://www.entitledbrewing.com",
    "phone": "7817401035",
    "created_at": "2018-07-24 01:33:30.964934",
    "updated_at": "2018-08-24 00:41:18.710141",
    "country": "United States",
    "longitude": "-70.8861847258737",
    "latitude": "42.2436072296139"
  },
  {
    "id": "3280",
    "name": "Exhibit 'A' Brewing Co.",
    "brewery_type": "micro",
    "street": "81 Morton St",
    "city": "Framingham",
    "state": "Massachusetts",
    "postal_code": "01702-7153",
    "website_url": "http://www.exhibit-A-brewing.com",
    "phone": "",
    "created_at": "2018-07-24 01:33:30.979893",
    "updated_at": "2018-08-24 00:41:19.161385",
    "country": "United States",
    "longitude": "-71.4018708794239",
    "latitude": "42.27880435"
  },
  {
    "id": "3301",
    "name": "John Harvards Brew House - Framingham",
    "brewery_type": "brewpub",
    "street": "1 Worcester Rd",
    "city": "Framingham",
    "state": "Massachusetts",
    "postal_code": "01701-5359",
    "website_url": "http://www.johnharvards.com",
    "phone": "5088752337",
    "created_at": "2018-07-24 01:33:31.266792",
    "updated_at": "2018-08-24 00:41:27.695368",
    "country": "United States",
    "longitude": "-71.3961924451932",
    "latitude": "42.30411485"
  },
  {
    "id": "3320",
    "name": "Navigation Brewing Co",
    "brewery_type": "micro",
    "street": "122 Western Ave",
    "city": "Lowell",
    "state": "Massachusetts",
    "postal_code": "01851-1433",
    "website_url": "http://www.navigationbrewing.com",
    "phone": "",
    "created_at": "2018-07-24 01:33:31.534149",
    "updated_at": "2018-08-24 00:41:34.456003",
    "country": "United States",
    "longitude": "-71.3246481212121",
    "latitude": "42.640349969697"
  },
  {
    "id": "3327",
    "name": "Oak & Iron Brewing Co",
    "brewery_type": "brewpub",
    "street": "18 Red Spring Rd",
    "city": "Andover",
    "state": "Massachusetts",
    "postal_code": "01810-3448",
    "website_url": "http://www.oakandironbrewing.com",
    "phone": "9784754077",
    "created_at": "2018-07-24 01:33:31.622953",
    "updated_at": "2018-08-24 00:41:37.236512",
    "country": "United States",
    "longitude": "-71.1478857877187",
    "latitude": "42.656149077407"
  },
  {
    "id": "3336",
    "name": "Percival Brewing Company",
    "brewery_type": "micro",
    "street": "83 Morse St",
    "city": "Norwood",
    "state": "Massachusetts",
    "postal_code": "02122",
    "website_url": "http://www.percivalbeercompany.com",
    "phone": "7816644705",
    "created_at": "2018-07-24 01:33:31.735845",
    "updated_at": "2018-08-24 00:41:40.339979",
    "country": "United States",
    "longitude": "-71.2072322984867",
    "latitude": "42.1722630460252"
  },
  {
    "id": "3354",
    "name": "Slesar Bros Brewing Co - Boston Beer Works",
    "brewery_type": "brewpub",
    "street": "112 Canal St",
    "city": "Boston",
    "state": "Massachusetts",
    "postal_code": "02114-1805",
    "website_url": "http://www.beerworks.net",
    "phone": "6178962337",
    "created_at": "2018-07-24 01:33:31.966141",
    "updated_at": "2018-08-24 00:41:47.343583",
    "country": "United States",
    "longitude": "-71.0603412",
    "latitude": "42.364473"
  },
  {
    "id": "3375",
    "name": "Wachusett Brewing Co",
    "brewery_type": "regional",
    "street": "175 State Rd E",
    "city": "Westminster",
    "state": "Massachusetts",
    "postal_code": "01473-1208",
    "website_url": "http://www.wachusettbrew.com",
    "phone": "9788749965",
    "created_at": "2018-07-24 01:33:32.268252",
    "updated_at": "2018-08-24 00:41:55.642676",
    "country": "United States",
    "longitude": "-71.872940157432",
    "latitude": "42.557835421284"
  },
  {
    "id": "3376",
    "name": "Wandering Star Brewing Co",
    "brewery_type": "micro",
    "street": "11 Gifford St",
    "city": "Pittsfield",
    "state": "Massachusetts",
    "postal_code": "01201-3701",
    "website_url": "http://www.wanderingstarbrewing.com",
    "phone": "9175733942",
    "created_at": "2018-07-24 01:33:32.280079",
    "updated_at": "2018-08-24 00:41:56.112804",
    "country": "United States",
    "longitude": "-73.2120230280269",
    "latitude": "42.4570644889269"
  },
  {
    "id": "3374",
    "name": "Vitamin Sea Brewing",
    "brewery_type": "planning",
    "street": "",
    "city": "Hull",
    "state": "Massachusetts",
    "postal_code": "02045-2907",
    "website_url": "",
    "phone": "7815894569",
    "created_at": "2018-07-24 01:33:32.256322",
    "updated_at": "2018-08-11 21:37:44.301716",
    "country": "United States",
    "longitude": "",
    "latitude": ""
  },
  {
    "id": "3209",
    "name": "7th Wave Brewing",
    "brewery_type": "micro",
    "street": "120 N Meadows Rd Ste 8",
    "city": "Medfield",
    "state": "Massachusetts",
    "postal_code": "02052-1594",
    "website_url": "http://www.7thwavebrewing.com",
    "phone": "6176453397",
    "created_at": "2018-07-24 01:33:29.970514",
    "updated_at": "2018-08-11 21:37:38.232649",
    "country": "United States",
    "longitude": "",
    "latitude": ""
  },
  {
    "id": "3212",
    "name": "Altruist Brewing Company",
    "brewery_type": "brewpub",
    "street": "559 Main St Unit 105",
    "city": "Sturbridge",
    "state": "Massachusetts",
    "postal_code": "01518-1208",
    "website_url": "http://www.altruistbrewing.com",
    "phone": "7742418022",
    "created_at": "2018-07-24 01:33:30.037413",
    "updated_at": "2018-08-11 21:37:38.319867",
    "country": "United States",
    "longitude": "",
    "latitude": ""
  },
  {
    "id": "3215",
    "name": "Anawan Brewing Company",
    "brewery_type": "planning",
    "street": "",
    "city": "Dighton",
    "state": "Massachusetts",
    "postal_code": "02764",
    "website_url": "http://www.anawanbrewingco.com",
    "phone": "7742296300",
    "created_at": "2018-07-24 01:33:30.075858",
    "updated_at": "2018-08-11 21:37:38.401993",
    "country": "United States",
    "longitude": "",
    "latitude": ""
  },
  {
    "id": "3216",
    "name": "Aquatic Brewing LLC",
    "brewery_type": "planning",
    "street": "",
    "city": "Falmouth",
    "state": "Massachusetts",
    "postal_code": "02540-3299",
    "website_url": "http://www.aquaticbrewing.com",
    "phone": "5084442155",
    "created_at": "2018-07-24 01:33:30.088394",
    "updated_at": "2018-08-11 21:37:38.43247",
    "country": "United States",
    "longitude": "",
    "latitude": ""
  },
  {
    "id": "3217",
    "name": "Arcpoint Brewing Co",
    "brewery_type": "micro",
    "street": "",
    "city": "Belchertown",
    "state": "Massachusetts",
    "postal_code": "01007-9305",
    "website_url": "http://www.arcpointbrewco.com",
    "phone": "5187964977",
    "created_at": "2018-07-24 01:33:30.102671",
    "updated_at": "2018-08-11 21:37:38.45953",
    "country": "United States",
    "longitude": "",
    "latitude": ""
  },
  {
    "id": "3218",
    "name": "Backlash Beer Co",
    "brewery_type": "contract",
    "street": "",
    "city": "Boston",
    "state": "Massachusetts",
    "postal_code": "2215",
    "website_url": "http://backlashbeer.com/",
    "phone": "",
    "created_at": "2018-07-24 01:33:30.116609",
    "updated_at": "2018-08-11 21:37:38.486156",
    "country": "United States",
    "longitude": "",
    "latitude": ""
  },
  {
    "id": "3222",
    "name": "Barrel House Z",
    "brewery_type": "micro",
    "street": "95 Woodrock Rd",
    "city": "Weymouth",
    "state": "Massachusetts",
    "postal_code": "02189-2335",
    "website_url": "http://www.barrelhousez.net",
    "phone": "3392017888",
    "created_at": "2018-07-24 01:33:30.1687",
    "updated_at": "2018-08-11 21:37:38.601035",
    "country": "United States",
    "longitude": "",
    "latitude": ""
  },
  {
    "id": "3225",
    "name": "Bay State Beer Company",
    "brewery_type": "micro",
    "street": "",
    "city": "Sturbridge",
    "state": "Massachusetts",
    "postal_code": "01566-1568",
    "website_url": "http://www.baystatebeer.com",
    "phone": "6174130939",
    "created_at": "2018-07-24 01:33:30.209263",
    "updated_at": "2018-08-11 21:37:38.686659",
    "country": "United States",
    "longitude": "",
    "latitude": ""
  },
  {
    "id": "3226",
    "name": "Bear and Bramble Brewing Company",
    "brewery_type": "micro",
    "street": "10 Payson Ave # 1",
    "city": "Easthampton",
    "state": "Massachusetts",
    "postal_code": "01027-2207",
    "website_url": "",
    "phone": "",
    "created_at": "2018-07-24 01:33:30.221394",
    "updated_at": "2018-08-11 21:37:38.716261",
    "country": "United States",
    "longitude": "",
    "latitude": ""
  },
  {
    "id": "3227",
    "name": "Bent Water Brewing Company",
    "brewery_type": "micro",
    "street": "180 Commercial St Ste 18",
    "city": "Lynn",
    "state": "Massachusetts",
    "postal_code": "01905-3058",
    "website_url": "http://www.bentwaterbrewing.com",
    "phone": "",
    "created_at": "2018-07-24 01:33:30.233994",
    "updated_at": "2018-08-11 21:37:38.744335",
    "country": "United States",
    "longitude": "",
    "latitude": ""
  },
  {
    "id": "3228",
    "name": "Berkley Beer Company",
    "brewery_type": "micro",
    "street": "",
    "city": "Berkley",
    "state": "Massachusetts",
    "postal_code": "02779-1101",
    "website_url": "http://www.berkleybeer.com",
    "phone": "5083269954",
    "created_at": "2018-07-24 01:33:30.246262",
    "updated_at": "2018-08-11 21:37:38.771821",
    "country": "United States",
    "longitude": "",
    "latitude": ""
  },
  {
    "id": "3206",
    "name": "10th District Brewing Company",
    "brewery_type": "micro",
    "street": "491 Washington St",
    "city": "Abington",
    "state": "Massachusetts",
    "postal_code": "02351-2419",
    "website_url": "http://www.10thdistrictbrewing.com",
    "phone": "7813071554",
    "created_at": "2018-07-24 01:33:29.932861",
    "updated_at": "2018-08-24 00:40:55.685575",
    "country": "United States",
    "longitude": "-70.9459414892185",
    "latitude": "42.1059175414395"
  },
  {
    "id": "3207",
    "name": "3 Beards Beer Company",
    "brewery_type": "contract",
    "street": "4 Main St",
    "city": "Williamsburg",
    "state": "Massachusetts",
    "postal_code": "01096",
    "website_url": "http://www.3beardsbeer.com",
    "phone": "6173837039",
    "created_at": "2018-07-24 01:33:29.944674",
    "updated_at": "2018-08-24 00:40:56.152198",
    "country": "United States",
    "longitude": "-72.7305059",
    "latitude": "42.3923659"
  },
  {
    "id": "3208",
    "name": "3cross Fermentation Cooperative",
    "brewery_type": "micro",
    "street": "4 Knowlton Ave",
    "city": "Worcester",
    "state": "Massachusetts",
    "postal_code": "01603",
    "website_url": "http://www.3cross.coop",
    "phone": "5086158195",
    "created_at": "2018-07-24 01:33:29.957597",
    "updated_at": "2018-08-24 00:40:56.595037",
    "country": "United States",
    "longitude": "-71.8305759340224",
    "latitude": "42.2436487455576"
  },
  {
    "id": "3211",
    "name": "Aeronaut Brewing Company",
    "brewery_type": "micro",
    "street": "14 Tyler St",
    "city": "Somerville",
    "state": "Massachusetts",
    "postal_code": "02143-3224",
    "website_url": "http://www.aeronautbrewing.com",
    "phone": "6179874236",
    "created_at": "2018-07-24 01:33:29.995322",
    "updated_at": "2018-08-24 00:40:57.942731",
    "country": "United States",
    "longitude": "-71.1062676",
    "latitude": "42.3819723"
  },
  {
    "id": "3213",
    "name": "Amherst Brewing Co / Hangar Pub and Grill",
    "brewery_type": "brewpub",
    "street": "10 University Dr",
    "city": "Amherst",
    "state": "Massachusetts",
    "postal_code": "01002-2243",
    "website_url": "http://www.amherstbrewing.com",
    "phone": "4132534400",
    "created_at": "2018-07-24 01:33:30.049963",
    "updated_at": "2018-08-24 00:40:58.846335",
    "country": "United States",
    "longitude": "-72.5318418",
    "latitude": "42.3728635"
  },
  {
    "id": "3214",
    "name": "Amorys Tomb Brewing Co",
    "brewery_type": "micro",
    "street": "76 Main St",
    "city": "Maynard",
    "state": "Massachusetts",
    "postal_code": "01754-2516",
    "website_url": "http://amorystomb.com",
    "phone": "9782430875",
    "created_at": "2018-07-24 01:33:30.063307",
    "updated_at": "2018-08-24 00:40:59.326948",
    "country": "United States",
    "longitude": "-71.4531564394476",
    "latitude": "42.43203845"
  },
  {
    "id": "3219",
    "name": "Bad Martha Farmer's Brewery",
    "brewery_type": "brewpub",
    "street": "270 Upper Main St",
    "city": "Edgartown",
    "state": "Massachusetts",
    "postal_code": "02539-",
    "website_url": "http://www.badmarthabeer.com",
    "phone": "5089394415",
    "created_at": "2018-07-24 01:33:30.129902",
    "updated_at": "2018-08-24 00:40:59.760978",
    "country": "United States",
    "longitude": "-70.52732",
    "latitude": "41.394402"
  },
  {
    "id": "3220",
    "name": "BareWolf Brewing",
    "brewery_type": "micro",
    "street": "12 Oakland St",
    "city": "Amesbury",
    "state": "Massachusetts",
    "postal_code": "01913",
    "website_url": "http://www.barewolfbrewing.com",
    "phone": "9783906540",
    "created_at": "2018-07-24 01:33:30.142799",
    "updated_at": "2018-08-24 00:41:00.813237",
    "country": "United States",
    "longitude": "-70.9233651776547",
    "latitude": "42.856069285464"
  },
  {
    "id": "3221",
    "name": "Barnstable Brewing",
    "brewery_type": "micro",
    "street": "485 W Main St",
    "city": "Hyannis",
    "state": "Massachusetts",
    "postal_code": "02601-3644",
    "website_url": "http://www.barnstablebrewing.com",
    "phone": "7744706989",
    "created_at": "2018-07-24 01:33:30.155448",
    "updated_at": "2018-08-24 00:41:01.290465",
    "country": "United States",
    "longitude": "-70.311595943756",
    "latitude": "41.6491351739202"
  },
  {
    "id": "3224",
    "name": "Battle Road Brewing Co",
    "brewery_type": "micro",
    "street": "5 Clock Tower Pl",
    "city": "Maynard",
    "state": "Massachusetts",
    "postal_code": "01754-2530",
    "website_url": "http://www.battleroadbh.com",
    "phone": "9782985229",
    "created_at": "2018-07-24 01:33:30.195308",
    "updated_at": "2018-08-24 00:41:02.245222",
    "country": "United States",
    "longitude": "-71.4541611252225",
    "latitude": "42.43001225"
  },
  {
    "id": "3231",
    "name": "Black Hat Brew Works",
    "brewery_type": "micro",
    "street": "25 Scotland Blvd # 1",
    "city": "Bridgewater",
    "state": "Massachusetts",
    "postal_code": "02324-2302",
    "website_url": "http://www.blackhatbrewworks.com",
    "phone": "5088075172",
    "created_at": "2018-07-24 01:33:30.286704",
    "updated_at": "2018-08-11 21:37:38.855572",
    "country": "United States",
    "longitude": "",
    "latitude": ""
  },
  {
    "id": "3235",
    "name": "Boston Beer Co",
    "brewery_type": "micro",
    "street": "1 Design Center Pl Ste 850",
    "city": "Boston",
    "state": "Massachusetts",
    "postal_code": "02210-2300",
    "website_url": "",
    "phone": "6173685000",
    "created_at": "2018-07-24 01:33:30.335772",
    "updated_at": "2018-08-11 21:37:38.969329",
    "country": "United States",
    "longitude": "",
    "latitude": ""
  },
  {
    "id": "3237",
    "name": "Brazo Fuerte Artisanal Beer",
    "brewery_type": "proprietor",
    "street": "15 Main St Ste 125",
    "city": "Watertown",
    "state": "Massachusetts",
    "postal_code": "02472-4403",
    "website_url": "http://www.brazofuertebeer.com",
    "phone": "6176008140",
    "created_at": "2018-07-24 01:33:30.36337",
    "updated_at": "2018-08-11 21:37:39.029349",
    "country": "United States",
    "longitude": "",
    "latitude": ""
  },
  {
    "id": "3238",
    "name": "Brew Practitioners, LLC.",
    "brewery_type": "micro",
    "street": "36 Main St",
    "city": "Florence",
    "state": "Massachusetts",
    "postal_code": "01062-3152",
    "website_url": "http://www.brewpractitioners.com",
    "phone": "4135842444",
    "created_at": "2018-07-24 01:33:30.375089",
    "updated_at": "2018-08-11 21:37:39.053973",
    "country": "United States",
    "longitude": "",
    "latitude": ""
  },
  {
    "id": "3239",
    "name": "Brewery In Planning - Bolton",
    "brewery_type": "planning",
    "street": "",
    "city": "Bolton",
    "state": "Massachusetts",
    "postal_code": "01740-1027",
    "website_url": "http://sites.google.com/site/greenroadbrewing/",
    "phone": "9788955931",
    "created_at": "2018-07-24 01:33:30.38811",
    "updated_at": "2018-08-11 21:37:39.106674",
    "country": "United States",
    "longitude": "",
    "latitude": ""
  },
  {
    "id": "3240",
    "name": "Brewery in Planning - Brookline",
    "brewery_type": "planning",
    "street": "",
    "city": "Brookline",
    "state": "Massachusetts",
    "postal_code": "02446-2209",
    "website_url": "",
    "phone": "",
    "created_at": "2018-07-24 01:33:30.400121",
    "updated_at": "2018-08-11 21:37:39.149519",
    "country": "United States",
    "longitude": "",
    "latitude": ""
  },
  {
    "id": "3242",
    "name": "Brewery in Planning - Ipswich",
    "brewery_type": "planning",
    "street": "",
    "city": "Ipswich",
    "state": "Massachusetts",
    "postal_code": "01938-1074",
    "website_url": "",
    "phone": "",
    "created_at": "2018-07-24 01:33:30.42697",
    "updated_at": "2018-08-11 21:37:39.222531",
    "country": "United States",
    "longitude": "",
    "latitude": ""
  },
  {
    "id": "3243",
    "name": "Brewery in Planning - Ludlow",
    "brewery_type": "planning",
    "street": "",
    "city": "Ludlow",
    "state": "Massachusetts",
    "postal_code": "01056-3517",
    "website_url": "",
    "phone": "",
    "created_at": "2018-07-24 01:33:30.439853",
    "updated_at": "2018-08-11 21:37:39.282539",
    "country": "United States",
    "longitude": "",
    "latitude": ""
  },
  {
    "id": "3244",
    "name": "Brewery in Planning - Mashpee",
    "brewery_type": "planning",
    "street": "",
    "city": "Mashpee",
    "state": "Massachusetts",
    "postal_code": "02649-2248",
    "website_url": "http://www.karmawheelbrewing.com",
    "phone": "5082749278",
    "created_at": "2018-07-24 01:33:30.453333",
    "updated_at": "2018-08-11 21:37:39.314253",
    "country": "United States",
    "longitude": "",
    "latitude": ""
  },
  {
    "id": "3245",
    "name": "Brewery In Planning - Petersham",
    "brewery_type": "planning",
    "street": "",
    "city": "New Salem",
    "state": "Massachusetts",
    "postal_code": "01355",
    "website_url": "",
    "phone": "",
    "created_at": "2018-07-24 01:33:30.467175",
    "updated_at": "2018-08-11 21:37:39.345449",
    "country": "United States",
    "longitude": "",
    "latitude": ""
  },
  {
    "id": "3246",
    "name": "Brewery In Planning - Stockbridge",
    "brewery_type": "planning",
    "street": "",
    "city": "Stockbridge",
    "state": "Massachusetts",
    "postal_code": "01262-1202",
    "website_url": "",
    "phone": "",
    "created_at": "2018-07-24 01:33:30.483603",
    "updated_at": "2018-08-11 21:37:39.374023",
    "country": "United States",
    "longitude": "",
    "latitude": ""
  },
  {
    "id": "3248",
    "name": "Brewery in Planning - Winchester, MA",
    "brewery_type": "planning",
    "street": "",
    "city": "Winchester",
    "state": "Massachusetts",
    "postal_code": "01890",
    "website_url": "",
    "phone": "6174381338",
    "created_at": "2018-07-24 01:33:30.511168",
    "updated_at": "2018-08-11 21:37:39.451284",
    "country": "United States",
    "longitude": "",
    "latitude": ""
  },
  {
    "id": "3249",
    "name": "Brewery In Planning- South Hadley, MA.",
    "brewery_type": "planning",
    "street": "",
    "city": "Chicopee",
    "state": "Massachusetts",
    "postal_code": "01020-2216",
    "website_url": "http://www.leadfootbrewing.com",
    "phone": "4132460741",
    "created_at": "2018-07-24 01:33:30.524413",
    "updated_at": "2018-08-11 21:37:39.485494",
    "country": "United States",
    "longitude": "",
    "latitude": ""
  },
  {
    "id": "3253",
    "name": "Brick and Feather Brewery",
    "brewery_type": "micro",
    "street": "78 11th St",
    "city": "Turners Falls",
    "state": "Massachusetts",
    "postal_code": "01376-1020",
    "website_url": "http://www.brickandfeatherbrewery.com",
    "phone": "4138632574",
    "created_at": "2018-07-24 01:33:30.572898",
    "updated_at": "2018-08-11 21:37:39.599656",
    "country": "United States",
    "longitude": "",
    "latitude": ""
  },
  {
    "id": "3254",
    "name": "Bright Ideas Brewing",
    "brewery_type": "micro",
    "street": "111 Mass Moca Way",
    "city": "North Adams",
    "state": "Massachusetts",
    "postal_code": "01247-2411",
    "website_url": "http://www.brightideasbrewing.com",
    "phone": "4133464460",
    "created_at": "2018-07-24 01:33:30.586059",
    "updated_at": "2018-08-11 21:37:39.631716",
    "country": "United States",
    "longitude": "",
    "latitude": ""
  },
  {
    "id": "3255",
    "name": "Building 8 Brewing",
    "brewery_type": "micro",
    "street": "320 Riverside Dr Ste 8",
    "city": "Florence",
    "state": "Massachusetts",
    "postal_code": "01062-2750",
    "website_url": "",
    "phone": "4132501602",
    "created_at": "2018-07-24 01:33:30.623652",
    "updated_at": "2018-08-11 21:37:39.662574",
    "country": "United States",
    "longitude": "",
    "latitude": ""
  },
  {
    "id": "3256",
    "name": "Burke's Alewerks",
    "brewery_type": "micro",
    "street": "200 Webster St Ste 3",
    "city": "Hanover",
    "state": "Massachusetts",
    "postal_code": "02339-1230",
    "website_url": "http://www.burkesalewerks.com",
    "phone": "7813128207",
    "created_at": "2018-07-24 01:33:30.642083",
    "updated_at": "2018-08-11 21:37:39.702025",
    "country": "United States",
    "longitude": "",
    "latitude": ""
  },
  {
    "id": "3260",
    "name": "Cape Ann Lanes",
    "brewery_type": "planning",
    "street": "",
    "city": "Gloucester",
    "state": "Massachusetts",
    "postal_code": "01930-2256",
    "website_url": "",
    "phone": "9788799714",
    "created_at": "2018-07-24 01:33:30.696158",
    "updated_at": "2018-08-11 21:37:39.833808",
    "country": "United States",
    "longitude": "",
    "latitude": ""
  },
  {
    "id": "3261",
    "name": "Cape Cod Beer",
    "brewery_type": "micro",
    "street": "1336 Phinneys Ln Ste 2-2",
    "city": "Hyannis",
    "state": "Massachusetts",
    "postal_code": "02601-1875",
    "website_url": "http://www.capecodbeer.com",
    "phone": "5087904200",
    "created_at": "2018-07-24 01:33:30.70887",
    "updated_at": "2018-08-11 21:37:39.887927",
    "country": "United States",
    "longitude": "",
    "latitude": ""
  },
  {
    "id": "3263",
    "name": "Cedar Point Brewery",
    "brewery_type": "planning",
    "street": "",
    "city": "Scituate",
    "state": "Massachusetts",
    "postal_code": "02066-1317",
    "website_url": "",
    "phone": "7818311724",
    "created_at": "2018-07-24 01:33:30.733379",
    "updated_at": "2018-08-11 21:37:39.971459",
    "country": "United States",
    "longitude": "",
    "latitude": ""
  },
  {
    "id": "3264",
    "name": "Charlton Beer Company",
    "brewery_type": "micro",
    "street": "",
    "city": "Charlton",
    "state": "Massachusetts",
    "postal_code": "01507",
    "website_url": "http://www.charltonbeercompany.com",
    "phone": "5082485627",
    "created_at": "2018-07-24 01:33:30.745496",
    "updated_at": "2018-08-11 21:37:39.997874",
    "country": "United States",
    "longitude": "",
    "latitude": ""
  },
  {
    "id": "3268",
    "name": "Cold Harbor Brewing Company",
    "brewery_type": "micro",
    "street": "108 Milk St Ste 6",
    "city": "Westborough",
    "state": "Massachusetts",
    "postal_code": "01581-1228",
    "website_url": "http://www.coldharborbrewing.com",
    "phone": "",
    "created_at": "2018-07-24 01:33:30.81183",
    "updated_at": "2018-08-11 21:37:40.519809",
    "country": "United States",
    "longitude": "",
    "latitude": ""
  },
  {
    "id": "3269",
    "name": "CraftRoots Brewing, LLC.",
    "brewery_type": "micro",
    "street": "4 Industrial Rd Ste 8",
    "city": "Milford",
    "state": "Massachusetts",
    "postal_code": "01757-3589",
    "website_url": "http://www.craftrootsbrewing.com",
    "phone": "5083811920",
    "created_at": "2018-07-24 01:33:30.827613",
    "updated_at": "2018-08-11 21:37:40.566544",
    "country": "United States",
    "longitude": "",
    "latitude": ""
  },
  {
    "id": "3270",
    "name": "Crue Brew Brewery",
    "brewery_type": "micro",
    "street": "95 Ryan Dr Ste 6",
    "city": "Raynham",
    "state": "Massachusetts",
    "postal_code": "02767-1992",
    "website_url": "http://www.cruebrewbrewery.com",
    "phone": "5082726090",
    "created_at": "2018-07-24 01:33:30.840266",
    "updated_at": "2018-08-11 21:37:40.614751",
    "country": "United States",
    "longitude": "",
    "latitude": ""
  },
  {
    "id": "3274",
    "name": "Distraction Brewing Company",
    "brewery_type": "planning",
    "street": "",
    "city": "Roslindale",
    "state": "Massachusetts",
    "postal_code": "02131-3006",
    "website_url": "http://www.distractionbrewingco.com",
    "phone": "",
    "created_at": "2018-07-24 01:33:30.89915",
    "updated_at": "2018-08-11 21:37:40.800119",
    "country": "United States",
    "longitude": "",
    "latitude": ""
  },
  {
    "id": "3232",
    "name": "Bog Iron Brewing Co",
    "brewery_type": "micro",
    "street": "33 W Main St",
    "city": "Norton",
    "state": "Massachusetts",
    "postal_code": "02766-2711",
    "website_url": "",
    "phone": "5089520555",
    "created_at": "2018-07-24 01:33:30.298772",
    "updated_at": "2018-08-24 00:41:05.26829",
    "country": "United States",
    "longitude": "-71.1884994212408",
    "latitude": "41.9665846823839"
  },
  {
    "id": "3233",
    "name": "Bolton Beer Works",
    "brewery_type": "brewpub",
    "street": "100 Wattaquadock Hill Rd",
    "city": "Bolton",
    "state": "Massachusetts",
    "postal_code": "01740-1238",
    "website_url": "http://boltonbeerworks.com",
    "phone": "9787795521",
    "created_at": "2018-07-24 01:33:30.31106",
    "updated_at": "2018-08-24 00:41:05.734116",
    "country": "United States",
    "longitude": "-71.619812",
    "latitude": "42.430173"
  },
  {
    "id": "3234",
    "name": "Bone Up Brewing Co.",
    "brewery_type": "micro",
    "street": "38 Norman St",
    "city": "Everett",
    "state": "Massachusetts",
    "postal_code": "02149-1932",
    "website_url": "http://www.boneup.beer",
    "phone": "7816919092",
    "created_at": "2018-07-24 01:33:30.323267",
    "updated_at": "2018-08-24 00:41:06.198098",
    "country": "United States",
    "longitude": "-71.0663396",
    "latitude": "42.405551"
  },
  {
    "id": "3250",
    "name": "Brewery Silvaticus",
    "brewery_type": "brewpub",
    "street": "9 Water St",
    "city": "Amesbury",
    "state": "Massachusetts",
    "postal_code": "01913-2936",
    "website_url": "http://www.silvaticusbeers.com",
    "phone": "9785042337",
    "created_at": "2018-07-24 01:33:30.536976",
    "updated_at": "2018-08-24 00:41:08.672545",
    "country": "United States",
    "longitude": "-70.9295559",
    "latitude": "42.8573815"
  },
  {
    "id": "3257",
    "name": "Buzzards Bay Brewing Co",
    "brewery_type": "micro",
    "street": "98 Horseneck Rd",
    "city": "Westport",
    "state": "Massachusetts",
    "postal_code": "02790-1399",
    "website_url": "http://www.buzzardsbrew.com",
    "phone": "5086362288",
    "created_at": "2018-07-24 01:33:30.655062",
    "updated_at": "2018-08-24 00:41:11.09863",
    "country": "United States",
    "longitude": "-71.0497046109378",
    "latitude": "41.5520745592303"
  },
  {
    "id": "3259",
    "name": "Cape Ann Brewing Co",
    "brewery_type": "brewpub",
    "street": "11 Rogers St",
    "city": "Gloucester",
    "state": "Massachusetts",
    "postal_code": "01930-5014",
    "website_url": "",
    "phone": "9782827399",
    "created_at": "2018-07-24 01:33:30.681116",
    "updated_at": "2018-08-24 00:41:11.944651",
    "country": "United States",
    "longitude": "-70.6650934421008",
    "latitude": "42.6116160165143"
  },
  {
    "id": "3262",
    "name": "Castle Island Brewing Co.",
    "brewery_type": "micro",
    "street": "31 Astor Ave",
    "city": "Norwood",
    "state": "Massachusetts",
    "postal_code": "02062-5016",
    "website_url": "http://www.castleislandbeer.com",
    "phone": "7819512029",
    "created_at": "2018-07-24 01:33:30.721319",
    "updated_at": "2018-08-24 00:41:12.832117",
    "country": "United States",
    "longitude": "-71.1918643775713",
    "latitude": "42.1693129661749"
  },
  {
    "id": "3265",
    "name": "Cheeky Monkey Brewing Co / Lucky Strike Jillians",
    "brewery_type": "brewpub",
    "street": "3 Lansdowne St",
    "city": "Boston",
    "state": "Massachusetts",
    "postal_code": "02215-3412",
    "website_url": "http://www.cheekymonkeyboston.com",
    "phone": "6178590030",
    "created_at": "2018-07-24 01:33:30.758145",
    "updated_at": "2018-08-24 00:41:13.247512",
    "country": "United States",
    "longitude": "-71.0946215",
    "latitude": "42.34729"
  },
  {
    "id": "3266",
    "name": "Cisco Brewers",
    "brewery_type": "micro",
    "street": "5 Bartlett Farm Rd",
    "city": "Nantucket",
    "state": "Massachusetts",
    "postal_code": "02554-4341",
    "website_url": "http://www.ciscobrewers.com",
    "phone": "5083255929",
    "created_at": "2018-07-24 01:33:30.775775",
    "updated_at": "2018-08-24 00:41:13.666331",
    "country": "United States",
    "longitude": "-70.1292844954849",
    "latitude": "41.2613581544694"
  },
  {
    "id": "3272",
    "name": "Democracy Brewing",
    "brewery_type": "brewpub",
    "street": "35 Temple Pl",
    "city": "Boston",
    "state": "Massachusetts",
    "postal_code": "02111",
    "website_url": "http://www.democracybrewing.com",
    "phone": "8572172739",
    "created_at": "2018-07-24 01:33:30.87399",
    "updated_at": "2018-08-24 00:41:15.98947",
    "country": "United States",
    "longitude": "-71.0623157813541",
    "latitude": "42.3552962282976"
  },
  {
    "id": "3273",
    "name": "Devil's Purse Brewing Co",
    "brewery_type": "micro",
    "street": "120 Great Western Rd",
    "city": "South Dennis",
    "state": "Massachusetts",
    "postal_code": "02660-3715",
    "website_url": "http://www.devilspurse.com",
    "phone": "5086947171",
    "created_at": "2018-07-24 01:33:30.886052",
    "updated_at": "2018-08-24 00:41:16.421965",
    "country": "United States",
    "longitude": "-70.1416854",
    "latitude": "41.6885379"
  },
  {
    "id": "3275",
    "name": "Dorchester Brewing Company",
    "brewery_type": "micro",
    "street": "1250 Massachusetts Ave",
    "city": "Dorchester",
    "state": "Massachusetts",
    "postal_code": "02125-1698",
    "website_url": "http://www.dorchesterbrewing.com",
    "phone": "6175140900",
    "created_at": "2018-07-24 01:33:30.911981",
    "updated_at": "2018-08-24 00:41:16.877904",
    "country": "United States",
    "longitude": "-71.0615585",
    "latitude": "42.3204879"
  },
  {
    "id": "3276",
    "name": "Down the Road Brewery",
    "brewery_type": "micro",
    "street": "199 Ashland Street",
    "city": "Everett",
    "state": "Massachusetts",
    "postal_code": "02149",
    "website_url": "http://www.downtheroadbrewery.com",
    "phone": "6174544255",
    "created_at": "2018-07-24 01:33:30.924855",
    "updated_at": "2018-08-24 00:41:17.302149",
    "country": "United States",
    "longitude": "-71.061481",
    "latitude": "42.397645"
  },
  {
    "id": "3277",
    "name": "Drunken Rabbit Brewing",
    "brewery_type": "micro",
    "street": "749A New Ludlow Rd",
    "city": "South Hadley",
    "state": "Massachusetts",
    "postal_code": "01020",
    "website_url": "http://www.rabbit.beer",
    "phone": "4137282739",
    "created_at": "2018-07-24 01:33:30.938075",
    "updated_at": "2018-08-24 00:41:17.764563",
    "country": "United States",
    "longitude": "-72.553245",
    "latitude": "42.217914"
  },
  {
    "id": "3278",
    "name": "Element Brewing Co",
    "brewery_type": "micro",
    "street": "16 Bridge St",
    "city": "Millers Falls",
    "state": "Massachusetts",
    "postal_code": "01349-1336",
    "website_url": "http://www.elementbeer.com",
    "phone": "4138356340",
    "created_at": "2018-07-24 01:33:30.952262",
    "updated_at": "2018-08-24 00:41:18.209818",
    "country": "United States",
    "longitude": "-72.4951603879466",
    "latitude": "42.5795092914357"
  },
  {
    "id": "3283",
    "name": "Gentile Brewing Company",
    "brewery_type": "micro",
    "street": "59 Park St # 1",
    "city": "Beverly",
    "state": "Massachusetts",
    "postal_code": "01915-4253",
    "website_url": "http://www.gentilebrewing.com",
    "phone": "9789696496",
    "created_at": "2018-07-24 01:33:31.021788",
    "updated_at": "2018-08-11 21:37:41.134639",
    "country": "United States",
    "longitude": "",
    "latitude": ""
  },
  {
    "id": "3284",
    "name": "Goat Creek Brewing",
    "brewery_type": "planning",
    "street": "",
    "city": "Northampton",
    "state": "Massachusetts",
    "postal_code": "01062-1326",
    "website_url": "",
    "phone": "",
    "created_at": "2018-07-24 01:33:31.035035",
    "updated_at": "2018-08-11 21:37:41.181381",
    "country": "United States",
    "longitude": "",
    "latitude": ""
  },
  {
    "id": "3290",
    "name": "Hingham Beer Works",
    "brewery_type": "brewpub",
    "street": "18 Shipyard Dr Ste 1K",
    "city": "Hingham",
    "state": "Massachusetts",
    "postal_code": "02043-1670",
    "website_url": "",
    "phone": "7817492337",
    "created_at": "2018-07-24 01:33:31.113489",
    "updated_at": "2018-08-11 21:37:41.484468",
    "country": "United States",
    "longitude": "",
    "latitude": ""
  },
  {
    "id": "3292",
    "name": "Hog Island Beer Company",
    "brewery_type": "micro",
    "street": "PO Box 1901",
    "city": "Orleans",
    "state": "Massachusetts",
    "postal_code": "02653-1901",
    "website_url": "http://www.hogislandbeerco.com",
    "phone": "5082552337",
    "created_at": "2018-07-24 01:33:31.138811",
    "updated_at": "2018-08-11 21:37:41.594557",
    "country": "United States",
    "longitude": "",
    "latitude": ""
  },
  {
    "id": "3294",
    "name": "Honest Weight Artisan Beer",
    "brewery_type": "micro",
    "street": "131 W Main St Ste 104",
    "city": "Orange",
    "state": "Massachusetts",
    "postal_code": "01364-1159",
    "website_url": "http://www.honestweightbeer.com",
    "phone": "4135376659",
    "created_at": "2018-07-24 01:33:31.164051",
    "updated_at": "2018-08-11 21:37:41.722251",
    "country": "United States",
    "longitude": "",
    "latitude": ""
  },
  {
    "id": "3298",
    "name": "Ipswich Ale Brewery",
    "brewery_type": "regional",
    "street": "2 Brewery Pl",
    "city": "Ipswich",
    "state": "Massachusetts",
    "postal_code": "01938-1196",
    "website_url": "http://www.ipswichalebrewery.com",
    "phone": "9783563329",
    "created_at": "2018-07-24 01:33:31.214853",
    "updated_at": "2018-08-11 21:37:41.910609",
    "country": "United States",
    "longitude": "",
    "latitude": ""
  },
  {
    "id": "3299",
    "name": "Iron Duke Brewing Co",
    "brewery_type": "micro",
    "street": "100 State St Ste 122",
    "city": "Ludlow",
    "state": "Massachusetts",
    "postal_code": "01056-3435",
    "website_url": "http://www.irondukebrewing.com",
    "phone": "4136246258",
    "created_at": "2018-07-24 01:33:31.227272",
    "updated_at": "2018-08-11 21:37:41.939355",
    "country": "United States",
    "longitude": "",
    "latitude": ""
  },
  {
    "id": "3302",
    "name": "Kismet Brewing Company",
    "brewery_type": "planning",
    "street": "",
    "city": "Westfield",
    "state": "Massachusetts",
    "postal_code": "01085",
    "website_url": "http://www.kismetbrewing.com",
    "phone": "9789957711",
    "created_at": "2018-07-24 01:33:31.279716",
    "updated_at": "2018-08-11 21:37:42.024769",
    "country": "United States",
    "longitude": "",
    "latitude": ""
  },
  {
    "id": "3304",
    "name": "Lamplighter Brewing Co.",
    "brewery_type": "micro",
    "street": "284 Broadway",
    "city": "Cambridge",
    "state": "Massachusetts",
    "postal_code": "02139-1808",
    "website_url": "http://www.lamplighterbrewing.com",
    "phone": "6179450450",
    "created_at": "2018-07-24 01:33:31.304875",
    "updated_at": "2018-08-11 21:37:42.077983",
    "country": "United States",
    "longitude": "",
    "latitude": ""
  },
  {
    "id": "3309",
    "name": "Lyons Den Brewing Co.",
    "brewery_type": "planning",
    "street": "",
    "city": "Wrentham",
    "state": "Massachusetts",
    "postal_code": "02093",
    "website_url": "",
    "phone": "",
    "created_at": "2018-07-24 01:33:31.37077",
    "updated_at": "2018-08-11 21:37:42.222256",
    "country": "United States",
    "longitude": "",
    "latitude": ""
  },
  {
    "id": "3321",
    "name": "New City Brewery",
    "brewery_type": "micro",
    "street": "180 Pleasant St Ste 2",
    "city": "Easthampton",
    "state": "Massachusetts",
    "postal_code": "01027-1297",
    "website_url": "",
    "phone": "4135292000",
    "created_at": "2018-07-24 01:33:31.547156",
    "updated_at": "2018-08-11 21:37:42.552132",
    "country": "United States",
    "longitude": "",
    "latitude": ""
  },
  {
    "id": "3323",
    "name": "Night Shift Brewing",
    "brewery_type": "planning",
    "street": "",
    "city": "Boston",
    "state": "Massachusetts",
    "postal_code": "02114",
    "website_url": "",
    "phone": "",
    "created_at": "2018-07-24 01:33:31.571664",
    "updated_at": "2018-08-11 21:37:42.6344",
    "country": "United States",
    "longitude": "",
    "latitude": ""
  },
  {
    "id": "3281",
    "name": "Flying Dreams Brewing Co.",
    "brewery_type": "micro",
    "street": "455B Park Ave",
    "city": "Worcester",
    "state": "Massachusetts",
    "postal_code": "01610",
    "website_url": "http://www.flyingdreamsbrewing.com",
    "phone": "5089268251",
    "created_at": "2018-07-24 01:33:30.993567",
    "updated_at": "2018-08-24 00:41:19.667359",
    "country": "United States",
    "longitude": "-71.8261885714286",
    "latitude": "42.2541995714286"
  },
  {
    "id": "3282",
    "name": "Fort Hill Brewery",
    "brewery_type": "micro",
    "street": "30 Fort Hill Rd",
    "city": "Easthampton",
    "state": "Massachusetts",
    "postal_code": "01027-1268",
    "website_url": "http://www.forthillbrewery.com",
    "phone": "4132035754",
    "created_at": "2018-07-24 01:33:31.007637",
    "updated_at": "2018-08-24 00:41:20.144595",
    "country": "United States",
    "longitude": "-72.6414309757094",
    "latitude": "42.2850315371962"
  },
  {
    "id": "3286",
    "name": "Greater Good Imperial Brew Co",
    "brewery_type": "brewpub",
    "street": "55 Millbrook St",
    "city": "Worcester",
    "state": "Massachusetts",
    "postal_code": "01606",
    "website_url": "http://www.greatergoodimperials.com",
    "phone": "",
    "created_at": "2018-07-24 01:33:31.060791",
    "updated_at": "2018-08-24 00:41:21.561723",
    "country": "United States",
    "longitude": "-71.8035550289181",
    "latitude": "42.2891295038281"
  },
  {
    "id": "3287",
    "name": "Harpoon Brewery",
    "brewery_type": "regional",
    "street": "306 Northern Ave Ste 2",
    "city": "Boston",
    "state": "Massachusetts",
    "postal_code": "02210-2367",
    "website_url": "http://www.harpoonbrewery.com",
    "phone": "6175749551",
    "created_at": "2018-07-24 01:33:31.076706",
    "updated_at": "2018-08-24 00:41:22.031971",
    "country": "United States",
    "longitude": "-71.0348293",
    "latitude": "42.3465637"
  },
  {
    "id": "3288",
    "name": "Henry And Fran Brewing",
    "brewery_type": "micro",
    "street": "185 Laurel St",
    "city": "West Boylston",
    "state": "Massachusetts",
    "postal_code": "01583-1535",
    "website_url": "",
    "phone": "4253273457",
    "created_at": "2018-07-24 01:33:31.089641",
    "updated_at": "2018-08-24 00:41:22.468031",
    "country": "United States",
    "longitude": "-71.8102670314576",
    "latitude": "42.3916689698943"
  },
  {
    "id": "3289",
    "name": "High Horse Brewery and Bistro",
    "brewery_type": "contract",
    "street": "24 N Pleasant St",
    "city": "Amherst",
    "state": "Massachusetts",
    "postal_code": "01002-1703",
    "website_url": "http://www.highhorsebrewing.com",
    "phone": "4132303034",
    "created_at": "2018-07-24 01:33:31.101326",
    "updated_at": "2018-08-24 00:41:22.94714",
    "country": "United States",
    "longitude": "-72.5201343",
    "latitude": "42.376218"
  },
  {
    "id": "3291",
    "name": "Hitchcock Brewing Company",
    "brewery_type": "micro",
    "street": "129 Christian Ln",
    "city": "Whately",
    "state": "Massachusetts",
    "postal_code": "01093",
    "website_url": "http://www.hitchcockbrewing.com",
    "phone": "4136952400",
    "created_at": "2018-07-24 01:33:31.125616",
    "updated_at": "2018-08-24 00:41:23.978207",
    "country": "United States",
    "longitude": "-72.6064122239763",
    "latitude": "42.4460651094895"
  },
  {
    "id": "3295",
    "name": "Hopsters",
    "brewery_type": "brewpub",
    "street": "292 Centre St",
    "city": "Newton",
    "state": "Massachusetts",
    "postal_code": "02458-1618",
    "website_url": "http://www.hopstersbrew.com",
    "phone": "6179160752",
    "created_at": "2018-07-24 01:33:31.176164",
    "updated_at": "2018-08-24 00:41:25.042744",
    "country": "United States",
    "longitude": "-71.1852104",
    "latitude": "42.3560516"
  },
  {
    "id": "3296",
    "name": "Idle Hands Craft Ales",
    "brewery_type": "micro",
    "street": "89 Commercial St",
    "city": "Malden",
    "state": "Massachusetts",
    "postal_code": "02148-5509",
    "website_url": "http://www.idlehandscraftales.com",
    "phone": "7813336070",
    "created_at": "2018-07-24 01:33:31.188506",
    "updated_at": "2018-08-24 00:41:25.475082",
    "country": "United States",
    "longitude": "-71.0747308442765",
    "latitude": "42.4243819"
  },
  {
    "id": "3300",
    "name": "Jack's Abby Brewing",
    "brewery_type": "regional",
    "street": "100 Clinton St",
    "city": "Framingham",
    "state": "Massachusetts",
    "postal_code": "01702-6748",
    "website_url": "http://www.jacksabbybrewing.com",
    "phone": "5088720900",
    "created_at": "2018-07-24 01:33:31.241731",
    "updated_at": "2018-08-24 00:41:27.212436",
    "country": "United States",
    "longitude": "-71.4109021",
    "latitude": "42.2800852"
  },
  {
    "id": "3303",
    "name": "Kretschmann Brewing Company",
    "brewery_type": "micro",
    "street": "9 Frederick St",
    "city": "Webster",
    "state": "Massachusetts",
    "postal_code": "01570-2286",
    "website_url": "http://kbcbrewery.com",
    "phone": "5086717711",
    "created_at": "2018-07-24 01:33:31.293086",
    "updated_at": "2018-08-24 00:41:28.144719",
    "country": "United States",
    "longitude": "-71.8807960968361",
    "latitude": "42.0500419070128"
  },
  {
    "id": "3305",
    "name": "Lefty's Brewing Co",
    "brewery_type": "micro",
    "street": "301 Wells St",
    "city": "Greenfield",
    "state": "Massachusetts",
    "postal_code": "01301",
    "website_url": "http://www.leftysbrew.com",
    "phone": "4136486111",
    "created_at": "2018-07-24 01:33:31.317333",
    "updated_at": "2018-08-24 00:41:28.581095",
    "country": "United States",
    "longitude": "-72.6068606666667",
    "latitude": "42.6012160416667"
  },
  {
    "id": "3306",
    "name": "Lookout Farm Brewing And Cider Co",
    "brewery_type": "micro",
    "street": "89 Pleasant St",
    "city": "Natick",
    "state": "Massachusetts",
    "postal_code": "01760-5669",
    "website_url": "http://www.lookoutfarmbrewing.com",
    "phone": "5086511539",
    "created_at": "2018-07-24 01:33:31.332293",
    "updated_at": "2018-08-24 00:41:29.025816",
    "country": "United States",
    "longitude": "-71.3709688823615",
    "latitude": "42.3223551642537"
  },
  {
    "id": "3307",
    "name": "Lord Hobo Brewing Co",
    "brewery_type": "regional",
    "street": "5 Draper St",
    "city": "Woburn",
    "state": "Massachusetts",
    "postal_code": "01801-4521",
    "website_url": "http://lordhobobrewing.com",
    "phone": "7812810809",
    "created_at": "2018-07-24 01:33:31.346249",
    "updated_at": "2018-08-24 00:41:29.437005",
    "country": "United States",
    "longitude": "-71.1289231911404",
    "latitude": "42.47603755"
  },
  {
    "id": "3308",
    "name": "Lowell Beer Works",
    "brewery_type": "brewpub",
    "street": "203 Cabot St",
    "city": "Lowell",
    "state": "Massachusetts",
    "postal_code": "01854-",
    "website_url": "",
    "phone": "9789372337",
    "created_at": "2018-07-24 01:33:31.358877",
    "updated_at": "2018-08-24 00:41:29.864924",
    "country": "United States",
    "longitude": "-71.3164361224202",
    "latitude": "42.6505753"
  },
  {
    "id": "3310",
    "name": "Marblehead Brewing Company",
    "brewery_type": "micro",
    "street": "124 Pleasant St",
    "city": "Marblehead",
    "state": "Massachusetts",
    "postal_code": "01945",
    "website_url": "http://www.marbleheadbrewing.co",
    "phone": "7817970211",
    "created_at": "2018-07-24 01:33:31.383304",
    "updated_at": "2018-08-24 00:41:30.343654",
    "country": "United States",
    "longitude": "-70.8573661020408",
    "latitude": "42.5012538571429"
  },
  {
    "id": "3313",
    "name": "Medusa Brewing Company",
    "brewery_type": "micro",
    "street": "111 Main St",
    "city": "Hudson",
    "state": "Massachusetts",
    "postal_code": "01749-2210",
    "website_url": "http://www.medusabrewing.com",
    "phone": "5083950122",
    "created_at": "2018-07-24 01:33:31.433271",
    "updated_at": "2018-08-24 00:41:31.240248",
    "country": "United States",
    "longitude": "-71.566681",
    "latitude": "42.3909986"
  },
  {
    "id": "3314",
    "name": "Merrimack Ales",
    "brewery_type": "micro",
    "street": "92 Bolt St",
    "city": "Lowell",
    "state": "Massachusetts",
    "postal_code": "01852-5316",
    "website_url": "http://www.merrimackales.com",
    "phone": "9787017225",
    "created_at": "2018-07-24 01:33:31.447959",
    "updated_at": "2018-08-24 00:41:31.659668",
    "country": "United States",
    "longitude": "-71.300252",
    "latitude": "42.625366"
  },
  {
    "id": "3315",
    "name": "Mighty Squirrel",
    "brewery_type": "contract",
    "street": "745 Atlantic Ave",
    "city": "Boston",
    "state": "Massachusetts",
    "postal_code": "02111-2735",
    "website_url": "http://www.mightysquirrel.com",
    "phone": "7602120802",
    "created_at": "2018-07-24 01:33:31.460349",
    "updated_at": "2018-08-24 00:41:32.100226",
    "country": "United States",
    "longitude": "-71.0569929",
    "latitude": "42.3502282"
  },
  {
    "id": "3316",
    "name": "Moby Dick Brewing Co.",
    "brewery_type": "brewpub",
    "street": "16 S Water St",
    "city": "New Bedford",
    "state": "Massachusetts",
    "postal_code": "02740-7235",
    "website_url": "http://www.mobydickbrewing.com",
    "phone": "7742026961",
    "created_at": "2018-07-24 01:33:31.472534",
    "updated_at": "2018-08-24 00:41:32.621498",
    "country": "United States",
    "longitude": "-70.9225132461967",
    "latitude": "41.6338210074871"
  },
  {
    "id": "3317",
    "name": "Moon Hill Brewing Co., Inc.",
    "brewery_type": "brewpub",
    "street": "74 Parker St",
    "city": "Gardner",
    "state": "Massachusetts",
    "postal_code": "01440-3809",
    "website_url": "http://www.gardnerale.com",
    "phone": "9786690122",
    "created_at": "2018-07-24 01:33:31.494696",
    "updated_at": "2018-08-24 00:41:33.151172",
    "country": "United States",
    "longitude": "-71.997003",
    "latitude": "42.5759013333333"
  },
  {
    "id": "3318",
    "name": "Mystic Brewery",
    "brewery_type": "micro",
    "street": "174 Williams St",
    "city": "Chelsea",
    "state": "Massachusetts",
    "postal_code": "02150-3804",
    "website_url": "",
    "phone": "",
    "created_at": "2018-07-24 01:33:31.507658",
    "updated_at": "2018-08-24 00:41:33.582388",
    "country": "United States",
    "longitude": "-71.0445104",
    "latitude": "42.3915659"
  },
  {
    "id": "3319",
    "name": "Naukabout Brewery",
    "brewery_type": "micro",
    "street": "13 Lake Ave",
    "city": "Mashpee",
    "state": "Massachusetts",
    "postal_code": "02649-2075",
    "website_url": "http://www.naukabout.com",
    "phone": "7743130200",
    "created_at": "2018-07-24 01:33:31.521118",
    "updated_at": "2018-08-24 00:41:34.018117",
    "country": "United States",
    "longitude": "-70.4842590100248",
    "latitude": "41.649362388751"
  },
  {
    "id": "3322",
    "name": "Newburyport Brewing Co",
    "brewery_type": "micro",
    "street": "4 New Pasture Rd",
    "city": "Newburyport",
    "state": "Massachusetts",
    "postal_code": "01950-4040",
    "website_url": "http://www.nbptbrewing.com",
    "phone": "9784638700",
    "created_at": "2018-07-24 01:33:31.559571",
    "updated_at": "2018-08-24 00:41:35.361791",
    "country": "United States",
    "longitude": "-70.8871558174512",
    "latitude": "42.8019577017051"
  },
  {
    "id": "3325",
    "name": "Northampton Brewery",
    "brewery_type": "brewpub",
    "street": "11 Brewster Ct",
    "city": "Northampton",
    "state": "Massachusetts",
    "postal_code": "01060-3801",
    "website_url": "http://www.northamptonbrewery.com",
    "phone": "4135849903",
    "created_at": "2018-07-24 01:33:31.597663",
    "updated_at": "2018-08-24 00:41:36.22975",
    "country": "United States",
    "longitude": "-72.6303406",
    "latitude": "42.317397"
  },
  {
    "id": "3326",
    "name": "Notch Brewing",
    "brewery_type": "micro",
    "street": "283R Derby St",
    "city": "Salem",
    "state": "Massachusetts",
    "postal_code": "01970-",
    "website_url": "http://www.notchbrewing.com",
    "phone": "9782389060",
    "created_at": "2018-07-24 01:33:31.610118",
    "updated_at": "2018-08-24 00:41:36.767995",
    "country": "United States",
    "longitude": "-70.889896901293",
    "latitude": "42.5206254130724"
  },
  {
    "id": "3328",
    "name": "Off The Cuff Brewing Company",
    "brewery_type": "planning",
    "street": "",
    "city": "West Brookfield",
    "state": "Massachusetts",
    "postal_code": "01585-6023",
    "website_url": "",
    "phone": "4132810525",
    "created_at": "2018-07-24 01:33:31.634835",
    "updated_at": "2018-08-11 21:37:42.798073",
    "country": "United States",
    "longitude": "",
    "latitude": ""
  },
  {
    "id": "3330",
    "name": "Old Colony Brewing",
    "brewery_type": "micro",
    "street": "605 Bedford St Unit 1",
    "city": "Whitman",
    "state": "Massachusetts",
    "postal_code": "02382-2088",
    "website_url": "http://www.oldcolonybrew.com",
    "phone": "7815237105",
    "created_at": "2018-07-24 01:33:31.66062",
    "updated_at": "2018-08-11 21:37:42.906912",
    "country": "United States",
    "longitude": "",
    "latitude": ""
  },
  {
    "id": "3335",
    "name": "Paramount Brewing Company",
    "brewery_type": "planning",
    "street": "",
    "city": "Andover",
    "state": "Massachusetts",
    "postal_code": "01810-5011",
    "website_url": "",
    "phone": "6178691388",
    "created_at": "2018-07-24 01:33:31.723714",
    "updated_at": "2018-08-11 21:37:43.08113",
    "country": "United States",
    "longitude": "",
    "latitude": ""
  },
  {
    "id": "3339",
    "name": "Purgatory Beer Co, LLC",
    "brewery_type": "micro",
    "street": "670 Linwood Ave Bldg C",
    "city": "Whitinsville",
    "state": "Massachusetts",
    "postal_code": "01588-2068",
    "website_url": "http://www.purgatorybeer.com",
    "phone": "7745450243",
    "created_at": "2018-07-24 01:33:31.776423",
    "updated_at": "2018-08-11 21:37:43.195655",
    "country": "United States",
    "longitude": "",
    "latitude": ""
  },
  {
    "id": "3341",
    "name": "Red Bird",
    "brewery_type": "planning",
    "street": "",
    "city": "Waltham",
    "state": "Massachusetts",
    "postal_code": "02453-5208",
    "website_url": "http://www.redbirdwaltham.com",
    "phone": "7818915486",
    "created_at": "2018-07-24 01:33:31.801657",
    "updated_at": "2018-08-11 21:37:43.254019",
    "country": "United States",
    "longitude": "",
    "latitude": ""
  },
  {
    "id": "3342",
    "name": "Remnant Brewing",
    "brewery_type": "micro",
    "street": "2 Bow Market Way",
    "city": "Somerville",
    "state": "Massachusetts",
    "postal_code": "02143",
    "website_url": "http://www.remnantsomerville.com",
    "phone": "",
    "created_at": "2018-07-24 01:33:31.813795",
    "updated_at": "2018-08-11 21:37:43.288949",
    "country": "United States",
    "longitude": "",
    "latitude": ""
  },
  {
    "id": "3349",
    "name": "Scottish Bloodline Brewing",
    "brewery_type": "planning",
    "street": "",
    "city": "Lowell",
    "state": "Massachusetts",
    "postal_code": "01851-4638",
    "website_url": "http://Www.scottishbloodlinebrewing.com",
    "phone": "9784556163",
    "created_at": "2018-07-24 01:33:31.904873",
    "updated_at": "2018-08-11 21:37:43.501393",
    "country": "United States",
    "longitude": "",
    "latitude": ""
  },
  {
    "id": "3352",
    "name": "Shovel Town Brewery, Inc.",
    "brewery_type": "brewpub",
    "street": "50 Oliver St Rear",
    "city": "North Easton",
    "state": "Massachusetts",
    "postal_code": "02356-1446",
    "website_url": "",
    "phone": "5082057151",
    "created_at": "2018-07-24 01:33:31.940817",
    "updated_at": "2018-08-11 21:37:43.613698",
    "country": "United States",
    "longitude": "",
    "latitude": ""
  },
  {
    "id": "3359",
    "name": "Stellwagen Beer Company",
    "brewery_type": "planning",
    "street": "",
    "city": "Marshfield",
    "state": "Massachusetts",
    "postal_code": "02050",
    "website_url": "http://www.stellwagenbeer.com",
    "phone": "7817899162",
    "created_at": "2018-07-24 01:33:32.062908",
    "updated_at": "2018-08-11 21:37:43.836131",
    "country": "United States",
    "longitude": "",
    "latitude": ""
  },
  {
    "id": "3360",
    "name": "Still River Brewery",
    "brewery_type": "micro",
    "street": "121 Clinton Shore Dr.",
    "city": "Still River",
    "state": "Massachusetts",
    "postal_code": "01467-0157",
    "website_url": "",
    "phone": "",
    "created_at": "2018-07-24 01:33:32.075095",
    "updated_at": "2018-08-11 21:37:43.864782",
    "country": "United States",
    "longitude": "",
    "latitude": ""
  },
  {
    "id": "3361",
    "name": "Stone Cow Brewery",
    "brewery_type": "micro",
    "street": "500 West St (Route 122)",
    "city": "Barre",
    "state": "Massachusetts",
    "postal_code": "01005",
    "website_url": "",
    "phone": "4135526048",
    "created_at": "2018-07-24 01:33:32.087499",
    "updated_at": "2018-08-11 21:37:43.893504",
    "country": "United States",
    "longitude": "",
    "latitude": ""
  },
  {
    "id": "3362",
    "name": "Stoneman Brewery",
    "brewery_type": "micro",
    "street": "20 Stetson Bros Rd",
    "city": "Colrain",
    "state": "Massachusetts",
    "postal_code": "01340-9733",
    "website_url": "",
    "phone": "4136245195",
    "created_at": "2018-07-24 01:33:32.100161",
    "updated_at": "2018-08-11 21:37:43.925685",
    "country": "United States",
    "longitude": "",
    "latitude": ""
  },
  {
    "id": "3365",
    "name": "Timberyard Brewing Co.",
    "brewery_type": "planning",
    "street": "",
    "city": "East Brookfield",
    "state": "Massachusetts",
    "postal_code": "01515",
    "website_url": "http://timberyardbrewing.com",
    "phone": "4135526048",
    "created_at": "2018-07-24 01:33:32.139919",
    "updated_at": "2018-08-11 21:37:44.020638",
    "country": "United States",
    "longitude": "",
    "latitude": ""
  },
  {
    "id": "3329",
    "name": "Offshore Ale Co",
    "brewery_type": "brewpub",
    "street": "30 Kennebec Ave",
    "city": "Oak Bluffs",
    "state": "Massachusetts",
    "postal_code": "02557",
    "website_url": "http://www.offshoreale.com",
    "phone": "5086932626",
    "created_at": "2018-07-24 01:33:31.647989",
    "updated_at": "2018-08-24 00:41:37.670054",
    "country": "United States",
    "longitude": "-70.5579095857058",
    "latitude": "41.4548832424099"
  },
  {
    "id": "3331",
    "name": "Old Planters Brewing Co.",
    "brewery_type": "micro",
    "street": "100 Corning St",
    "city": "Beverly",
    "state": "Massachusetts",
    "postal_code": "01915-3837",
    "website_url": "http://www.oldplanters.com",
    "phone": "9785226446",
    "created_at": "2018-07-24 01:33:31.673601",
    "updated_at": "2018-08-24 00:41:38.541192",
    "country": "United States",
    "longitude": "-70.8628713936456",
    "latitude": "42.554996452917"
  },
  {
    "id": "3332",
    "name": "Opa Opa Brewery",
    "brewery_type": "contract",
    "street": "19 Wemelco Way",
    "city": "Easthampton",
    "state": "Massachusetts",
    "postal_code": "01027",
    "website_url": "http://www.opaopasteakhousebrewery.com",
    "phone": "4135270808",
    "created_at": "2018-07-24 01:33:31.686041",
    "updated_at": "2018-08-24 00:41:38.968666",
    "country": "United States",
    "longitude": "-72.6919129873619",
    "latitude": "42.2546704774428"
  },
  {
    "id": "3333",
    "name": "Outlook Farm Brewery",
    "brewery_type": "micro",
    "street": "136 Main Rd",
    "city": "Westhampton",
    "state": "Massachusetts",
    "postal_code": "01027-9673",
    "website_url": "http://www.outlookfarm.com",
    "phone": "4135299388",
    "created_at": "2018-07-24 01:33:31.698613",
    "updated_at": "2018-08-24 00:41:39.445771",
    "country": "United States",
    "longitude": "-72.772262",
    "latitude": "42.285973"
  },
  {
    "id": "3337",
    "name": "Plymouth Beer Company / Dirty Water Distillery",
    "brewery_type": "micro",
    "street": "10 Water St",
    "city": "Plymouth",
    "state": "Massachusetts",
    "postal_code": "02360-3349",
    "website_url": "http://www.plymouthbeer.rocks",
    "phone": "5085910589",
    "created_at": "2018-07-24 01:33:31.75011",
    "updated_at": "2018-08-24 00:41:40.77548",
    "country": "United States",
    "longitude": "-70.6620267",
    "latitude": "41.9549491"
  },
  {
    "id": "3338",
    "name": "Portico Brewing Co",
    "brewery_type": "contract",
    "street": "256 Moody Street",
    "city": "Waltham",
    "state": "Massachusetts",
    "postal_code": "02453",
    "website_url": "",
    "phone": "",
    "created_at": "2018-07-24 01:33:31.763044",
    "updated_at": "2018-08-24 00:41:41.204646",
    "country": "United States",
    "longitude": "-71.2366218",
    "latitude": "42.3718244"
  },
  {
    "id": "3340",
    "name": "Rapscallion Ales",
    "brewery_type": "micro",
    "street": "5 Strawberry Hill Rd",
    "city": "Acton",
    "state": "Massachusetts",
    "postal_code": "01720-5706",
    "website_url": "http://www.drinkrapscallion.com",
    "phone": "5083477500",
    "created_at": "2018-07-24 01:33:31.788903",
    "updated_at": "2018-08-24 00:41:42.118365",
    "country": "United States",
    "longitude": "-71.4158546071126",
    "latitude": "42.4919605"
  },
  {
    "id": "3343",
    "name": "River Styx Brewing",
    "brewery_type": "micro",
    "street": "166 Boulder Dr Ste 112",
    "city": "Fitchburg",
    "state": "Massachusetts",
    "postal_code": "01420-3168",
    "website_url": "http://www.riverstyxbrewing.com",
    "phone": "9786965176",
    "created_at": "2018-07-24 01:33:31.827528",
    "updated_at": "2018-08-24 00:41:43.1816",
    "country": "United States",
    "longitude": "-71.7946112",
    "latitude": "42.5817291"
  },
  {
    "id": "3344",
    "name": "Riverwalk Brewing Co.",
    "brewery_type": "micro",
    "street": "40 Parker St",
    "city": "Newburyport",
    "state": "Massachusetts",
    "postal_code": "01950-4056",
    "website_url": "http://www.riverwalkbrewing.com",
    "phone": "9784992337",
    "created_at": "2018-07-24 01:33:31.839758",
    "updated_at": "2018-08-24 00:41:43.6755",
    "country": "United States",
    "longitude": "-70.8672672695409",
    "latitude": "42.79921535"
  },
  {
    "id": "3346",
    "name": "Saltbox Brewery",
    "brewery_type": "brewpub",
    "street": "84 Commonwealth Ave",
    "city": "Concord",
    "state": "Massachusetts",
    "postal_code": "01742-2904",
    "website_url": "http://www.saltboxkitchen.com",
    "phone": "9782123585",
    "created_at": "2018-07-24 01:33:31.867104",
    "updated_at": "2018-08-24 00:41:44.597216",
    "country": "United States",
    "longitude": "-71.3946825833333",
    "latitude": "42.4569080625"
  },
  {
    "id": "3348",
    "name": "Scantic River Brewery",
    "brewery_type": "micro",
    "street": "25 Mill Rd",
    "city": "Hampden",
    "state": "Massachusetts",
    "postal_code": "01036-9624",
    "website_url": "http://www.scanticriverbrewery.com",
    "phone": "4132049163",
    "created_at": "2018-07-24 01:33:31.892421",
    "updated_at": "2018-08-24 00:41:45.094572",
    "country": "United States",
    "longitude": "-72.5833168788771",
    "latitude": "42.0430361118982"
  },
  {
    "id": "3350",
    "name": "Second Wind Brewing Company",
    "brewery_type": "micro",
    "street": "7 Howland St",
    "city": "Plymouth",
    "state": "Massachusetts",
    "postal_code": "02360-3810",
    "website_url": "http://www.secondwindbrewing.com",
    "phone": "5085915915",
    "created_at": "2018-07-24 01:33:31.916694",
    "updated_at": "2018-08-24 00:41:45.584037",
    "country": "United States",
    "longitude": "-70.6665477965761",
    "latitude": "41.9585551017836"
  },
  {
    "id": "3351",
    "name": "Shire Breu Hous",
    "brewery_type": "brewpub",
    "street": "63 Flansburg Ave",
    "city": "Dalton",
    "state": "Massachusetts",
    "postal_code": "01226",
    "website_url": "http://www.shire.beer",
    "phone": "4138428313",
    "created_at": "2018-07-24 01:33:31.929123",
    "updated_at": "2018-08-24 00:41:46.010506",
    "country": "United States",
    "longitude": "-73.1730985",
    "latitude": "42.4745867"
  },
  {
    "id": "3353",
    "name": "Skyroc Brewery",
    "brewery_type": "micro",
    "street": "11 Riverbank Rd",
    "city": "Attleboro",
    "state": "Massachusetts",
    "postal_code": "02703-",
    "website_url": "http://www.skyrocbrewery.com",
    "phone": "7743312336",
    "created_at": "2018-07-24 01:33:31.952281",
    "updated_at": "2018-08-24 00:41:46.875055",
    "country": "United States",
    "longitude": "-71.287889167702",
    "latitude": "41.9446296728284"
  },
  {
    "id": "3355",
    "name": "Slesar Bros Brewing Co - Boston Beer Works",
    "brewery_type": "brewpub",
    "street": "61 Brookline Ave",
    "city": "Boston",
    "state": "Massachusetts",
    "postal_code": "02215-3406",
    "website_url": "http://www.beerworks.net",
    "phone": "6175362337",
    "created_at": "2018-07-24 01:33:31.978305",
    "updated_at": "2018-08-24 00:41:47.788778",
    "country": "United States",
    "longitude": "-71.1077246938776",
    "latitude": "42.3388300816327"
  },
  {
    "id": "3356",
    "name": "Somerville Brewing Company",
    "brewery_type": "micro",
    "street": "15 Ward St",
    "city": "Somerville",
    "state": "Massachusetts",
    "postal_code": "02143-4228",
    "website_url": "http://www.slumbrew.com",
    "phone": "8004281150",
    "created_at": "2018-07-24 01:33:31.990713",
    "updated_at": "2018-08-24 00:41:48.231103",
    "country": "United States",
    "longitude": "-71.0890345",
    "latitude": "42.3749103"
  },
  {
    "id": "3357",
    "name": "Spencer Brewery",
    "brewery_type": "micro",
    "street": "167 N Spencer Rd",
    "city": "Spencer",
    "state": "Massachusetts",
    "postal_code": "01562-1232",
    "website_url": "http://www.spencerbrewery.com",
    "phone": "5088855756",
    "created_at": "2018-07-24 01:33:32.036292",
    "updated_at": "2018-08-24 00:41:48.673239",
    "country": "United States",
    "longitude": "-72.0133159",
    "latitude": "42.2976331"
  },
  {
    "id": "3363",
    "name": "The Peoples Pint / Franklin County Brewing Co",
    "brewery_type": "brewpub",
    "street": "76 Hope St",
    "city": "Greenfield",
    "state": "Massachusetts",
    "postal_code": "01301-3573",
    "website_url": "http://www.thepeoplespint.com",
    "phone": "4137730333",
    "created_at": "2018-07-24 01:33:32.112129",
    "updated_at": "2018-08-24 00:41:51.094337",
    "country": "United States",
    "longitude": "-72.5976922905978",
    "latitude": "42.5818759898982"
  },
  {
    "id": "3364",
    "name": "The Tap Brewing Company",
    "brewery_type": "brewpub",
    "street": "100 Washington St",
    "city": "Haverhill",
    "state": "Massachusetts",
    "postal_code": "01832-5500",
    "website_url": "http://www.tapbrewingcompany.com",
    "phone": "6178358315",
    "created_at": "2018-07-24 01:33:32.125069",
    "updated_at": "2018-08-24 00:41:51.51922",
    "country": "United States",
    "longitude": "-71.084935",
    "latitude": "42.7728879"
  },
  {
    "id": "3366",
    "name": "Tin Bridge Brewing",
    "brewery_type": "micro",
    "street": "487 E Main St",
    "city": "Westfield",
    "state": "Massachusetts",
    "postal_code": "01085",
    "website_url": "http://www.tinbridgebrewing.com",
    "phone": "4136426418",
    "created_at": "2018-07-24 01:33:32.152787",
    "updated_at": "2018-08-24 00:41:51.986835",
    "country": "United States",
    "longitude": "-72.7196733636976",
    "latitude": "42.1126850185216"
  },
  {
    "id": "3367",
    "name": "Tree House Brewery",
    "brewery_type": "regional",
    "street": "129 Sturbridge Rd",
    "city": "Charlton",
    "state": "Massachusetts",
    "postal_code": "01507-5330",
    "website_url": "http://www.treehousebrew.com",
    "phone": "4139491891",
    "created_at": "2018-07-24 01:33:32.165189",
    "updated_at": "2018-08-24 00:41:52.412806",
    "country": "United States",
    "longitude": "-72.0125532",
    "latitude": "42.1366948"
  },
  {
    "id": "3368",
    "name": "Trillium Brewing",
    "brewery_type": "regional",
    "street": "110 Shawmut Rd",
    "city": "Canton",
    "state": "Massachusetts",
    "postal_code": "02021-1412",
    "website_url": "http://www.trilliumbrewing.com",
    "phone": "6174538745",
    "created_at": "2018-07-24 01:33:32.1781",
    "updated_at": "2018-08-24 00:41:52.830227",
    "country": "United States",
    "longitude": "-71.1527702",
    "latitude": "42.1847202"
  },
  {
    "id": "3369",
    "name": "True North Ale Company",
    "brewery_type": "micro",
    "street": "116 County Rd",
    "city": "Ipswich",
    "state": "Massachusetts",
    "postal_code": "01938-2501",
    "website_url": "http://www.TrueNorthAles.com",
    "phone": "9783126473",
    "created_at": "2018-07-24 01:33:32.193482",
    "updated_at": "2018-08-24 00:41:53.328507",
    "country": "United States",
    "longitude": "-70.837236",
    "latitude": "42.669841"
  },
  {
    "id": "3371",
    "name": "Turtle Swamp Brewing",
    "brewery_type": "micro",
    "street": "3377 Washington St",
    "city": "Jamaica Plain",
    "state": "Massachusetts",
    "postal_code": "02130-2617",
    "website_url": "http://www.turtleswampbrewing.com",
    "phone": "6175220038",
    "created_at": "2018-07-24 01:33:32.219104",
    "updated_at": "2018-08-24 00:41:54.264984",
    "country": "United States",
    "longitude": "-71.1123668",
    "latitude": "42.3014592"
  },
  {
    "id": "3372",
    "name": "Untold Brewing",
    "brewery_type": "micro",
    "street": "6 Old Country Way",
    "city": "Scituate",
    "state": "Massachusetts",
    "postal_code": "02066-3773",
    "website_url": "http://www.untoldbrewing.com",
    "phone": "7813780559",
    "created_at": "2018-07-24 01:33:32.231722",
    "updated_at": "2018-08-24 00:41:54.696104",
    "country": "United States",
    "longitude": "-70.7475028582983",
    "latitude": "42.180807761562"
  },
  {
    "id": "3373",
    "name": "Vanished Valley Brewing Company",
    "brewery_type": "micro",
    "street": "782 Center Street",
    "city": "Ludlow ",
    "state": "Massachusetts",
    "postal_code": "01056",
    "website_url": "http://www.vanishedvalley.com",
    "phone": "4132710503",
    "created_at": "2018-07-24 01:33:32.244647",
    "updated_at": "2018-08-24 00:41:55.205198",
    "country": "United States",
    "longitude": "-72.4702163876732",
    "latitude": "42.1829274074559"
  },
  {
    "id": "3380",
    "name": "Widowmaker Brewing",
    "brewery_type": "micro",
    "street": "220 Wood Rd",
    "city": "Braintree",
    "state": "Massachusetts",
    "postal_code": "02184-2408",
    "website_url": "http://www.widowmakerbrew.wordpress.com",
    "phone": "7812549856",
    "created_at": "2018-07-24 01:33:32.334247",
    "updated_at": "2018-08-11 21:37:44.449805",
    "country": "United States",
    "longitude": "",
    "latitude": ""
  },
  {
    "id": "3381",
    "name": "Winter Hill Brewing Company",
    "brewery_type": "brewpub",
    "street": "328 Broadway",
    "city": "Somerville",
    "state": "Massachusetts",
    "postal_code": "02145-2803",
    "website_url": "http://www.winterhillbrewing.com",
    "phone": "6177182337",
    "created_at": "2018-07-24 01:33:32.34958",
    "updated_at": "2018-08-11 21:37:44.478416",
    "country": "United States",
    "longitude": "",
    "latitude": ""
  },
  {
    "id": "3378",
    "name": "Westfield River Brewing Co",
    "brewery_type": "micro",
    "street": "707 College Hwy",
    "city": "Southwick",
    "state": "Massachusetts",
    "postal_code": "01077-9733",
    "website_url": "http://www.westfieldriverbrewing.com",
    "phone": "4133748425",
    "created_at": "2018-07-24 01:33:32.308053",
    "updated_at": "2018-08-24 00:41:56.58132",
    "country": "United States",
    "longitude": "-72.765248",
    "latitude": "42.062268"
  },
  {
    "id": "3379",
    "name": "White Lion Brewing Company",
    "brewery_type": "contract",
    "street": "36 Garland St",
    "city": "Springfield",
    "state": "Massachusetts",
    "postal_code": "01118-2128",
    "website_url": "http://www.whitelionbrewing.com",
    "phone": "4133261829",
    "created_at": "2018-07-24 01:33:32.320737",
    "updated_at": "2018-08-24 00:41:57.003082",
    "country": "United States",
    "longitude": "-72.5338092445335",
    "latitude": "42.089818555939"
  },
  {
    "id": "3382",
    "name": "Wormtown Brewery",
    "brewery_type": "micro",
    "street": "72 Shrewsbury St",
    "city": "Worcester",
    "state": "Massachusetts",
    "postal_code": "01604-4625",
    "website_url": "http://www.wormtownbrewery.com",
    "phone": "7742391555",
    "created_at": "2018-07-24 01:33:32.365592",
    "updated_at": "2018-08-24 00:41:57.429666",
    "country": "United States",
    "longitude": "-71.7912262",
    "latitude": "42.2634992"
  },
  {
    "id": "3210",
    "name": "Abandoned Building Brewery",
    "brewery_type": "micro",
    "street": "142 Pleasant St Unit 103A",
    "city": "Easthampton",
    "state": "Massachusetts",
    "postal_code": "01027-2805",
    "website_url": "http://www.abandonedbuildingbrewery.com",
    "phone": "4132827062",
    "created_at": "2018-07-24 01:33:29.982808",
    "updated_at": "2018-08-11 21:37:38.259151",
    "country": "United States",
    "longitude": "",
    "latitude": ""
  },
  {
    "id": "3223",
    "name": "Barrington Brewery and Restaurant",
    "brewery_type": "brewpub",
    "street": "420 Stockbridge Rd Ste 4",
    "city": "Great Barrington",
    "state": "Massachusetts",
    "postal_code": "01230-9512",
    "website_url": "http://www.barringtonbrewery.net",
    "phone": "4135288282",
    "created_at": "2018-07-24 01:33:30.181814",
    "updated_at": "2018-08-11 21:37:38.629664",
    "country": "United States",
    "longitude": "",
    "latitude": ""
  },
  {
    "id": "3236",
    "name": "Boston Beer Co",
    "brewery_type": "micro",
    "street": "30 Germania St Ste 1",
    "city": "Boston",
    "state": "Massachusetts",
    "postal_code": "02130-2312",
    "website_url": "http://www.samueladams.com",
    "phone": "6173685000",
    "created_at": "2018-07-24 01:33:30.351609",
    "updated_at": "2018-08-11 21:37:39.002163",
    "country": "United States",
    "longitude": "",
    "latitude": ""
  },
  {
    "id": "3241",
    "name": "Brewery in Planning - Hull",
    "brewery_type": "planning",
    "street": "",
    "city": "Hull",
    "state": "Massachusetts",
    "postal_code": "02641",
    "website_url": "http://www.hullbound.com",
    "phone": "5084543486",
    "created_at": "2018-07-24 01:33:30.413533",
    "updated_at": "2018-08-11 21:37:39.189215",
    "country": "United States",
    "longitude": "",
    "latitude": ""
  },
  {
    "id": "3247",
    "name": "Brewery In Planning - Watertown",
    "brewery_type": "planning",
    "street": "",
    "city": "Worcester",
    "state": "Massachusetts",
    "postal_code": "01608-2064",
    "website_url": "http://www.redemptionrock.beer",
    "phone": "9786605526",
    "created_at": "2018-07-24 01:33:30.498942",
    "updated_at": "2018-08-11 21:37:39.416794",
    "country": "United States",
    "longitude": "",
    "latitude": ""
  },
  {
    "id": "3258",
    "name": "Cambridge Brewing Co",
    "brewery_type": "brewpub",
    "street": "1 Kendall Sq Ste B1102",
    "city": "Cambridge",
    "state": "Massachusetts",
    "postal_code": "02139-1592",
    "website_url": "http://www.cambridgebrewingcompany.com",
    "phone": "6174941994",
    "created_at": "2018-07-24 01:33:30.668824",
    "updated_at": "2018-08-11 21:37:39.765326",
    "country": "United States",
    "longitude": "",
    "latitude": ""
  },
  {
    "id": "3293",
    "name": "Homefield Brewing",
    "brewery_type": "brewpub",
    "street": "3 Arnold Rd",
    "city": "Fiskdale",
    "state": "Massachusetts",
    "postal_code": "01518-",
    "website_url": "http://www.homefieldbrewing.com",
    "phone": "7742426365",
    "created_at": "2018-07-24 01:33:31.151304",
    "updated_at": "2018-08-11 21:37:41.652613",
    "country": "United States",
    "longitude": "",
    "latitude": ""
  },
  {
    "id": "3297",
    "name": "Independent Fermentations Brewing",
    "brewery_type": "micro",
    "street": "127 Camelot Dr Ste 3",
    "city": "Plymouth",
    "state": "Massachusetts",
    "postal_code": "02360-3039",
    "website_url": "http://www.independentfermentations.com",
    "phone": "5087464634",
    "created_at": "2018-07-24 01:33:31.200855",
    "updated_at": "2018-08-11 21:37:41.880084",
    "country": "United States",
    "longitude": "",
    "latitude": ""
  },
  {
    "id": "3347",
    "name": "Saltmarsh Brewery",
    "brewery_type": "planning",
    "street": "",
    "city": "Foxboro",
    "state": "Massachusetts",
    "postal_code": "02035-2299",
    "website_url": "http://adam@saltmarshbrewery.com",
    "phone": "6177996627",
    "created_at": "2018-07-24 01:33:31.879098",
    "updated_at": "2018-08-11 21:37:43.441926",
    "country": "United States",
    "longitude": "",
    "latitude": ""
  },
  {
    "id": "3370",
    "name": "True West Brewing Company",
    "brewery_type": "brewpub",
    "street": "525 Massachusetts Ave Ste 107",
    "city": "Acton",
    "state": "Massachusetts",
    "postal_code": "01720-2962",
    "website_url": "http://www.brewtruewest.com",
    "phone": "9782061600",
    "created_at": "2018-07-24 01:33:32.206494",
    "updated_at": "2018-08-11 21:37:44.175644",
    "country": "United States",
    "longitude": "",
    "latitude": ""
  },
  {
    "id": "3285",
    "name": "Greasy Luck Brewery",
    "brewery_type": "brewpub",
    "street": "791 Purchase St",
    "city": "New Bedford",
    "state": "Massachusetts",
    "postal_code": "02740-6345",
    "website_url": "http://www.greasyluckbrewery.com",
    "phone": "7744254600",
    "created_at": "2018-07-24 01:33:31.048489",
    "updated_at": "2018-08-24 00:41:21.12769",
    "country": "United States",
    "longitude": "-70.9260752678464",
    "latitude": "41.6350707856424"
  },
  {
    "id": "3311",
    "name": "Mayflower Brewing Co",
    "brewery_type": "micro",
    "street": "12 Resnik Rd",
    "city": "Plymouth",
    "state": "Massachusetts",
    "postal_code": "02360-7245",
    "website_url": "http://www.mayflowerbrewing.com",
    "phone": "5087462674",
    "created_at": "2018-07-24 01:33:31.406801",
    "updated_at": "2018-08-24 00:41:30.767987",
    "country": "United States",
    "longitude": "-70.7125549568343",
    "latitude": "41.9492602441054"
  },
  {
    "id": "3324",
    "name": "Night Shift Brewing, Inc",
    "brewery_type": "regional",
    "street": "87 Santilli Hwy",
    "city": "Everett",
    "state": "Massachusetts",
    "postal_code": "02149-1906",
    "website_url": "http://www.nightshiftbrewing.com",
    "phone": "6172944233",
    "created_at": "2018-07-24 01:33:31.58515",
    "updated_at": "2018-08-24 00:41:35.783207",
    "country": "United States",
    "longitude": "-71.0677001",
    "latitude": "42.4059393"
  },
  {
    "id": "3334",
    "name": "Owen OLearys Restaurant and Brewery",
    "brewery_type": "brewpub",
    "street": "17 Connector Rd",
    "city": "Westborough",
    "state": "Massachusetts",
    "postal_code": "01581-3916",
    "website_url": "http://www.owenolearys.com",
    "phone": "5083669262",
    "created_at": "2018-07-24 01:33:31.710946",
    "updated_at": "2018-08-24 00:41:39.893868",
    "country": "United States",
    "longitude": "-71.5859197866303",
    "latitude": "42.2899655860842"
  },
  {
    "id": "3345",
    "name": "Salem Beer Works",
    "brewery_type": "brewpub",
    "street": "278 Derby St",
    "city": "Salem",
    "state": "Massachusetts",
    "postal_code": "01970-3635",
    "website_url": "http://www.beerworks.net",
    "phone": "9787452337",
    "created_at": "2018-07-24 01:33:31.854376",
    "updated_at": "2018-08-24 00:41:44.151112",
    "country": "United States",
    "longitude": "-70.8898634038755",
    "latitude": "42.5207926242957"
  },
  {
    "id": "3358",
    "name": "Start Line Brewing Company",
    "brewery_type": "micro",
    "street": "151R Hayden Rowe St",
    "city": "Hopkinton",
    "state": "Massachusetts",
    "postal_code": "01748-2511",
    "website_url": "http://www.startlinebrewing.com",
    "phone": "5087612044",
    "created_at": "2018-07-24 01:33:32.050761",
    "updated_at": "2018-08-24 00:41:49.168018",
    "country": "United States",
    "longitude": "-71.5132367573311",
    "latitude": "42.2103163400486"
  },
  {
    "id": "3383",
    "name": "ZeLUS Beer Company",
    "brewery_type": "contract",
    "street": "120 N Meadows Rd",
    "city": "Medfield",
    "state": "Massachusetts",
    "postal_code": "02052-1594",
    "website_url": "http://www.zelusbeer.com",
    "phone": "6275100270",
    "created_at": "2018-07-24 01:33:32.379824",
    "updated_at": "2018-08-24 00:41:57.900035",
    "country": "United States",
    "longitude": "-71.335472",
    "latitude": "42.200799"
  },
  {
    "id": "3229",
    "name": "Berkshire Brewing Co Inc",
    "brewery_type": "regional",
    "street": "12 Railroad St",
    "city": "South Deerfield",
    "state": "Massachusetts",
    "postal_code": "01373-0096",
    "website_url": "http://www.Berkshire-Brewing.com",
    "phone": "4136656600",
    "created_at": "2018-07-24 01:33:30.25886",
    "updated_at": "2018-08-24 00:41:03.580098",
    "country": "United States",
    "longitude": "-72.6102508608935",
    "latitude": "42.4777979726281"
  },
  {
    "id": "3230",
    "name": "Big Elm Brewing",
    "brewery_type": "micro",
    "street": "65 Silver St",
    "city": "Sheffield",
    "state": "Massachusetts",
    "postal_code": "01257",
    "website_url": "http://www.bigelmbrewery.com",
    "phone": "4132292348",
    "created_at": "2018-07-24 01:33:30.272528",
    "updated_at": "2018-08-24 00:41:04.144706",
    "country": "United States",
    "longitude": "-73.351236",
    "latitude": "42.093595"
  },
  {
    "id": "3252",
    "name": "Brewmasters Tavern / Brewmasters Brewing Services",
    "brewery_type": "micro",
    "street": "4 Main St",
    "city": "Williamsburg",
    "state": "Massachusetts",
    "postal_code": "01096-9428",
    "website_url": "",
    "phone": "4132682199",
    "created_at": "2018-07-24 01:33:30.561154",
    "updated_at": "2018-08-24 00:41:09.225066",
    "country": "United States",
    "longitude": "-72.7305059",
    "latitude": "42.3923659"
  },
  {
    "id": "3271",
    "name": "Deadwood Brewery / Boston Bowl",
    "brewery_type": "brewpub",
    "street": "820 William T Morrissey Blvd",
    "city": "Boston",
    "state": "Massachusetts",
    "postal_code": "02122-3404",
    "website_url": "http://www.deadwoodbrewery.com",
    "phone": "6177401440",
    "created_at": "2018-07-24 01:33:30.852745",
    "updated_at": "2018-08-24 00:41:15.440932",
    "country": "United States",
    "longitude": "-71.047997482376",
    "latitude": "42.2948560502166"
  },
  {
    "id": "3279",
    "name": "Entitled Beer Company",
    "brewery_type": "proprietor",
    "street": "21 North St",
    "city": "Hingham",
    "state": "Massachusetts",
    "postal_code": "02043-",
    "website_url": "http://www.entitledbrewing.com",
    "phone": "7817401035",
    "created_at": "2018-07-24 01:33:30.964934",
    "updated_at": "2018-08-24 00:41:18.710141",
    "country": "United States",
    "longitude": "-70.8861847258737",
    "latitude": "42.2436072296139"
  },
  {
    "id": "3280",
    "name": "Exhibit 'A' Brewing Co.",
    "brewery_type": "micro",
    "street": "81 Morton St",
    "city": "Framingham",
    "state": "Massachusetts",
    "postal_code": "01702-7153",
    "website_url": "http://www.exhibit-A-brewing.com",
    "phone": "",
    "created_at": "2018-07-24 01:33:30.979893",
    "updated_at": "2018-08-24 00:41:19.161385",
    "country": "United States",
    "longitude": "-71.4018708794239",
    "latitude": "42.27880435"
  },
  {
    "id": "3301",
    "name": "John Harvards Brew House - Framingham",
    "brewery_type": "brewpub",
    "street": "1 Worcester Rd",
    "city": "Framingham",
    "state": "Massachusetts",
    "postal_code": "01701-5359",
    "website_url": "http://www.johnharvards.com",
    "phone": "5088752337",
    "created_at": "2018-07-24 01:33:31.266792",
    "updated_at": "2018-08-24 00:41:27.695368",
    "country": "United States",
    "longitude": "-71.3961924451932",
    "latitude": "42.30411485"
  },
  {
    "id": "3320",
    "name": "Navigation Brewing Co",
    "brewery_type": "micro",
    "street": "122 Western Ave",
    "city": "Lowell",
    "state": "Massachusetts",
    "postal_code": "01851-1433",
    "website_url": "http://www.navigationbrewing.com",
    "phone": "",
    "created_at": "2018-07-24 01:33:31.534149",
    "updated_at": "2018-08-24 00:41:34.456003",
    "country": "United States",
    "longitude": "-71.3246481212121",
    "latitude": "42.640349969697"
  },
  {
    "id": "3327",
    "name": "Oak & Iron Brewing Co",
    "brewery_type": "brewpub",
    "street": "18 Red Spring Rd",
    "city": "Andover",
    "state": "Massachusetts",
    "postal_code": "01810-3448",
    "website_url": "http://www.oakandironbrewing.com",
    "phone": "9784754077",
    "created_at": "2018-07-24 01:33:31.622953",
    "updated_at": "2018-08-24 00:41:37.236512",
    "country": "United States",
    "longitude": "-71.1478857877187",
    "latitude": "42.656149077407"
  },
  {
    "id": "3336",
    "name": "Percival Brewing Company",
    "brewery_type": "micro",
    "street": "83 Morse St",
    "city": "Norwood",
    "state": "Massachusetts",
    "postal_code": "02122",
    "website_url": "http://www.percivalbeercompany.com",
    "phone": "7816644705",
    "created_at": "2018-07-24 01:33:31.735845",
    "updated_at": "2018-08-24 00:41:40.339979",
    "country": "United States",
    "longitude": "-71.2072322984867",
    "latitude": "42.1722630460252"
  },
  {
    "id": "3354",
    "name": "Slesar Bros Brewing Co - Boston Beer Works",
    "brewery_type": "brewpub",
    "street": "112 Canal St",
    "city": "Boston",
    "state": "Massachusetts",
    "postal_code": "02114-1805",
    "website_url": "http://www.beerworks.net",
    "phone": "6178962337",
    "created_at": "2018-07-24 01:33:31.966141",
    "updated_at": "2018-08-24 00:41:47.343583",
    "country": "United States",
    "longitude": "-71.0603412",
    "latitude": "42.364473"
  },
  {
    "id": "3375",
    "name": "Wachusett Brewing Co",
    "brewery_type": "regional",
    "street": "175 State Rd E",
    "city": "Westminster",
    "state": "Massachusetts",
    "postal_code": "01473-1208",
    "website_url": "http://www.wachusettbrew.com",
    "phone": "9788749965",
    "created_at": "2018-07-24 01:33:32.268252",
    "updated_at": "2018-08-24 00:41:55.642676",
    "country": "United States",
    "longitude": "-71.872940157432",
    "latitude": "42.557835421284"
  },
  {
    "id": "3376",
    "name": "Wandering Star Brewing Co",
    "brewery_type": "micro",
    "street": "11 Gifford St",
    "city": "Pittsfield",
    "state": "Massachusetts",
    "postal_code": "01201-3701",
    "website_url": "http://www.wanderingstarbrewing.com",
    "phone": "9175733942",
    "created_at": "2018-07-24 01:33:32.280079",
    "updated_at": "2018-08-24 00:41:56.112804",
    "country": "United States",
    "longitude": "-73.2120230280269",
    "latitude": "42.4570644889269"
  },
  {
    "id": "3374",
    "name": "Vitamin Sea Brewing",
    "brewery_type": "planning",
    "street": "",
    "city": "Hull",
    "state": "Massachusetts",
    "postal_code": "02045-2907",
    "website_url": "",
    "phone": "7815894569",
    "created_at": "2018-07-24 01:33:32.256322",
    "updated_at": "2018-08-11 21:37:44.301716",
    "country": "United States",
    "longitude": "",
    "latitude": ""
  },
  {
    "id": "3209",
    "name": "7th Wave Brewing",
    "brewery_type": "micro",
    "street": "120 N Meadows Rd Ste 8",
    "city": "Medfield",
    "state": "Massachusetts",
    "postal_code": "02052-1594",
    "website_url": "http://www.7thwavebrewing.com",
    "phone": "6176453397",
    "created_at": "2018-07-24 01:33:29.970514",
    "updated_at": "2018-08-11 21:37:38.232649",
    "country": "United States",
    "longitude": "",
    "latitude": ""
  },
  {
    "id": "3212",
    "name": "Altruist Brewing Company",
    "brewery_type": "brewpub",
    "street": "559 Main St Unit 105",
    "city": "Sturbridge",
    "state": "Massachusetts",
    "postal_code": "01518-1208",
    "website_url": "http://www.altruistbrewing.com",
    "phone": "7742418022",
    "created_at": "2018-07-24 01:33:30.037413",
    "updated_at": "2018-08-11 21:37:38.319867",
    "country": "United States",
    "longitude": "",
    "latitude": ""
  },
  {
    "id": "3215",
    "name": "Anawan Brewing Company",
    "brewery_type": "planning",
    "street": "",
    "city": "Dighton",
    "state": "Massachusetts",
    "postal_code": "02764",
    "website_url": "http://www.anawanbrewingco.com",
    "phone": "7742296300",
    "created_at": "2018-07-24 01:33:30.075858",
    "updated_at": "2018-08-11 21:37:38.401993",
    "country": "United States",
    "longitude": "",
    "latitude": ""
  },
  {
    "id": "3216",
    "name": "Aquatic Brewing LLC",
    "brewery_type": "planning",
    "street": "",
    "city": "Falmouth",
    "state": "Massachusetts",
    "postal_code": "02540-3299",
    "website_url": "http://www.aquaticbrewing.com",
    "phone": "5084442155",
    "created_at": "2018-07-24 01:33:30.088394",
    "updated_at": "2018-08-11 21:37:38.43247",
    "country": "United States",
    "longitude": "",
    "latitude": ""
  },
  {
    "id": "3217",
    "name": "Arcpoint Brewing Co",
    "brewery_type": "micro",
    "street": "",
    "city": "Belchertown",
    "state": "Massachusetts",
    "postal_code": "01007-9305",
    "website_url": "http://www.arcpointbrewco.com",
    "phone": "5187964977",
    "created_at": "2018-07-24 01:33:30.102671",
    "updated_at": "2018-08-11 21:37:38.45953",
    "country": "United States",
    "longitude": "",
    "latitude": ""
  },
  {
    "id": "3218",
    "name": "Backlash Beer Co",
    "brewery_type": "contract",
    "street": "",
    "city": "Boston",
    "state": "Massachusetts",
    "postal_code": "2215",
    "website_url": "http://backlashbeer.com/",
    "phone": "",
    "created_at": "2018-07-24 01:33:30.116609",
    "updated_at": "2018-08-11 21:37:38.486156",
    "country": "United States",
    "longitude": "",
    "latitude": ""
  },
  {
    "id": "3222",
    "name": "Barrel House Z",
    "brewery_type": "micro",
    "street": "95 Woodrock Rd",
    "city": "Weymouth",
    "state": "Massachusetts",
    "postal_code": "02189-2335",
    "website_url": "http://www.barrelhousez.net",
    "phone": "3392017888",
    "created_at": "2018-07-24 01:33:30.1687",
    "updated_at": "2018-08-11 21:37:38.601035",
    "country": "United States",
    "longitude": "",
    "latitude": ""
  },
  {
    "id": "3225",
    "name": "Bay State Beer Company",
    "brewery_type": "micro",
    "street": "",
    "city": "Sturbridge",
    "state": "Massachusetts",
    "postal_code": "01566-1568",
    "website_url": "http://www.baystatebeer.com",
    "phone": "6174130939",
    "created_at": "2018-07-24 01:33:30.209263",
    "updated_at": "2018-08-11 21:37:38.686659",
    "country": "United States",
    "longitude": "",
    "latitude": ""
  },
  {
    "id": "3226",
    "name": "Bear and Bramble Brewing Company",
    "brewery_type": "micro",
    "street": "10 Payson Ave # 1",
    "city": "Easthampton",
    "state": "Massachusetts",
    "postal_code": "01027-2207",
    "website_url": "",
    "phone": "",
    "created_at": "2018-07-24 01:33:30.221394",
    "updated_at": "2018-08-11 21:37:38.716261",
    "country": "United States",
    "longitude": "",
    "latitude": ""
  },
  {
    "id": "3227",
    "name": "Bent Water Brewing Company",
    "brewery_type": "micro",
    "street": "180 Commercial St Ste 18",
    "city": "Lynn",
    "state": "Massachusetts",
    "postal_code": "01905-3058",
    "website_url": "http://www.bentwaterbrewing.com",
    "phone": "",
    "created_at": "2018-07-24 01:33:30.233994",
    "updated_at": "2018-08-11 21:37:38.744335",
    "country": "United States",
    "longitude": "",
    "latitude": ""
  },
  {
    "id": "3228",
    "name": "Berkley Beer Company",
    "brewery_type": "micro",
    "street": "",
    "city": "Berkley",
    "state": "Massachusetts",
    "postal_code": "02779-1101",
    "website_url": "http://www.berkleybeer.com",
    "phone": "5083269954",
    "created_at": "2018-07-24 01:33:30.246262",
    "updated_at": "2018-08-11 21:37:38.771821",
    "country": "United States",
    "longitude": "",
    "latitude": ""
  },
  {
    "id": "3206",
    "name": "10th District Brewing Company",
    "brewery_type": "micro",
    "street": "491 Washington St",
    "city": "Abington",
    "state": "Massachusetts",
    "postal_code": "02351-2419",
    "website_url": "http://www.10thdistrictbrewing.com",
    "phone": "7813071554",
    "created_at": "2018-07-24 01:33:29.932861",
    "updated_at": "2018-08-24 00:40:55.685575",
    "country": "United States",
    "longitude": "-70.9459414892185",
    "latitude": "42.1059175414395"
  },
  {
    "id": "3207",
    "name": "3 Beards Beer Company",
    "brewery_type": "contract",
    "street": "4 Main St",
    "city": "Williamsburg",
    "state": "Massachusetts",
    "postal_code": "01096",
    "website_url": "http://www.3beardsbeer.com",
    "phone": "6173837039",
    "created_at": "2018-07-24 01:33:29.944674",
    "updated_at": "2018-08-24 00:40:56.152198",
    "country": "United States",
    "longitude": "-72.7305059",
    "latitude": "42.3923659"
  },
  {
    "id": "3208",
    "name": "3cross Fermentation Cooperative",
    "brewery_type": "micro",
    "street": "4 Knowlton Ave",
    "city": "Worcester",
    "state": "Massachusetts",
    "postal_code": "01603",
    "website_url": "http://www.3cross.coop",
    "phone": "5086158195",
    "created_at": "2018-07-24 01:33:29.957597",
    "updated_at": "2018-08-24 00:40:56.595037",
    "country": "United States",
    "longitude": "-71.8305759340224",
    "latitude": "42.2436487455576"
  },
  {
    "id": "3211",
    "name": "Aeronaut Brewing Company",
    "brewery_type": "micro",
    "street": "14 Tyler St",
    "city": "Somerville",
    "state": "Massachusetts",
    "postal_code": "02143-3224",
    "website_url": "http://www.aeronautbrewing.com",
    "phone": "6179874236",
    "created_at": "2018-07-24 01:33:29.995322",
    "updated_at": "2018-08-24 00:40:57.942731",
    "country": "United States",
    "longitude": "-71.1062676",
    "latitude": "42.3819723"
  },
  {
    "id": "3213",
    "name": "Amherst Brewing Co / Hangar Pub and Grill",
    "brewery_type": "brewpub",
    "street": "10 University Dr",
    "city": "Amherst",
    "state": "Massachusetts",
    "postal_code": "01002-2243",
    "website_url": "http://www.amherstbrewing.com",
    "phone": "4132534400",
    "created_at": "2018-07-24 01:33:30.049963",
    "updated_at": "2018-08-24 00:40:58.846335",
    "country": "United States",
    "longitude": "-72.5318418",
    "latitude": "42.3728635"
  },
  {
    "id": "3214",
    "name": "Amorys Tomb Brewing Co",
    "brewery_type": "micro",
    "street": "76 Main St",
    "city": "Maynard",
    "state": "Massachusetts",
    "postal_code": "01754-2516",
    "website_url": "http://amorystomb.com",
    "phone": "9782430875",
    "created_at": "2018-07-24 01:33:30.063307",
    "updated_at": "2018-08-24 00:40:59.326948",
    "country": "United States",
    "longitude": "-71.4531564394476",
    "latitude": "42.43203845"
  },
  {
    "id": "3219",
    "name": "Bad Martha Farmer's Brewery",
    "brewery_type": "brewpub",
    "street": "270 Upper Main St",
    "city": "Edgartown",
    "state": "Massachusetts",
    "postal_code": "02539-",
    "website_url": "http://www.badmarthabeer.com",
    "phone": "5089394415",
    "created_at": "2018-07-24 01:33:30.129902",
    "updated_at": "2018-08-24 00:40:59.760978",
    "country": "United States",
    "longitude": "-70.52732",
    "latitude": "41.394402"
  },
  {
    "id": "3220",
    "name": "BareWolf Brewing",
    "brewery_type": "micro",
    "street": "12 Oakland St",
    "city": "Amesbury",
    "state": "Massachusetts",
    "postal_code": "01913",
    "website_url": "http://www.barewolfbrewing.com",
    "phone": "9783906540",
    "created_at": "2018-07-24 01:33:30.142799",
    "updated_at": "2018-08-24 00:41:00.813237",
    "country": "United States",
    "longitude": "-70.9233651776547",
    "latitude": "42.856069285464"
  },
  {
    "id": "3221",
    "name": "Barnstable Brewing",
    "brewery_type": "micro",
    "street": "485 W Main St",
    "city": "Hyannis",
    "state": "Massachusetts",
    "postal_code": "02601-3644",
    "website_url": "http://www.barnstablebrewing.com",
    "phone": "7744706989",
    "created_at": "2018-07-24 01:33:30.155448",
    "updated_at": "2018-08-24 00:41:01.290465",
    "country": "United States",
    "longitude": "-70.311595943756",
    "latitude": "41.6491351739202"
  },
  {
    "id": "3224",
    "name": "Battle Road Brewing Co",
    "brewery_type": "micro",
    "street": "5 Clock Tower Pl",
    "city": "Maynard",
    "state": "Massachusetts",
    "postal_code": "01754-2530",
    "website_url": "http://www.battleroadbh.com",
    "phone": "9782985229",
    "created_at": "2018-07-24 01:33:30.195308",
    "updated_at": "2018-08-24 00:41:02.245222",
    "country": "United States",
    "longitude": "-71.4541611252225",
    "latitude": "42.43001225"
  },
  {
    "id": "3231",
    "name": "Black Hat Brew Works",
    "brewery_type": "micro",
    "street": "25 Scotland Blvd # 1",
    "city": "Bridgewater",
    "state": "Massachusetts",
    "postal_code": "02324-2302",
    "website_url": "http://www.blackhatbrewworks.com",
    "phone": "5088075172",
    "created_at": "2018-07-24 01:33:30.286704",
    "updated_at": "2018-08-11 21:37:38.855572",
    "country": "United States",
    "longitude": "",
    "latitude": ""
  },
  {
    "id": "3235",
    "name": "Boston Beer Co",
    "brewery_type": "micro",
    "street": "1 Design Center Pl Ste 850",
    "city": "Boston",
    "state": "Massachusetts",
    "postal_code": "02210-2300",
    "website_url": "",
    "phone": "6173685000",
    "created_at": "2018-07-24 01:33:30.335772",
    "updated_at": "2018-08-11 21:37:38.969329",
    "country": "United States",
    "longitude": "",
    "latitude": ""
  },
  {
    "id": "3237",
    "name": "Brazo Fuerte Artisanal Beer",
    "brewery_type": "proprietor",
    "street": "15 Main St Ste 125",
    "city": "Watertown",
    "state": "Massachusetts",
    "postal_code": "02472-4403",
    "website_url": "http://www.brazofuertebeer.com",
    "phone": "6176008140",
    "created_at": "2018-07-24 01:33:30.36337",
    "updated_at": "2018-08-11 21:37:39.029349",
    "country": "United States",
    "longitude": "",
    "latitude": ""
  },
  {
    "id": "3238",
    "name": "Brew Practitioners, LLC.",
    "brewery_type": "micro",
    "street": "36 Main St",
    "city": "Florence",
    "state": "Massachusetts",
    "postal_code": "01062-3152",
    "website_url": "http://www.brewpractitioners.com",
    "phone": "4135842444",
    "created_at": "2018-07-24 01:33:30.375089",
    "updated_at": "2018-08-11 21:37:39.053973",
    "country": "United States",
    "longitude": "",
    "latitude": ""
  },
  {
    "id": "3239",
    "name": "Brewery In Planning - Bolton",
    "brewery_type": "planning",
    "street": "",
    "city": "Bolton",
    "state": "Massachusetts",
    "postal_code": "01740-1027",
    "website_url": "http://sites.google.com/site/greenroadbrewing/",
    "phone": "9788955931",
    "created_at": "2018-07-24 01:33:30.38811",
    "updated_at": "2018-08-11 21:37:39.106674",
    "country": "United States",
    "longitude": "",
    "latitude": ""
  },
  {
    "id": "3240",
    "name": "Brewery in Planning - Brookline",
    "brewery_type": "planning",
    "street": "",
    "city": "Brookline",
    "state": "Massachusetts",
    "postal_code": "02446-2209",
    "website_url": "",
    "phone": "",
    "created_at": "2018-07-24 01:33:30.400121",
    "updated_at": "2018-08-11 21:37:39.149519",
    "country": "United States",
    "longitude": "",
    "latitude": ""
  },
  {
    "id": "3242",
    "name": "Brewery in Planning - Ipswich",
    "brewery_type": "planning",
    "street": "",
    "city": "Ipswich",
    "state": "Massachusetts",
    "postal_code": "01938-1074",
    "website_url": "",
    "phone": "",
    "created_at": "2018-07-24 01:33:30.42697",
    "updated_at": "2018-08-11 21:37:39.222531",
    "country": "United States",
    "longitude": "",
    "latitude": ""
  },
  {
    "id": "3243",
    "name": "Brewery in Planning - Ludlow",
    "brewery_type": "planning",
    "street": "",
    "city": "Ludlow",
    "state": "Massachusetts",
    "postal_code": "01056-3517",
    "website_url": "",
    "phone": "",
    "created_at": "2018-07-24 01:33:30.439853",
    "updated_at": "2018-08-11 21:37:39.282539",
    "country": "United States",
    "longitude": "",
    "latitude": ""
  },
  {
    "id": "3244",
    "name": "Brewery in Planning - Mashpee",
    "brewery_type": "planning",
    "street": "",
    "city": "Mashpee",
    "state": "Massachusetts",
    "postal_code": "02649-2248",
    "website_url": "http://www.karmawheelbrewing.com",
    "phone": "5082749278",
    "created_at": "2018-07-24 01:33:30.453333",
    "updated_at": "2018-08-11 21:37:39.314253",
    "country": "United States",
    "longitude": "",
    "latitude": ""
  },
  {
    "id": "3245",
    "name": "Brewery In Planning - Petersham",
    "brewery_type": "planning",
    "street": "",
    "city": "New Salem",
    "state": "Massachusetts",
    "postal_code": "01355",
    "website_url": "",
    "phone": "",
    "created_at": "2018-07-24 01:33:30.467175",
    "updated_at": "2018-08-11 21:37:39.345449",
    "country": "United States",
    "longitude": "",
    "latitude": ""
  },
  {
    "id": "3246",
    "name": "Brewery In Planning - Stockbridge",
    "brewery_type": "planning",
    "street": "",
    "city": "Stockbridge",
    "state": "Massachusetts",
    "postal_code": "01262-1202",
    "website_url": "",
    "phone": "",
    "created_at": "2018-07-24 01:33:30.483603",
    "updated_at": "2018-08-11 21:37:39.374023",
    "country": "United States",
    "longitude": "",
    "latitude": ""
  },
  {
    "id": "3248",
    "name": "Brewery in Planning - Winchester, MA",
    "brewery_type": "planning",
    "street": "",
    "city": "Winchester",
    "state": "Massachusetts",
    "postal_code": "01890",
    "website_url": "",
    "phone": "6174381338",
    "created_at": "2018-07-24 01:33:30.511168",
    "updated_at": "2018-08-11 21:37:39.451284",
    "country": "United States",
    "longitude": "",
    "latitude": ""
  },
  {
    "id": "3249",
    "name": "Brewery In Planning- South Hadley, MA.",
    "brewery_type": "planning",
    "street": "",
    "city": "Chicopee",
    "state": "Massachusetts",
    "postal_code": "01020-2216",
    "website_url": "http://www.leadfootbrewing.com",
    "phone": "4132460741",
    "created_at": "2018-07-24 01:33:30.524413",
    "updated_at": "2018-08-11 21:37:39.485494",
    "country": "United States",
    "longitude": "",
    "latitude": ""
  },
  {
    "id": "3253",
    "name": "Brick and Feather Brewery",
    "brewery_type": "micro",
    "street": "78 11th St",
    "city": "Turners Falls",
    "state": "Massachusetts",
    "postal_code": "01376-1020",
    "website_url": "http://www.brickandfeatherbrewery.com",
    "phone": "4138632574",
    "created_at": "2018-07-24 01:33:30.572898",
    "updated_at": "2018-08-11 21:37:39.599656",
    "country": "United States",
    "longitude": "",
    "latitude": ""
  },
  {
    "id": "3254",
    "name": "Bright Ideas Brewing",
    "brewery_type": "micro",
    "street": "111 Mass Moca Way",
    "city": "North Adams",
    "state": "Massachusetts",
    "postal_code": "01247-2411",
    "website_url": "http://www.brightideasbrewing.com",
    "phone": "4133464460",
    "created_at": "2018-07-24 01:33:30.586059",
    "updated_at": "2018-08-11 21:37:39.631716",
    "country": "United States",
    "longitude": "",
    "latitude": ""
  },
  {
    "id": "3255",
    "name": "Building 8 Brewing",
    "brewery_type": "micro",
    "street": "320 Riverside Dr Ste 8",
    "city": "Florence",
    "state": "Massachusetts",
    "postal_code": "01062-2750",
    "website_url": "",
    "phone": "4132501602",
    "created_at": "2018-07-24 01:33:30.623652",
    "updated_at": "2018-08-11 21:37:39.662574",
    "country": "United States",
    "longitude": "",
    "latitude": ""
  },
  {
    "id": "3256",
    "name": "Burke's Alewerks",
    "brewery_type": "micro",
    "street": "200 Webster St Ste 3",
    "city": "Hanover",
    "state": "Massachusetts",
    "postal_code": "02339-1230",
    "website_url": "http://www.burkesalewerks.com",
    "phone": "7813128207",
    "created_at": "2018-07-24 01:33:30.642083",
    "updated_at": "2018-08-11 21:37:39.702025",
    "country": "United States",
    "longitude": "",
    "latitude": ""
  },
  {
    "id": "3260",
    "name": "Cape Ann Lanes",
    "brewery_type": "planning",
    "street": "",
    "city": "Gloucester",
    "state": "Massachusetts",
    "postal_code": "01930-2256",
    "website_url": "",
    "phone": "9788799714",
    "created_at": "2018-07-24 01:33:30.696158",
    "updated_at": "2018-08-11 21:37:39.833808",
    "country": "United States",
    "longitude": "",
    "latitude": ""
  },
  {
    "id": "3261",
    "name": "Cape Cod Beer",
    "brewery_type": "micro",
    "street": "1336 Phinneys Ln Ste 2-2",
    "city": "Hyannis",
    "state": "Massachusetts",
    "postal_code": "02601-1875",
    "website_url": "http://www.capecodbeer.com",
    "phone": "5087904200",
    "created_at": "2018-07-24 01:33:30.70887",
    "updated_at": "2018-08-11 21:37:39.887927",
    "country": "United States",
    "longitude": "",
    "latitude": ""
  },
  {
    "id": "3263",
    "name": "Cedar Point Brewery",
    "brewery_type": "planning",
    "street": "",
    "city": "Scituate",
    "state": "Massachusetts",
    "postal_code": "02066-1317",
    "website_url": "",
    "phone": "7818311724",
    "created_at": "2018-07-24 01:33:30.733379",
    "updated_at": "2018-08-11 21:37:39.971459",
    "country": "United States",
    "longitude": "",
    "latitude": ""
  },
  {
    "id": "3264",
    "name": "Charlton Beer Company",
    "brewery_type": "micro",
    "street": "",
    "city": "Charlton",
    "state": "Massachusetts",
    "postal_code": "01507",
    "website_url": "http://www.charltonbeercompany.com",
    "phone": "5082485627",
    "created_at": "2018-07-24 01:33:30.745496",
    "updated_at": "2018-08-11 21:37:39.997874",
    "country": "United States",
    "longitude": "",
    "latitude": ""
  },
  {
    "id": "3268",
    "name": "Cold Harbor Brewing Company",
    "brewery_type": "micro",
    "street": "108 Milk St Ste 6",
    "city": "Westborough",
    "state": "Massachusetts",
    "postal_code": "01581-1228",
    "website_url": "http://www.coldharborbrewing.com",
    "phone": "",
    "created_at": "2018-07-24 01:33:30.81183",
    "updated_at": "2018-08-11 21:37:40.519809",
    "country": "United States",
    "longitude": "",
    "latitude": ""
  },
  {
    "id": "3269",
    "name": "CraftRoots Brewing, LLC.",
    "brewery_type": "micro",
    "street": "4 Industrial Rd Ste 8",
    "city": "Milford",
    "state": "Massachusetts",
    "postal_code": "01757-3589",
    "website_url": "http://www.craftrootsbrewing.com",
    "phone": "5083811920",
    "created_at": "2018-07-24 01:33:30.827613",
    "updated_at": "2018-08-11 21:37:40.566544",
    "country": "United States",
    "longitude": "",
    "latitude": ""
  },
  {
    "id": "3270",
    "name": "Crue Brew Brewery",
    "brewery_type": "micro",
    "street": "95 Ryan Dr Ste 6",
    "city": "Raynham",
    "state": "Massachusetts",
    "postal_code": "02767-1992",
    "website_url": "http://www.cruebrewbrewery.com",
    "phone": "5082726090",
    "created_at": "2018-07-24 01:33:30.840266",
    "updated_at": "2018-08-11 21:37:40.614751",
    "country": "United States",
    "longitude": "",
    "latitude": ""
  },
  {
    "id": "3274",
    "name": "Distraction Brewing Company",
    "brewery_type": "planning",
    "street": "",
    "city": "Roslindale",
    "state": "Massachusetts",
    "postal_code": "02131-3006",
    "website_url": "http://www.distractionbrewingco.com",
    "phone": "",
    "created_at": "2018-07-24 01:33:30.89915",
    "updated_at": "2018-08-11 21:37:40.800119",
    "country": "United States",
    "longitude": "",
    "latitude": ""
  },
  {
    "id": "3232",
    "name": "Bog Iron Brewing Co",
    "brewery_type": "micro",
    "street": "33 W Main St",
    "city": "Norton",
    "state": "Massachusetts",
    "postal_code": "02766-2711",
    "website_url": "",
    "phone": "5089520555",
    "created_at": "2018-07-24 01:33:30.298772",
    "updated_at": "2018-08-24 00:41:05.26829",
    "country": "United States",
    "longitude": "-71.1884994212408",
    "latitude": "41.9665846823839"
  },
  {
    "id": "3233",
    "name": "Bolton Beer Works",
    "brewery_type": "brewpub",
    "street": "100 Wattaquadock Hill Rd",
    "city": "Bolton",
    "state": "Massachusetts",
    "postal_code": "01740-1238",
    "website_url": "http://boltonbeerworks.com",
    "phone": "9787795521",
    "created_at": "2018-07-24 01:33:30.31106",
    "updated_at": "2018-08-24 00:41:05.734116",
    "country": "United States",
    "longitude": "-71.619812",
    "latitude": "42.430173"
  },
  {
    "id": "3234",
    "name": "Bone Up Brewing Co.",
    "brewery_type": "micro",
    "street": "38 Norman St",
    "city": "Everett",
    "state": "Massachusetts",
    "postal_code": "02149-1932",
    "website_url": "http://www.boneup.beer",
    "phone": "7816919092",
    "created_at": "2018-07-24 01:33:30.323267",
    "updated_at": "2018-08-24 00:41:06.198098",
    "country": "United States",
    "longitude": "-71.0663396",
    "latitude": "42.405551"
  },
  {
    "id": "3250",
    "name": "Brewery Silvaticus",
    "brewery_type": "brewpub",
    "street": "9 Water St",
    "city": "Amesbury",
    "state": "Massachusetts",
    "postal_code": "01913-2936",
    "website_url": "http://www.silvaticusbeers.com",
    "phone": "9785042337",
    "created_at": "2018-07-24 01:33:30.536976",
    "updated_at": "2018-08-24 00:41:08.672545",
    "country": "United States",
    "longitude": "-70.9295559",
    "latitude": "42.8573815"
  },
  {
    "id": "3257",
    "name": "Buzzards Bay Brewing Co",
    "brewery_type": "micro",
    "street": "98 Horseneck Rd",
    "city": "Westport",
    "state": "Massachusetts",
    "postal_code": "02790-1399",
    "website_url": "http://www.buzzardsbrew.com",
    "phone": "5086362288",
    "created_at": "2018-07-24 01:33:30.655062",
    "updated_at": "2018-08-24 00:41:11.09863",
    "country": "United States",
    "longitude": "-71.0497046109378",
    "latitude": "41.5520745592303"
  },
  {
    "id": "3259",
    "name": "Cape Ann Brewing Co",
    "brewery_type": "brewpub",
    "street": "11 Rogers St",
    "city": "Gloucester",
    "state": "Massachusetts",
    "postal_code": "01930-5014",
    "website_url": "",
    "phone": "9782827399",
    "created_at": "2018-07-24 01:33:30.681116",
    "updated_at": "2018-08-24 00:41:11.944651",
    "country": "United States",
    "longitude": "-70.6650934421008",
    "latitude": "42.6116160165143"
  },
  {
    "id": "3262",
    "name": "Castle Island Brewing Co.",
    "brewery_type": "micro",
    "street": "31 Astor Ave",
    "city": "Norwood",
    "state": "Massachusetts",
    "postal_code": "02062-5016",
    "website_url": "http://www.castleislandbeer.com",
    "phone": "7819512029",
    "created_at": "2018-07-24 01:33:30.721319",
    "updated_at": "2018-08-24 00:41:12.832117",
    "country": "United States",
    "longitude": "-71.1918643775713",
    "latitude": "42.1693129661749"
  },
  {
    "id": "3265",
    "name": "Cheeky Monkey Brewing Co / Lucky Strike Jillians",
    "brewery_type": "brewpub",
    "street": "3 Lansdowne St",
    "city": "Boston",
    "state": "Massachusetts",
    "postal_code": "02215-3412",
    "website_url": "http://www.cheekymonkeyboston.com",
    "phone": "6178590030",
    "created_at": "2018-07-24 01:33:30.758145",
    "updated_at": "2018-08-24 00:41:13.247512",
    "country": "United States",
    "longitude": "-71.0946215",
    "latitude": "42.34729"
  },
  {
    "id": "3266",
    "name": "Cisco Brewers",
    "brewery_type": "micro",
    "street": "5 Bartlett Farm Rd",
    "city": "Nantucket",
    "state": "Massachusetts",
    "postal_code": "02554-4341",
    "website_url": "http://www.ciscobrewers.com",
    "phone": "5083255929",
    "created_at": "2018-07-24 01:33:30.775775",
    "updated_at": "2018-08-24 00:41:13.666331",
    "country": "United States",
    "longitude": "-70.1292844954849",
    "latitude": "41.2613581544694"
  },
  {
    "id": "3272",
    "name": "Democracy Brewing",
    "brewery_type": "brewpub",
    "street": "35 Temple Pl",
    "city": "Boston",
    "state": "Massachusetts",
    "postal_code": "02111",
    "website_url": "http://www.democracybrewing.com",
    "phone": "8572172739",
    "created_at": "2018-07-24 01:33:30.87399",
    "updated_at": "2018-08-24 00:41:15.98947",
    "country": "United States",
    "longitude": "-71.0623157813541",
    "latitude": "42.3552962282976"
  },
  {
    "id": "3273",
    "name": "Devil's Purse Brewing Co",
    "brewery_type": "micro",
    "street": "120 Great Western Rd",
    "city": "South Dennis",
    "state": "Massachusetts",
    "postal_code": "02660-3715",
    "website_url": "http://www.devilspurse.com",
    "phone": "5086947171",
    "created_at": "2018-07-24 01:33:30.886052",
    "updated_at": "2018-08-24 00:41:16.421965",
    "country": "United States",
    "longitude": "-70.1416854",
    "latitude": "41.6885379"
  },
  {
    "id": "3275",
    "name": "Dorchester Brewing Company",
    "brewery_type": "micro",
    "street": "1250 Massachusetts Ave",
    "city": "Dorchester",
    "state": "Massachusetts",
    "postal_code": "02125-1698",
    "website_url": "http://www.dorchesterbrewing.com",
    "phone": "6175140900",
    "created_at": "2018-07-24 01:33:30.911981",
    "updated_at": "2018-08-24 00:41:16.877904",
    "country": "United States",
    "longitude": "-71.0615585",
    "latitude": "42.3204879"
  },
  {
    "id": "3276",
    "name": "Down the Road Brewery",
    "brewery_type": "micro",
    "street": "199 Ashland Street",
    "city": "Everett",
    "state": "Massachusetts",
    "postal_code": "02149",
    "website_url": "http://www.downtheroadbrewery.com",
    "phone": "6174544255",
    "created_at": "2018-07-24 01:33:30.924855",
    "updated_at": "2018-08-24 00:41:17.302149",
    "country": "United States",
    "longitude": "-71.061481",
    "latitude": "42.397645"
  },
  {
    "id": "3277",
    "name": "Drunken Rabbit Brewing",
    "brewery_type": "micro",
    "street": "749A New Ludlow Rd",
    "city": "South Hadley",
    "state": "Massachusetts",
    "postal_code": "01020",
    "website_url": "http://www.rabbit.beer",
    "phone": "4137282739",
    "created_at": "2018-07-24 01:33:30.938075",
    "updated_at": "2018-08-24 00:41:17.764563",
    "country": "United States",
    "longitude": "-72.553245",
    "latitude": "42.217914"
  },
  {
    "id": "3278",
    "name": "Element Brewing Co",
    "brewery_type": "micro",
    "street": "16 Bridge St",
    "city": "Millers Falls",
    "state": "Massachusetts",
    "postal_code": "01349-1336",
    "website_url": "http://www.elementbeer.com",
    "phone": "4138356340",
    "created_at": "2018-07-24 01:33:30.952262",
    "updated_at": "2018-08-24 00:41:18.209818",
    "country": "United States",
    "longitude": "-72.4951603879466",
    "latitude": "42.5795092914357"
  },
  {
    "id": "3283",
    "name": "Gentile Brewing Company",
    "brewery_type": "micro",
    "street": "59 Park St # 1",
    "city": "Beverly",
    "state": "Massachusetts",
    "postal_code": "01915-4253",
    "website_url": "http://www.gentilebrewing.com",
    "phone": "9789696496",
    "created_at": "2018-07-24 01:33:31.021788",
    "updated_at": "2018-08-11 21:37:41.134639",
    "country": "United States",
    "longitude": "",
    "latitude": ""
  },
  {
    "id": "3284",
    "name": "Goat Creek Brewing",
    "brewery_type": "planning",
    "street": "",
    "city": "Northampton",
    "state": "Massachusetts",
    "postal_code": "01062-1326",
    "website_url": "",
    "phone": "",
    "created_at": "2018-07-24 01:33:31.035035",
    "updated_at": "2018-08-11 21:37:41.181381",
    "country": "United States",
    "longitude": "",
    "latitude": ""
  },
  {
    "id": "3290",
    "name": "Hingham Beer Works",
    "brewery_type": "brewpub",
    "street": "18 Shipyard Dr Ste 1K",
    "city": "Hingham",
    "state": "Massachusetts",
    "postal_code": "02043-1670",
    "website_url": "",
    "phone": "7817492337",
    "created_at": "2018-07-24 01:33:31.113489",
    "updated_at": "2018-08-11 21:37:41.484468",
    "country": "United States",
    "longitude": "",
    "latitude": ""
  },
  {
    "id": "3292",
    "name": "Hog Island Beer Company",
    "brewery_type": "micro",
    "street": "PO Box 1901",
    "city": "Orleans",
    "state": "Massachusetts",
    "postal_code": "02653-1901",
    "website_url": "http://www.hogislandbeerco.com",
    "phone": "5082552337",
    "created_at": "2018-07-24 01:33:31.138811",
    "updated_at": "2018-08-11 21:37:41.594557",
    "country": "United States",
    "longitude": "",
    "latitude": ""
  },
  {
    "id": "3294",
    "name": "Honest Weight Artisan Beer",
    "brewery_type": "micro",
    "street": "131 W Main St Ste 104",
    "city": "Orange",
    "state": "Massachusetts",
    "postal_code": "01364-1159",
    "website_url": "http://www.honestweightbeer.com",
    "phone": "4135376659",
    "created_at": "2018-07-24 01:33:31.164051",
    "updated_at": "2018-08-11 21:37:41.722251",
    "country": "United States",
    "longitude": "",
    "latitude": ""
  },
  {
    "id": "3298",
    "name": "Ipswich Ale Brewery",
    "brewery_type": "regional",
    "street": "2 Brewery Pl",
    "city": "Ipswich",
    "state": "Massachusetts",
    "postal_code": "01938-1196",
    "website_url": "http://www.ipswichalebrewery.com",
    "phone": "9783563329",
    "created_at": "2018-07-24 01:33:31.214853",
    "updated_at": "2018-08-11 21:37:41.910609",
    "country": "United States",
    "longitude": "",
    "latitude": ""
  },
  {
    "id": "3299",
    "name": "Iron Duke Brewing Co",
    "brewery_type": "micro",
    "street": "100 State St Ste 122",
    "city": "Ludlow",
    "state": "Massachusetts",
    "postal_code": "01056-3435",
    "website_url": "http://www.irondukebrewing.com",
    "phone": "4136246258",
    "created_at": "2018-07-24 01:33:31.227272",
    "updated_at": "2018-08-11 21:37:41.939355",
    "country": "United States",
    "longitude": "",
    "latitude": ""
  },
  {
    "id": "3302",
    "name": "Kismet Brewing Company",
    "brewery_type": "planning",
    "street": "",
    "city": "Westfield",
    "state": "Massachusetts",
    "postal_code": "01085",
    "website_url": "http://www.kismetbrewing.com",
    "phone": "9789957711",
    "created_at": "2018-07-24 01:33:31.279716",
    "updated_at": "2018-08-11 21:37:42.024769",
    "country": "United States",
    "longitude": "",
    "latitude": ""
  },
  {
    "id": "3304",
    "name": "Lamplighter Brewing Co.",
    "brewery_type": "micro",
    "street": "284 Broadway",
    "city": "Cambridge",
    "state": "Massachusetts",
    "postal_code": "02139-1808",
    "website_url": "http://www.lamplighterbrewing.com",
    "phone": "6179450450",
    "created_at": "2018-07-24 01:33:31.304875",
    "updated_at": "2018-08-11 21:37:42.077983",
    "country": "United States",
    "longitude": "",
    "latitude": ""
  },
  {
    "id": "3309",
    "name": "Lyons Den Brewing Co.",
    "brewery_type": "planning",
    "street": "",
    "city": "Wrentham",
    "state": "Massachusetts",
    "postal_code": "02093",
    "website_url": "",
    "phone": "",
    "created_at": "2018-07-24 01:33:31.37077",
    "updated_at": "2018-08-11 21:37:42.222256",
    "country": "United States",
    "longitude": "",
    "latitude": ""
  },
  {
    "id": "3321",
    "name": "New City Brewery",
    "brewery_type": "micro",
    "street": "180 Pleasant St Ste 2",
    "city": "Easthampton",
    "state": "Massachusetts",
    "postal_code": "01027-1297",
    "website_url": "",
    "phone": "4135292000",
    "created_at": "2018-07-24 01:33:31.547156",
    "updated_at": "2018-08-11 21:37:42.552132",
    "country": "United States",
    "longitude": "",
    "latitude": ""
  },
  {
    "id": "3323",
    "name": "Night Shift Brewing",
    "brewery_type": "planning",
    "street": "",
    "city": "Boston",
    "state": "Massachusetts",
    "postal_code": "02114",
    "website_url": "",
    "phone": "",
    "created_at": "2018-07-24 01:33:31.571664",
    "updated_at": "2018-08-11 21:37:42.6344",
    "country": "United States",
    "longitude": "",
    "latitude": ""
  },
  {
    "id": "3281",
    "name": "Flying Dreams Brewing Co.",
    "brewery_type": "micro",
    "street": "455B Park Ave",
    "city": "Worcester",
    "state": "Massachusetts",
    "postal_code": "01610",
    "website_url": "http://www.flyingdreamsbrewing.com",
    "phone": "5089268251",
    "created_at": "2018-07-24 01:33:30.993567",
    "updated_at": "2018-08-24 00:41:19.667359",
    "country": "United States",
    "longitude": "-71.8261885714286",
    "latitude": "42.2541995714286"
  },
  {
    "id": "3282",
    "name": "Fort Hill Brewery",
    "brewery_type": "micro",
    "street": "30 Fort Hill Rd",
    "city": "Easthampton",
    "state": "Massachusetts",
    "postal_code": "01027-1268",
    "website_url": "http://www.forthillbrewery.com",
    "phone": "4132035754",
    "created_at": "2018-07-24 01:33:31.007637",
    "updated_at": "2018-08-24 00:41:20.144595",
    "country": "United States",
    "longitude": "-72.6414309757094",
    "latitude": "42.2850315371962"
  },
  {
    "id": "3286",
    "name": "Greater Good Imperial Brew Co",
    "brewery_type": "brewpub",
    "street": "55 Millbrook St",
    "city": "Worcester",
    "state": "Massachusetts",
    "postal_code": "01606",
    "website_url": "http://www.greatergoodimperials.com",
    "phone": "",
    "created_at": "2018-07-24 01:33:31.060791",
    "updated_at": "2018-08-24 00:41:21.561723",
    "country": "United States",
    "longitude": "-71.8035550289181",
    "latitude": "42.2891295038281"
  },
  {
    "id": "3287",
    "name": "Harpoon Brewery",
    "brewery_type": "regional",
    "street": "306 Northern Ave Ste 2",
    "city": "Boston",
    "state": "Massachusetts",
    "postal_code": "02210-2367",
    "website_url": "http://www.harpoonbrewery.com",
    "phone": "6175749551",
    "created_at": "2018-07-24 01:33:31.076706",
    "updated_at": "2018-08-24 00:41:22.031971",
    "country": "United States",
    "longitude": "-71.0348293",
    "latitude": "42.3465637"
  },
  {
    "id": "3288",
    "name": "Henry And Fran Brewing",
    "brewery_type": "micro",
    "street": "185 Laurel St",
    "city": "West Boylston",
    "state": "Massachusetts",
    "postal_code": "01583-1535",
    "website_url": "",
    "phone": "4253273457",
    "created_at": "2018-07-24 01:33:31.089641",
    "updated_at": "2018-08-24 00:41:22.468031",
    "country": "United States",
    "longitude": "-71.8102670314576",
    "latitude": "42.3916689698943"
  },
  {
    "id": "3289",
    "name": "High Horse Brewery and Bistro",
    "brewery_type": "contract",
    "street": "24 N Pleasant St",
    "city": "Amherst",
    "state": "Massachusetts",
    "postal_code": "01002-1703",
    "website_url": "http://www.highhorsebrewing.com",
    "phone": "4132303034",
    "created_at": "2018-07-24 01:33:31.101326",
    "updated_at": "2018-08-24 00:41:22.94714",
    "country": "United States",
    "longitude": "-72.5201343",
    "latitude": "42.376218"
  },
  {
    "id": "3291",
    "name": "Hitchcock Brewing Company",
    "brewery_type": "micro",
    "street": "129 Christian Ln",
    "city": "Whately",
    "state": "Massachusetts",
    "postal_code": "01093",
    "website_url": "http://www.hitchcockbrewing.com",
    "phone": "4136952400",
    "created_at": "2018-07-24 01:33:31.125616",
    "updated_at": "2018-08-24 00:41:23.978207",
    "country": "United States",
    "longitude": "-72.6064122239763",
    "latitude": "42.4460651094895"
  },
  {
    "id": "3295",
    "name": "Hopsters",
    "brewery_type": "brewpub",
    "street": "292 Centre St",
    "city": "Newton",
    "state": "Massachusetts",
    "postal_code": "02458-1618",
    "website_url": "http://www.hopstersbrew.com",
    "phone": "6179160752",
    "created_at": "2018-07-24 01:33:31.176164",
    "updated_at": "2018-08-24 00:41:25.042744",
    "country": "United States",
    "longitude": "-71.1852104",
    "latitude": "42.3560516"
  },
  {
    "id": "3296",
    "name": "Idle Hands Craft Ales",
    "brewery_type": "micro",
    "street": "89 Commercial St",
    "city": "Malden",
    "state": "Massachusetts",
    "postal_code": "02148-5509",
    "website_url": "http://www.idlehandscraftales.com",
    "phone": "7813336070",
    "created_at": "2018-07-24 01:33:31.188506",
    "updated_at": "2018-08-24 00:41:25.475082",
    "country": "United States",
    "longitude": "-71.0747308442765",
    "latitude": "42.4243819"
  },
  {
    "id": "3300",
    "name": "Jack's Abby Brewing",
    "brewery_type": "regional",
    "street": "100 Clinton St",
    "city": "Framingham",
    "state": "Massachusetts",
    "postal_code": "01702-6748",
    "website_url": "http://www.jacksabbybrewing.com",
    "phone": "5088720900",
    "created_at": "2018-07-24 01:33:31.241731",
    "updated_at": "2018-08-24 00:41:27.212436",
    "country": "United States",
    "longitude": "-71.4109021",
    "latitude": "42.2800852"
  },
  {
    "id": "3303",
    "name": "Kretschmann Brewing Company",
    "brewery_type": "micro",
    "street": "9 Frederick St",
    "city": "Webster",
    "state": "Massachusetts",
    "postal_code": "01570-2286",
    "website_url": "http://kbcbrewery.com",
    "phone": "5086717711",
    "created_at": "2018-07-24 01:33:31.293086",
    "updated_at": "2018-08-24 00:41:28.144719",
    "country": "United States",
    "longitude": "-71.8807960968361",
    "latitude": "42.0500419070128"
  },
  {
    "id": "3305",
    "name": "Lefty's Brewing Co",
    "brewery_type": "micro",
    "street": "301 Wells St",
    "city": "Greenfield",
    "state": "Massachusetts",
    "postal_code": "01301",
    "website_url": "http://www.leftysbrew.com",
    "phone": "4136486111",
    "created_at": "2018-07-24 01:33:31.317333",
    "updated_at": "2018-08-24 00:41:28.581095",
    "country": "United States",
    "longitude": "-72.6068606666667",
    "latitude": "42.6012160416667"
  },
  {
    "id": "3306",
    "name": "Lookout Farm Brewing And Cider Co",
    "brewery_type": "micro",
    "street": "89 Pleasant St",
    "city": "Natick",
    "state": "Massachusetts",
    "postal_code": "01760-5669",
    "website_url": "http://www.lookoutfarmbrewing.com",
    "phone": "5086511539",
    "created_at": "2018-07-24 01:33:31.332293",
    "updated_at": "2018-08-24 00:41:29.025816",
    "country": "United States",
    "longitude": "-71.3709688823615",
    "latitude": "42.3223551642537"
  },
  {
    "id": "3307",
    "name": "Lord Hobo Brewing Co",
    "brewery_type": "regional",
    "street": "5 Draper St",
    "city": "Woburn",
    "state": "Massachusetts",
    "postal_code": "01801-4521",
    "website_url": "http://lordhobobrewing.com",
    "phone": "7812810809",
    "created_at": "2018-07-24 01:33:31.346249",
    "updated_at": "2018-08-24 00:41:29.437005",
    "country": "United States",
    "longitude": "-71.1289231911404",
    "latitude": "42.47603755"
  },
  {
    "id": "3308",
    "name": "Lowell Beer Works",
    "brewery_type": "brewpub",
    "street": "203 Cabot St",
    "city": "Lowell",
    "state": "Massachusetts",
    "postal_code": "01854-",
    "website_url": "",
    "phone": "9789372337",
    "created_at": "2018-07-24 01:33:31.358877",
    "updated_at": "2018-08-24 00:41:29.864924",
    "country": "United States",
    "longitude": "-71.3164361224202",
    "latitude": "42.6505753"
  },
  {
    "id": "3310",
    "name": "Marblehead Brewing Company",
    "brewery_type": "micro",
    "street": "124 Pleasant St",
    "city": "Marblehead",
    "state": "Massachusetts",
    "postal_code": "01945",
    "website_url": "http://www.marbleheadbrewing.co",
    "phone": "7817970211",
    "created_at": "2018-07-24 01:33:31.383304",
    "updated_at": "2018-08-24 00:41:30.343654",
    "country": "United States",
    "longitude": "-70.8573661020408",
    "latitude": "42.5012538571429"
  },
  {
    "id": "3313",
    "name": "Medusa Brewing Company",
    "brewery_type": "micro",
    "street": "111 Main St",
    "city": "Hudson",
    "state": "Massachusetts",
    "postal_code": "01749-2210",
    "website_url": "http://www.medusabrewing.com",
    "phone": "5083950122",
    "created_at": "2018-07-24 01:33:31.433271",
    "updated_at": "2018-08-24 00:41:31.240248",
    "country": "United States",
    "longitude": "-71.566681",
    "latitude": "42.3909986"
  },
  {
    "id": "3314",
    "name": "Merrimack Ales",
    "brewery_type": "micro",
    "street": "92 Bolt St",
    "city": "Lowell",
    "state": "Massachusetts",
    "postal_code": "01852-5316",
    "website_url": "http://www.merrimackales.com",
    "phone": "9787017225",
    "created_at": "2018-07-24 01:33:31.447959",
    "updated_at": "2018-08-24 00:41:31.659668",
    "country": "United States",
    "longitude": "-71.300252",
    "latitude": "42.625366"
  },
  {
    "id": "3315",
    "name": "Mighty Squirrel",
    "brewery_type": "contract",
    "street": "745 Atlantic Ave",
    "city": "Boston",
    "state": "Massachusetts",
    "postal_code": "02111-2735",
    "website_url": "http://www.mightysquirrel.com",
    "phone": "7602120802",
    "created_at": "2018-07-24 01:33:31.460349",
    "updated_at": "2018-08-24 00:41:32.100226",
    "country": "United States",
    "longitude": "-71.0569929",
    "latitude": "42.3502282"
  },
  {
    "id": "3316",
    "name": "Moby Dick Brewing Co.",
    "brewery_type": "brewpub",
    "street": "16 S Water St",
    "city": "New Bedford",
    "state": "Massachusetts",
    "postal_code": "02740-7235",
    "website_url": "http://www.mobydickbrewing.com",
    "phone": "7742026961",
    "created_at": "2018-07-24 01:33:31.472534",
    "updated_at": "2018-08-24 00:41:32.621498",
    "country": "United States",
    "longitude": "-70.9225132461967",
    "latitude": "41.6338210074871"
  },
  {
    "id": "3317",
    "name": "Moon Hill Brewing Co., Inc.",
    "brewery_type": "brewpub",
    "street": "74 Parker St",
    "city": "Gardner",
    "state": "Massachusetts",
    "postal_code": "01440-3809",
    "website_url": "http://www.gardnerale.com",
    "phone": "9786690122",
    "created_at": "2018-07-24 01:33:31.494696",
    "updated_at": "2018-08-24 00:41:33.151172",
    "country": "United States",
    "longitude": "-71.997003",
    "latitude": "42.5759013333333"
  },
  {
    "id": "3318",
    "name": "Mystic Brewery",
    "brewery_type": "micro",
    "street": "174 Williams St",
    "city": "Chelsea",
    "state": "Massachusetts",
    "postal_code": "02150-3804",
    "website_url": "",
    "phone": "",
    "created_at": "2018-07-24 01:33:31.507658",
    "updated_at": "2018-08-24 00:41:33.582388",
    "country": "United States",
    "longitude": "-71.0445104",
    "latitude": "42.3915659"
  },
  {
    "id": "3319",
    "name": "Naukabout Brewery",
    "brewery_type": "micro",
    "street": "13 Lake Ave",
    "city": "Mashpee",
    "state": "Massachusetts",
    "postal_code": "02649-2075",
    "website_url": "http://www.naukabout.com",
    "phone": "7743130200",
    "created_at": "2018-07-24 01:33:31.521118",
    "updated_at": "2018-08-24 00:41:34.018117",
    "country": "United States",
    "longitude": "-70.4842590100248",
    "latitude": "41.649362388751"
  },
  {
    "id": "3322",
    "name": "Newburyport Brewing Co",
    "brewery_type": "micro",
    "street": "4 New Pasture Rd",
    "city": "Newburyport",
    "state": "Massachusetts",
    "postal_code": "01950-4040",
    "website_url": "http://www.nbptbrewing.com",
    "phone": "9784638700",
    "created_at": "2018-07-24 01:33:31.559571",
    "updated_at": "2018-08-24 00:41:35.361791",
    "country": "United States",
    "longitude": "-70.8871558174512",
    "latitude": "42.8019577017051"
  },
  {
    "id": "3325",
    "name": "Northampton Brewery",
    "brewery_type": "brewpub",
    "street": "11 Brewster Ct",
    "city": "Northampton",
    "state": "Massachusetts",
    "postal_code": "01060-3801",
    "website_url": "http://www.northamptonbrewery.com",
    "phone": "4135849903",
    "created_at": "2018-07-24 01:33:31.597663",
    "updated_at": "2018-08-24 00:41:36.22975",
    "country": "United States",
    "longitude": "-72.6303406",
    "latitude": "42.317397"
  },
  {
    "id": "3326",
    "name": "Notch Brewing",
    "brewery_type": "micro",
    "street": "283R Derby St",
    "city": "Salem",
    "state": "Massachusetts",
    "postal_code": "01970-",
    "website_url": "http://www.notchbrewing.com",
    "phone": "9782389060",
    "created_at": "2018-07-24 01:33:31.610118",
    "updated_at": "2018-08-24 00:41:36.767995",
    "country": "United States",
    "longitude": "-70.889896901293",
    "latitude": "42.5206254130724"
  },
  {
    "id": "3328",
    "name": "Off The Cuff Brewing Company",
    "brewery_type": "planning",
    "street": "",
    "city": "West Brookfield",
    "state": "Massachusetts",
    "postal_code": "01585-6023",
    "website_url": "",
    "phone": "4132810525",
    "created_at": "2018-07-24 01:33:31.634835",
    "updated_at": "2018-08-11 21:37:42.798073",
    "country": "United States",
    "longitude": "",
    "latitude": ""
  },
  {
    "id": "3330",
    "name": "Old Colony Brewing",
    "brewery_type": "micro",
    "street": "605 Bedford St Unit 1",
    "city": "Whitman",
    "state": "Massachusetts",
    "postal_code": "02382-2088",
    "website_url": "http://www.oldcolonybrew.com",
    "phone": "7815237105",
    "created_at": "2018-07-24 01:33:31.66062",
    "updated_at": "2018-08-11 21:37:42.906912",
    "country": "United States",
    "longitude": "",
    "latitude": ""
  },
  {
    "id": "3335",
    "name": "Paramount Brewing Company",
    "brewery_type": "planning",
    "street": "",
    "city": "Andover",
    "state": "Massachusetts",
    "postal_code": "01810-5011",
    "website_url": "",
    "phone": "6178691388",
    "created_at": "2018-07-24 01:33:31.723714",
    "updated_at": "2018-08-11 21:37:43.08113",
    "country": "United States",
    "longitude": "",
    "latitude": ""
  },
  {
    "id": "3339",
    "name": "Purgatory Beer Co, LLC",
    "brewery_type": "micro",
    "street": "670 Linwood Ave Bldg C",
    "city": "Whitinsville",
    "state": "Massachusetts",
    "postal_code": "01588-2068",
    "website_url": "http://www.purgatorybeer.com",
    "phone": "7745450243",
    "created_at": "2018-07-24 01:33:31.776423",
    "updated_at": "2018-08-11 21:37:43.195655",
    "country": "United States",
    "longitude": "",
    "latitude": ""
  },
  {
    "id": "3341",
    "name": "Red Bird",
    "brewery_type": "planning",
    "street": "",
    "city": "Waltham",
    "state": "Massachusetts",
    "postal_code": "02453-5208",
    "website_url": "http://www.redbirdwaltham.com",
    "phone": "7818915486",
    "created_at": "2018-07-24 01:33:31.801657",
    "updated_at": "2018-08-11 21:37:43.254019",
    "country": "United States",
    "longitude": "",
    "latitude": ""
  },
  {
    "id": "3342",
    "name": "Remnant Brewing",
    "brewery_type": "micro",
    "street": "2 Bow Market Way",
    "city": "Somerville",
    "state": "Massachusetts",
    "postal_code": "02143",
    "website_url": "http://www.remnantsomerville.com",
    "phone": "",
    "created_at": "2018-07-24 01:33:31.813795",
    "updated_at": "2018-08-11 21:37:43.288949",
    "country": "United States",
    "longitude": "",
    "latitude": ""
  },
  {
    "id": "3349",
    "name": "Scottish Bloodline Brewing",
    "brewery_type": "planning",
    "street": "",
    "city": "Lowell",
    "state": "Massachusetts",
    "postal_code": "01851-4638",
    "website_url": "http://Www.scottishbloodlinebrewing.com",
    "phone": "9784556163",
    "created_at": "2018-07-24 01:33:31.904873",
    "updated_at": "2018-08-11 21:37:43.501393",
    "country": "United States",
    "longitude": "",
    "latitude": ""
  },
  {
    "id": "3352",
    "name": "Shovel Town Brewery, Inc.",
    "brewery_type": "brewpub",
    "street": "50 Oliver St Rear",
    "city": "North Easton",
    "state": "Massachusetts",
    "postal_code": "02356-1446",
    "website_url": "",
    "phone": "5082057151",
    "created_at": "2018-07-24 01:33:31.940817",
    "updated_at": "2018-08-11 21:37:43.613698",
    "country": "United States",
    "longitude": "",
    "latitude": ""
  },
  {
    "id": "3359",
    "name": "Stellwagen Beer Company",
    "brewery_type": "planning",
    "street": "",
    "city": "Marshfield",
    "state": "Massachusetts",
    "postal_code": "02050",
    "website_url": "http://www.stellwagenbeer.com",
    "phone": "7817899162",
    "created_at": "2018-07-24 01:33:32.062908",
    "updated_at": "2018-08-11 21:37:43.836131",
    "country": "United States",
    "longitude": "",
    "latitude": ""
  },
  {
    "id": "3360",
    "name": "Still River Brewery",
    "brewery_type": "micro",
    "street": "121 Clinton Shore Dr.",
    "city": "Still River",
    "state": "Massachusetts",
    "postal_code": "01467-0157",
    "website_url": "",
    "phone": "",
    "created_at": "2018-07-24 01:33:32.075095",
    "updated_at": "2018-08-11 21:37:43.864782",
    "country": "United States",
    "longitude": "",
    "latitude": ""
  },
  {
    "id": "3361",
    "name": "Stone Cow Brewery",
    "brewery_type": "micro",
    "street": "500 West St (Route 122)",
    "city": "Barre",
    "state": "Massachusetts",
    "postal_code": "01005",
    "website_url": "",
    "phone": "4135526048",
    "created_at": "2018-07-24 01:33:32.087499",
    "updated_at": "2018-08-11 21:37:43.893504",
    "country": "United States",
    "longitude": "",
    "latitude": ""
  },
  {
    "id": "3362",
    "name": "Stoneman Brewery",
    "brewery_type": "micro",
    "street": "20 Stetson Bros Rd",
    "city": "Colrain",
    "state": "Massachusetts",
    "postal_code": "01340-9733",
    "website_url": "",
    "phone": "4136245195",
    "created_at": "2018-07-24 01:33:32.100161",
    "updated_at": "2018-08-11 21:37:43.925685",
    "country": "United States",
    "longitude": "",
    "latitude": ""
  },
  {
    "id": "3365",
    "name": "Timberyard Brewing Co.",
    "brewery_type": "planning",
    "street": "",
    "city": "East Brookfield",
    "state": "Massachusetts",
    "postal_code": "01515",
    "website_url": "http://timberyardbrewing.com",
    "phone": "4135526048",
    "created_at": "2018-07-24 01:33:32.139919",
    "updated_at": "2018-08-11 21:37:44.020638",
    "country": "United States",
    "longitude": "",
    "latitude": ""
  },
  {
    "id": "3329",
    "name": "Offshore Ale Co",
    "brewery_type": "brewpub",
    "street": "30 Kennebec Ave",
    "city": "Oak Bluffs",
    "state": "Massachusetts",
    "postal_code": "02557",
    "website_url": "http://www.offshoreale.com",
    "phone": "5086932626",
    "created_at": "2018-07-24 01:33:31.647989",
    "updated_at": "2018-08-24 00:41:37.670054",
    "country": "United States",
    "longitude": "-70.5579095857058",
    "latitude": "41.4548832424099"
  },
  {
    "id": "3331",
    "name": "Old Planters Brewing Co.",
    "brewery_type": "micro",
    "street": "100 Corning St",
    "city": "Beverly",
    "state": "Massachusetts",
    "postal_code": "01915-3837",
    "website_url": "http://www.oldplanters.com",
    "phone": "9785226446",
    "created_at": "2018-07-24 01:33:31.673601",
    "updated_at": "2018-08-24 00:41:38.541192",
    "country": "United States",
    "longitude": "-70.8628713936456",
    "latitude": "42.554996452917"
  },
  {
    "id": "3332",
    "name": "Opa Opa Brewery",
    "brewery_type": "contract",
    "street": "19 Wemelco Way",
    "city": "Easthampton",
    "state": "Massachusetts",
    "postal_code": "01027",
    "website_url": "http://www.opaopasteakhousebrewery.com",
    "phone": "4135270808",
    "created_at": "2018-07-24 01:33:31.686041",
    "updated_at": "2018-08-24 00:41:38.968666",
    "country": "United States",
    "longitude": "-72.6919129873619",
    "latitude": "42.2546704774428"
  },
  {
    "id": "3333",
    "name": "Outlook Farm Brewery",
    "brewery_type": "micro",
    "street": "136 Main Rd",
    "city": "Westhampton",
    "state": "Massachusetts",
    "postal_code": "01027-9673",
    "website_url": "http://www.outlookfarm.com",
    "phone": "4135299388",
    "created_at": "2018-07-24 01:33:31.698613",
    "updated_at": "2018-08-24 00:41:39.445771",
    "country": "United States",
    "longitude": "-72.772262",
    "latitude": "42.285973"
  },
  {
    "id": "3337",
    "name": "Plymouth Beer Company / Dirty Water Distillery",
    "brewery_type": "micro",
    "street": "10 Water St",
    "city": "Plymouth",
    "state": "Massachusetts",
    "postal_code": "02360-3349",
    "website_url": "http://www.plymouthbeer.rocks",
    "phone": "5085910589",
    "created_at": "2018-07-24 01:33:31.75011",
    "updated_at": "2018-08-24 00:41:40.77548",
    "country": "United States",
    "longitude": "-70.6620267",
    "latitude": "41.9549491"
  },
  {
    "id": "3338",
    "name": "Portico Brewing Co",
    "brewery_type": "contract",
    "street": "256 Moody Street",
    "city": "Waltham",
    "state": "Massachusetts",
    "postal_code": "02453",
    "website_url": "",
    "phone": "",
    "created_at": "2018-07-24 01:33:31.763044",
    "updated_at": "2018-08-24 00:41:41.204646",
    "country": "United States",
    "longitude": "-71.2366218",
    "latitude": "42.3718244"
  },
  {
    "id": "3340",
    "name": "Rapscallion Ales",
    "brewery_type": "micro",
    "street": "5 Strawberry Hill Rd",
    "city": "Acton",
    "state": "Massachusetts",
    "postal_code": "01720-5706",
    "website_url": "http://www.drinkrapscallion.com",
    "phone": "5083477500",
    "created_at": "2018-07-24 01:33:31.788903",
    "updated_at": "2018-08-24 00:41:42.118365",
    "country": "United States",
    "longitude": "-71.4158546071126",
    "latitude": "42.4919605"
  },
  {
    "id": "3343",
    "name": "River Styx Brewing",
    "brewery_type": "micro",
    "street": "166 Boulder Dr Ste 112",
    "city": "Fitchburg",
    "state": "Massachusetts",
    "postal_code": "01420-3168",
    "website_url": "http://www.riverstyxbrewing.com",
    "phone": "9786965176",
    "created_at": "2018-07-24 01:33:31.827528",
    "updated_at": "2018-08-24 00:41:43.1816",
    "country": "United States",
    "longitude": "-71.7946112",
    "latitude": "42.5817291"
  },
  {
    "id": "3344",
    "name": "Riverwalk Brewing Co.",
    "brewery_type": "micro",
    "street": "40 Parker St",
    "city": "Newburyport",
    "state": "Massachusetts",
    "postal_code": "01950-4056",
    "website_url": "http://www.riverwalkbrewing.com",
    "phone": "9784992337",
    "created_at": "2018-07-24 01:33:31.839758",
    "updated_at": "2018-08-24 00:41:43.6755",
    "country": "United States",
    "longitude": "-70.8672672695409",
    "latitude": "42.79921535"
  },
  {
    "id": "3346",
    "name": "Saltbox Brewery",
    "brewery_type": "brewpub",
    "street": "84 Commonwealth Ave",
    "city": "Concord",
    "state": "Massachusetts",
    "postal_code": "01742-2904",
    "website_url": "http://www.saltboxkitchen.com",
    "phone": "9782123585",
    "created_at": "2018-07-24 01:33:31.867104",
    "updated_at": "2018-08-24 00:41:44.597216",
    "country": "United States",
    "longitude": "-71.3946825833333",
    "latitude": "42.4569080625"
  },
  {
    "id": "3348",
    "name": "Scantic River Brewery",
    "brewery_type": "micro",
    "street": "25 Mill Rd",
    "city": "Hampden",
    "state": "Massachusetts",
    "postal_code": "01036-9624",
    "website_url": "http://www.scanticriverbrewery.com",
    "phone": "4132049163",
    "created_at": "2018-07-24 01:33:31.892421",
    "updated_at": "2018-08-24 00:41:45.094572",
    "country": "United States",
    "longitude": "-72.5833168788771",
    "latitude": "42.0430361118982"
  },
  {
    "id": "3350",
    "name": "Second Wind Brewing Company",
    "brewery_type": "micro",
    "street": "7 Howland St",
    "city": "Plymouth",
    "state": "Massachusetts",
    "postal_code": "02360-3810",
    "website_url": "http://www.secondwindbrewing.com",
    "phone": "5085915915",
    "created_at": "2018-07-24 01:33:31.916694",
    "updated_at": "2018-08-24 00:41:45.584037",
    "country": "United States",
    "longitude": "-70.6665477965761",
    "latitude": "41.9585551017836"
  },
  {
    "id": "3351",
    "name": "Shire Breu Hous",
    "brewery_type": "brewpub",
    "street": "63 Flansburg Ave",
    "city": "Dalton",
    "state": "Massachusetts",
    "postal_code": "01226",
    "website_url": "http://www.shire.beer",
    "phone": "4138428313",
    "created_at": "2018-07-24 01:33:31.929123",
    "updated_at": "2018-08-24 00:41:46.010506",
    "country": "United States",
    "longitude": "-73.1730985",
    "latitude": "42.4745867"
  },
  {
    "id": "3353",
    "name": "Skyroc Brewery",
    "brewery_type": "micro",
    "street": "11 Riverbank Rd",
    "city": "Attleboro",
    "state": "Massachusetts",
    "postal_code": "02703-",
    "website_url": "http://www.skyrocbrewery.com",
    "phone": "7743312336",
    "created_at": "2018-07-24 01:33:31.952281",
    "updated_at": "2018-08-24 00:41:46.875055",
    "country": "United States",
    "longitude": "-71.287889167702",
    "latitude": "41.9446296728284"
  },
  {
    "id": "3355",
    "name": "Slesar Bros Brewing Co - Boston Beer Works",
    "brewery_type": "brewpub",
    "street": "61 Brookline Ave",
    "city": "Boston",
    "state": "Massachusetts",
    "postal_code": "02215-3406",
    "website_url": "http://www.beerworks.net",
    "phone": "6175362337",
    "created_at": "2018-07-24 01:33:31.978305",
    "updated_at": "2018-08-24 00:41:47.788778",
    "country": "United States",
    "longitude": "-71.1077246938776",
    "latitude": "42.3388300816327"
  },
  {
    "id": "3356",
    "name": "Somerville Brewing Company",
    "brewery_type": "micro",
    "street": "15 Ward St",
    "city": "Somerville",
    "state": "Massachusetts",
    "postal_code": "02143-4228",
    "website_url": "http://www.slumbrew.com",
    "phone": "8004281150",
    "created_at": "2018-07-24 01:33:31.990713",
    "updated_at": "2018-08-24 00:41:48.231103",
    "country": "United States",
    "longitude": "-71.0890345",
    "latitude": "42.3749103"
  },
  {
    "id": "3357",
    "name": "Spencer Brewery",
    "brewery_type": "micro",
    "street": "167 N Spencer Rd",
    "city": "Spencer",
    "state": "Massachusetts",
    "postal_code": "01562-1232",
    "website_url": "http://www.spencerbrewery.com",
    "phone": "5088855756",
    "created_at": "2018-07-24 01:33:32.036292",
    "updated_at": "2018-08-24 00:41:48.673239",
    "country": "United States",
    "longitude": "-72.0133159",
    "latitude": "42.2976331"
  },
  {
    "id": "3363",
    "name": "The Peoples Pint / Franklin County Brewing Co",
    "brewery_type": "brewpub",
    "street": "76 Hope St",
    "city": "Greenfield",
    "state": "Massachusetts",
    "postal_code": "01301-3573",
    "website_url": "http://www.thepeoplespint.com",
    "phone": "4137730333",
    "created_at": "2018-07-24 01:33:32.112129",
    "updated_at": "2018-08-24 00:41:51.094337",
    "country": "United States",
    "longitude": "-72.5976922905978",
    "latitude": "42.5818759898982"
  },
  {
    "id": "3364",
    "name": "The Tap Brewing Company",
    "brewery_type": "brewpub",
    "street": "100 Washington St",
    "city": "Haverhill",
    "state": "Massachusetts",
    "postal_code": "01832-5500",
    "website_url": "http://www.tapbrewingcompany.com",
    "phone": "6178358315",
    "created_at": "2018-07-24 01:33:32.125069",
    "updated_at": "2018-08-24 00:41:51.51922",
    "country": "United States",
    "longitude": "-71.084935",
    "latitude": "42.7728879"
  },
  {
    "id": "3366",
    "name": "Tin Bridge Brewing",
    "brewery_type": "micro",
    "street": "487 E Main St",
    "city": "Westfield",
    "state": "Massachusetts",
    "postal_code": "01085",
    "website_url": "http://www.tinbridgebrewing.com",
    "phone": "4136426418",
    "created_at": "2018-07-24 01:33:32.152787",
    "updated_at": "2018-08-24 00:41:51.986835",
    "country": "United States",
    "longitude": "-72.7196733636976",
    "latitude": "42.1126850185216"
  },
  {
    "id": "3367",
    "name": "Tree House Brewery",
    "brewery_type": "regional",
    "street": "129 Sturbridge Rd",
    "city": "Charlton",
    "state": "Massachusetts",
    "postal_code": "01507-5330",
    "website_url": "http://www.treehousebrew.com",
    "phone": "4139491891",
    "created_at": "2018-07-24 01:33:32.165189",
    "updated_at": "2018-08-24 00:41:52.412806",
    "country": "United States",
    "longitude": "-72.0125532",
    "latitude": "42.1366948"
  },
  {
    "id": "3368",
    "name": "Trillium Brewing",
    "brewery_type": "regional",
    "street": "110 Shawmut Rd",
    "city": "Canton",
    "state": "Massachusetts",
    "postal_code": "02021-1412",
    "website_url": "http://www.trilliumbrewing.com",
    "phone": "6174538745",
    "created_at": "2018-07-24 01:33:32.1781",
    "updated_at": "2018-08-24 00:41:52.830227",
    "country": "United States",
    "longitude": "-71.1527702",
    "latitude": "42.1847202"
  },
  {
    "id": "3369",
    "name": "True North Ale Company",
    "brewery_type": "micro",
    "street": "116 County Rd",
    "city": "Ipswich",
    "state": "Massachusetts",
    "postal_code": "01938-2501",
    "website_url": "http://www.TrueNorthAles.com",
    "phone": "9783126473",
    "created_at": "2018-07-24 01:33:32.193482",
    "updated_at": "2018-08-24 00:41:53.328507",
    "country": "United States",
    "longitude": "-70.837236",
    "latitude": "42.669841"
  },
  {
    "id": "3371",
    "name": "Turtle Swamp Brewing",
    "brewery_type": "micro",
    "street": "3377 Washington St",
    "city": "Jamaica Plain",
    "state": "Massachusetts",
    "postal_code": "02130-2617",
    "website_url": "http://www.turtleswampbrewing.com",
    "phone": "6175220038",
    "created_at": "2018-07-24 01:33:32.219104",
    "updated_at": "2018-08-24 00:41:54.264984",
    "country": "United States",
    "longitude": "-71.1123668",
    "latitude": "42.3014592"
  },
  {
    "id": "3372",
    "name": "Untold Brewing",
    "brewery_type": "micro",
    "street": "6 Old Country Way",
    "city": "Scituate",
    "state": "Massachusetts",
    "postal_code": "02066-3773",
    "website_url": "http://www.untoldbrewing.com",
    "phone": "7813780559",
    "created_at": "2018-07-24 01:33:32.231722",
    "updated_at": "2018-08-24 00:41:54.696104",
    "country": "United States",
    "longitude": "-70.7475028582983",
    "latitude": "42.180807761562"
  },
  {
    "id": "3373",
    "name": "Vanished Valley Brewing Company",
    "brewery_type": "micro",
    "street": "782 Center Street",
    "city": "Ludlow ",
    "state": "Massachusetts",
    "postal_code": "01056",
    "website_url": "http://www.vanishedvalley.com",
    "phone": "4132710503",
    "created_at": "2018-07-24 01:33:32.244647",
    "updated_at": "2018-08-24 00:41:55.205198",
    "country": "United States",
    "longitude": "-72.4702163876732",
    "latitude": "42.1829274074559"
  },
  {
    "id": "3380",
    "name": "Widowmaker Brewing",
    "brewery_type": "micro",
    "street": "220 Wood Rd",
    "city": "Braintree",
    "state": "Massachusetts",
    "postal_code": "02184-2408",
    "website_url": "http://www.widowmakerbrew.wordpress.com",
    "phone": "7812549856",
    "created_at": "2018-07-24 01:33:32.334247",
    "updated_at": "2018-08-11 21:37:44.449805",
    "country": "United States",
    "longitude": "",
    "latitude": ""
  },
  {
    "id": "3381",
    "name": "Winter Hill Brewing Company",
    "brewery_type": "brewpub",
    "street": "328 Broadway",
    "city": "Somerville",
    "state": "Massachusetts",
    "postal_code": "02145-2803",
    "website_url": "http://www.winterhillbrewing.com",
    "phone": "6177182337",
    "created_at": "2018-07-24 01:33:32.34958",
    "updated_at": "2018-08-11 21:37:44.478416",
    "country": "United States",
    "longitude": "",
    "latitude": ""
  },
  {
    "id": "3378",
    "name": "Westfield River Brewing Co",
    "brewery_type": "micro",
    "street": "707 College Hwy",
    "city": "Southwick",
    "state": "Massachusetts",
    "postal_code": "01077-9733",
    "website_url": "http://www.westfieldriverbrewing.com",
    "phone": "4133748425",
    "created_at": "2018-07-24 01:33:32.308053",
    "updated_at": "2018-08-24 00:41:56.58132",
    "country": "United States",
    "longitude": "-72.765248",
    "latitude": "42.062268"
  },
  {
    "id": "3379",
    "name": "White Lion Brewing Company",
    "brewery_type": "contract",
    "street": "36 Garland St",
    "city": "Springfield",
    "state": "Massachusetts",
    "postal_code": "01118-2128",
    "website_url": "http://www.whitelionbrewing.com",
    "phone": "4133261829",
    "created_at": "2018-07-24 01:33:32.320737",
    "updated_at": "2018-08-24 00:41:57.003082",
    "country": "United States",
    "longitude": "-72.5338092445335",
    "latitude": "42.089818555939"
  },
  {
    "id": "3382",
    "name": "Wormtown Brewery",
    "brewery_type": "micro",
    "street": "72 Shrewsbury St",
    "city": "Worcester",
    "state": "Massachusetts",
    "postal_code": "01604-4625",
    "website_url": "http://www.wormtownbrewery.com",
    "phone": "7742391555",
    "created_at": "2018-07-24 01:33:32.365592",
    "updated_at": "2018-08-24 00:41:57.429666",
    "country": "United States",
    "longitude": "-71.7912262",
    "latitude": "42.2634992"
  },
  {
    "id": "3210",
    "name": "Abandoned Building Brewery",
    "brewery_type": "micro",
    "street": "142 Pleasant St Unit 103A",
    "city": "Easthampton",
    "state": "Massachusetts",
    "postal_code": "01027-2805",
    "website_url": "http://www.abandonedbuildingbrewery.com",
    "phone": "4132827062",
    "created_at": "2018-07-24 01:33:29.982808",
    "updated_at": "2018-08-11 21:37:38.259151",
    "country": "United States",
    "longitude": "",
    "latitude": ""
  },
  {
    "id": "3223",
    "name": "Barrington Brewery and Restaurant",
    "brewery_type": "brewpub",
    "street": "420 Stockbridge Rd Ste 4",
    "city": "Great Barrington",
    "state": "Massachusetts",
    "postal_code": "01230-9512",
    "website_url": "http://www.barringtonbrewery.net",
    "phone": "4135288282",
    "created_at": "2018-07-24 01:33:30.181814",
    "updated_at": "2018-08-11 21:37:38.629664",
    "country": "United States",
    "longitude": "",
    "latitude": ""
  },
  {
    "id": "3236",
    "name": "Boston Beer Co",
    "brewery_type": "micro",
    "street": "30 Germania St Ste 1",
    "city": "Boston",
    "state": "Massachusetts",
    "postal_code": "02130-2312",
    "website_url": "http://www.samueladams.com",
    "phone": "6173685000",
    "created_at": "2018-07-24 01:33:30.351609",
    "updated_at": "2018-08-11 21:37:39.002163",
    "country": "United States",
    "longitude": "",
    "latitude": ""
  },
  {
    "id": "3241",
    "name": "Brewery in Planning - Hull",
    "brewery_type": "planning",
    "street": "",
    "city": "Hull",
    "state": "Massachusetts",
    "postal_code": "02641",
    "website_url": "http://www.hullbound.com",
    "phone": "5084543486",
    "created_at": "2018-07-24 01:33:30.413533",
    "updated_at": "2018-08-11 21:37:39.189215",
    "country": "United States",
    "longitude": "",
    "latitude": ""
  },
  {
    "id": "3247",
    "name": "Brewery In Planning - Watertown",
    "brewery_type": "planning",
    "street": "",
    "city": "Worcester",
    "state": "Massachusetts",
    "postal_code": "01608-2064",
    "website_url": "http://www.redemptionrock.beer",
    "phone": "9786605526",
    "created_at": "2018-07-24 01:33:30.498942",
    "updated_at": "2018-08-11 21:37:39.416794",
    "country": "United States",
    "longitude": "",
    "latitude": ""
  },
  {
    "id": "3258",
    "name": "Cambridge Brewing Co",
    "brewery_type": "brewpub",
    "street": "1 Kendall Sq Ste B1102",
    "city": "Cambridge",
    "state": "Massachusetts",
    "postal_code": "02139-1592",
    "website_url": "http://www.cambridgebrewingcompany.com",
    "phone": "6174941994",
    "created_at": "2018-07-24 01:33:30.668824",
    "updated_at": "2018-08-11 21:37:39.765326",
    "country": "United States",
    "longitude": "",
    "latitude": ""
  },
  {
    "id": "3293",
    "name": "Homefield Brewing",
    "brewery_type": "brewpub",
    "street": "3 Arnold Rd",
    "city": "Fiskdale",
    "state": "Massachusetts",
    "postal_code": "01518-",
    "website_url": "http://www.homefieldbrewing.com",
    "phone": "7742426365",
    "created_at": "2018-07-24 01:33:31.151304",
    "updated_at": "2018-08-11 21:37:41.652613",
    "country": "United States",
    "longitude": "",
    "latitude": ""
  },
  {
    "id": "3297",
    "name": "Independent Fermentations Brewing",
    "brewery_type": "micro",
    "street": "127 Camelot Dr Ste 3",
    "city": "Plymouth",
    "state": "Massachusetts",
    "postal_code": "02360-3039",
    "website_url": "http://www.independentfermentations.com",
    "phone": "5087464634",
    "created_at": "2018-07-24 01:33:31.200855",
    "updated_at": "2018-08-11 21:37:41.880084",
    "country": "United States",
    "longitude": "",
    "latitude": ""
  },
  {
    "id": "3347",
    "name": "Saltmarsh Brewery",
    "brewery_type": "planning",
    "street": "",
    "city": "Foxboro",
    "state": "Massachusetts",
    "postal_code": "02035-2299",
    "website_url": "http://adam@saltmarshbrewery.com",
    "phone": "6177996627",
    "created_at": "2018-07-24 01:33:31.879098",
    "updated_at": "2018-08-11 21:37:43.441926",
    "country": "United States",
    "longitude": "",
    "latitude": ""
  },
  {
    "id": "3370",
    "name": "True West Brewing Company",
    "brewery_type": "brewpub",
    "street": "525 Massachusetts Ave Ste 107",
    "city": "Acton",
    "state": "Massachusetts",
    "postal_code": "01720-2962",
    "website_url": "http://www.brewtruewest.com",
    "phone": "9782061600",
    "created_at": "2018-07-24 01:33:32.206494",
    "updated_at": "2018-08-11 21:37:44.175644",
    "country": "United States",
    "longitude": "",
    "latitude": ""
  },
  {
    "id": "3285",
    "name": "Greasy Luck Brewery",
    "brewery_type": "brewpub",
    "street": "791 Purchase St",
    "city": "New Bedford",
    "state": "Massachusetts",
    "postal_code": "02740-6345",
    "website_url": "http://www.greasyluckbrewery.com",
    "phone": "7744254600",
    "created_at": "2018-07-24 01:33:31.048489",
    "updated_at": "2018-08-24 00:41:21.12769",
    "country": "United States",
    "longitude": "-70.9260752678464",
    "latitude": "41.6350707856424"
  },
  {
    "id": "3311",
    "name": "Mayflower Brewing Co",
    "brewery_type": "micro",
    "street": "12 Resnik Rd",
    "city": "Plymouth",
    "state": "Massachusetts",
    "postal_code": "02360-7245",
    "website_url": "http://www.mayflowerbrewing.com",
    "phone": "5087462674",
    "created_at": "2018-07-24 01:33:31.406801",
    "updated_at": "2018-08-24 00:41:30.767987",
    "country": "United States",
    "longitude": "-70.7125549568343",
    "latitude": "41.9492602441054"
  },
  {
    "id": "3324",
    "name": "Night Shift Brewing, Inc",
    "brewery_type": "regional",
    "street": "87 Santilli Hwy",
    "city": "Everett",
    "state": "Massachusetts",
    "postal_code": "02149-1906",
    "website_url": "http://www.nightshiftbrewing.com",
    "phone": "6172944233",
    "created_at": "2018-07-24 01:33:31.58515",
    "updated_at": "2018-08-24 00:41:35.783207",
    "country": "United States",
    "longitude": "-71.0677001",
    "latitude": "42.4059393"
  },
  {
    "id": "3334",
    "name": "Owen OLearys Restaurant and Brewery",
    "brewery_type": "brewpub",
    "street": "17 Connector Rd",
    "city": "Westborough",
    "state": "Massachusetts",
    "postal_code": "01581-3916",
    "website_url": "http://www.owenolearys.com",
    "phone": "5083669262",
    "created_at": "2018-07-24 01:33:31.710946",
    "updated_at": "2018-08-24 00:41:39.893868",
    "country": "United States",
    "longitude": "-71.5859197866303",
    "latitude": "42.2899655860842"
  },
  {
    "id": "3345",
    "name": "Salem Beer Works",
    "brewery_type": "brewpub",
    "street": "278 Derby St",
    "city": "Salem",
    "state": "Massachusetts",
    "postal_code": "01970-3635",
    "website_url": "http://www.beerworks.net",
    "phone": "9787452337",
    "created_at": "2018-07-24 01:33:31.854376",
    "updated_at": "2018-08-24 00:41:44.151112",
    "country": "United States",
    "longitude": "-70.8898634038755",
    "latitude": "42.5207926242957"
  },
  {
    "id": "3358",
    "name": "Start Line Brewing Company",
    "brewery_type": "micro",
    "street": "151R Hayden Rowe St",
    "city": "Hopkinton",
    "state": "Massachusetts",
    "postal_code": "01748-2511",
    "website_url": "http://www.startlinebrewing.com",
    "phone": "5087612044",
    "created_at": "2018-07-24 01:33:32.050761",
    "updated_at": "2018-08-24 00:41:49.168018",
    "country": "United States",
    "longitude": "-71.5132367573311",
    "latitude": "42.2103163400486"
  },
  {
    "id": "3383",
    "name": "ZeLUS Beer Company",
    "brewery_type": "contract",
    "street": "120 N Meadows Rd",
    "city": "Medfield",
    "state": "Massachusetts",
    "postal_code": "02052-1594",
    "website_url": "http://www.zelusbeer.com",
    "phone": "6275100270",
    "created_at": "2018-07-24 01:33:32.379824",
    "updated_at": "2018-08-24 00:41:57.900035",
    "country": "United States",
    "longitude": "-71.335472",
    "latitude": "42.200799"
  }
]