[
  {
    "id": "3976",
    "name": "Anheuser-Busch InBev",
    "brewery_type": "large",
    "street": "1 Busch Pl",
    "city": "Saint Louis",
    "state": "Missouri",
    "postal_code": "63118-1849",
    "website_url": "http://www.anheuser-busch.com",
    "phone": "3145772000",
    "created_at": "2018-07-24 01:33:40.443302",
    "updated_at": "2018-08-24 00:46:11.169028",
    "country": "United States",
    "longitude": "-90.2118998",
    "latitude": "38.5954536"
  },
  {
    "id": "3994",
    "name": "Bronze Owl Brewing",
    "brewery_type": "brewpub",
    "street": "506 Vine St",
    "city": "Poplar Bluff",
    "state": "Missouri",
    "postal_code": "63901-7331",
    "website_url": "http://www.bronzeowlbrewing.com",
    "phone": "5738405202",
    "created_at": "2018-07-24 01:33:40.712544",
    "updated_at": "2018-08-24 00:46:16.932549",
    "country": "United States",
    "longitude": "-90.3957733846154",
    "latitude": "36.7566310769231"
  },
  {
    "id": "3998",
    "name": "Cathedral Square Brewery",
    "brewery_type": "contract",
    "street": "3914 Lindell Blvd",
    "city": "Saint Louis",
    "state": "Missouri",
    "postal_code": "63108-3204",
    "website_url": "http://www.cathedralsquarebrewery.com",
    "phone": "3148033605",
    "created_at": "2018-07-24 01:33:40.767826",
    "updated_at": "2018-08-24 00:46:18.98722",
    "country": "United States",
    "longitude": "-90.2439837",
    "latitude": "38.6394897"
  },
  {
    "id": "4002",
    "name": "Cinder Block Brewery",
    "brewery_type": "brewpub",
    "street": "110 E 18th Ave",
    "city": "North Kansas City",
    "state": "Missouri",
    "postal_code": "64116-3635",
    "website_url": "http://www.cinderblockbrewery.com",
    "phone": "8165608365",
    "created_at": "2018-07-24 01:33:40.821851",
    "updated_at": "2018-08-24 00:46:20.410864",
    "country": "United States",
    "longitude": "-94.5794652075528",
    "latitude": "39.1403371573456"
  },
  {
    "id": "4023",
    "name": "Griesedieck Brothers Brewery",
    "brewery_type": "contract",
    "street": "1240 Switzer Ave",
    "city": "Saint Louis",
    "state": "Missouri",
    "postal_code": "63147-1840",
    "website_url": "http://www.gb-beer.com",
    "phone": "3143093210",
    "created_at": "2018-07-24 01:33:41.120931",
    "updated_at": "2018-08-24 00:46:29.773541",
    "country": "United States",
    "longitude": "-90.2349872112676",
    "latitude": "38.7090351126761"
  },
  {
    "id": "4039",
    "name": "McCoy's Public House",
    "brewery_type": "brewpub",
    "street": "4057 Pennsylvania Ave",
    "city": "Kansas City",
    "state": "Missouri",
    "postal_code": "64111-3021",
    "website_url": "http://www.mccoyspublichouse.com",
    "phone": "8169600866",
    "created_at": "2018-07-24 01:33:41.334876",
    "updated_at": "2018-08-24 00:46:36.359778",
    "country": "United States",
    "longitude": "-94.5911729",
    "latitude": "39.1002989"
  },
  {
    "id": "4044",
    "name": "Morgan Street Brewery",
    "brewery_type": "proprietor",
    "street": "721 N 2nd St",
    "city": "Saint Louis",
    "state": "Missouri",
    "postal_code": "63102-2518",
    "website_url": "http://www.morganstreetbrewery.com",
    "phone": "3142319970",
    "created_at": "2018-07-24 01:33:41.400899",
    "updated_at": "2018-08-24 00:46:38.691058",
    "country": "United States",
    "longitude": "-90.1846587143656",
    "latitude": "38.6303271900035"
  },
  {
    "id": "4072",
    "name": "Strange Days Brewing Co",
    "brewery_type": "micro",
    "street": "316 Oak St",
    "city": "Kansas City",
    "state": "Missouri",
    "postal_code": "64106",
    "website_url": "http://www.strangedaysbrewing.com",
    "phone": "8164695321",
    "created_at": "2018-07-24 01:33:41.766066",
    "updated_at": "2018-08-24 00:46:48.321763",
    "country": "United States",
    "longitude": "-94.5799451187632",
    "latitude": "39.1100614"
  },
  {
    "id": "4084",
    "name": "Weston Brewing Co / O'Malley's Pub",
    "brewery_type": "micro",
    "street": "500 Welt St",
    "city": "Weston",
    "state": "Missouri",
    "postal_code": "64098-1242",
    "website_url": "http://www.westonirish.com",
    "phone": "",
    "created_at": "2018-07-24 01:33:41.933088",
    "updated_at": "2018-08-24 00:46:53.436399",
    "country": "United States",
    "longitude": "-94.899934",
    "latitude": "39.411378"
  },
  {
    "id": "4003",
    "name": "City Barrel Brewing Co",
    "brewery_type": "planning",
    "street": "",
    "city": "Kansas City",
    "state": "Missouri",
    "postal_code": "64108-1803",
    "website_url": "",
    "phone": "",
    "created_at": "2018-07-24 01:33:40.834333",
    "updated_at": "2018-08-11 21:38:07.350296",
    "country": "United States",
    "longitude": "",
    "latitude": ""
  },
  {
    "id": "3991",
    "name": "Brewery In Planning - Lees Summit",
    "brewery_type": "planning",
    "street": "",
    "city": "Lees Summit",
    "state": "Missouri",
    "postal_code": "64081",
    "website_url": "",
    "phone": "",
    "created_at": "2018-07-24 01:33:40.667222",
    "updated_at": "2018-08-11 21:38:06.947075",
    "country": "United States",
    "longitude": "",
    "latitude": ""
  },
  {
    "id": "3992",
    "name": "Brewery in Planning - Saint Louis",
    "brewery_type": "planning",
    "street": "",
    "city": "Saint Louis",
    "state": "Missouri",
    "postal_code": "63139",
    "website_url": "",
    "phone": "",
    "created_at": "2018-07-24 01:33:40.683006",
    "updated_at": "2018-08-11 21:38:06.977187",
    "country": "United States",
    "longitude": "",
    "latitude": ""
  },
  {
    "id": "3972",
    "name": "4 By 4 Brewing Company",
    "brewery_type": "micro",
    "street": "2811 E Galloway St Ste A",
    "city": "Springfield",
    "state": "Missouri",
    "postal_code": "65804-4601",
    "website_url": "http://www.4by4brewingcompany.com",
    "phone": "",
    "created_at": "2018-07-24 01:33:40.381456",
    "updated_at": "2018-08-11 21:38:06.401192",
    "country": "United States",
    "longitude": "",
    "latitude": ""
  },
  {
    "id": "3975",
    "name": "Amerisports Brew Pub",
    "brewery_type": "brewpub",
    "street": "3200 Ameristar Dr",
    "city": "Kansas City",
    "state": "Missouri",
    "postal_code": "64161",
    "website_url": "http://www.ameristar.com",
    "phone": "8164147435",
    "created_at": "2018-07-24 01:33:40.423162",
    "updated_at": "2018-08-11 21:38:06.486141",
    "country": "United States",
    "longitude": "",
    "latitude": ""
  },
  {
    "id": "3977",
    "name": "Apex Brew And BBQ Supplies",
    "brewery_type": "planning",
    "street": "",
    "city": "Independence",
    "state": "Missouri",
    "postal_code": "64055-4741",
    "website_url": "http://www.apexbrewwares.com",
    "phone": "8163135039",
    "created_at": "2018-07-24 01:33:40.456857",
    "updated_at": "2018-08-11 21:38:06.54457",
    "country": "United States",
    "longitude": "",
    "latitude": ""
  },
  {
    "id": "3980",
    "name": "Bard's Brewery, LLC",
    "brewery_type": "proprietor",
    "street": "",
    "city": "Lees Summit",
    "state": "Missouri",
    "postal_code": "64063-0905",
    "website_url": "http://www.bardsbeer.com",
    "phone": "8167281707",
    "created_at": "2018-07-24 01:33:40.498854",
    "updated_at": "2018-08-11 21:38:06.632422",
    "country": "United States",
    "longitude": "",
    "latitude": ""
  },
  {
    "id": "3984",
    "name": "Boat Town Brewing",
    "brewery_type": "micro",
    "street": "18146 Campground Rd",
    "city": "Phillipsburg",
    "state": "Missouri",
    "postal_code": "65722-8122",
    "website_url": "http://www.boattownbrewing.com",
    "phone": "4175332306",
    "created_at": "2018-07-24 01:33:40.554183",
    "updated_at": "2018-08-11 21:38:06.745494",
    "country": "United States",
    "longitude": "",
    "latitude": ""
  },
  {
    "id": "3989",
    "name": "Brewery in Planning - Kansas City",
    "brewery_type": "planning",
    "street": "",
    "city": "Kansas City",
    "state": "Missouri",
    "postal_code": "64141-0801",
    "website_url": "",
    "phone": "",
    "created_at": "2018-07-24 01:33:40.632418",
    "updated_at": "2018-08-11 21:38:06.893178",
    "country": "United States",
    "longitude": "",
    "latitude": ""
  },
  {
    "id": "3990",
    "name": "Brewery in Planning - Kansas city, MO",
    "brewery_type": "planning",
    "street": "",
    "city": "Kansas city",
    "state": "Missouri",
    "postal_code": "64108",
    "website_url": "",
    "phone": "8164210011",
    "created_at": "2018-07-24 01:33:40.648927",
    "updated_at": "2018-08-11 21:38:06.920231",
    "country": "United States",
    "longitude": "",
    "latitude": ""
  },
  {
    "id": "3971",
    "name": "2nd Shift Brewing Co",
    "brewery_type": "brewpub",
    "street": "1601 Sublette Ave",
    "city": "Saint Louis",
    "state": "Missouri",
    "postal_code": "63110-1924",
    "website_url": "http://www.2ndshiftbrewing.com",
    "phone": "6187910728",
    "created_at": "2018-07-24 01:33:40.368724",
    "updated_at": "2018-08-24 00:46:08.828559",
    "country": "United States",
    "longitude": "-90.280526",
    "latitude": "38.621943"
  },
  {
    "id": "3973",
    "name": "4 Hands Brewing Co",
    "brewery_type": "regional",
    "street": "1220 S 8th St",
    "city": "Saint Louis",
    "state": "Missouri",
    "postal_code": "63104-3610",
    "website_url": "",
    "phone": "3144361559",
    "created_at": "2018-07-24 01:33:40.395171",
    "updated_at": "2018-08-24 00:46:09.804085",
    "country": "United States",
    "longitude": "-90.1976201185216",
    "latitude": "38.6152659288115"
  },
  {
    "id": "3974",
    "name": "Alpha Brewing Co.",
    "brewery_type": "micro",
    "street": "4310 Fyler Ave",
    "city": "Saint Louis",
    "state": "Missouri",
    "postal_code": "63116",
    "website_url": "http://www.alphabrewingcompany.com",
    "phone": "3146212337",
    "created_at": "2018-07-24 01:33:40.407547",
    "updated_at": "2018-08-24 00:46:10.26282",
    "country": "United States",
    "longitude": "-90.262368381847",
    "latitude": "38.5986181736597"
  },
  {
    "id": "3978",
    "name": "Arcadian Moon",
    "brewery_type": "brewpub",
    "street": "19203 Old Highway 40",
    "city": "Higginsville",
    "state": "Missouri",
    "postal_code": "64037",
    "website_url": "http://www.arcadianmoon.com",
    "phone": "6605846661",
    "created_at": "2018-07-24 01:33:40.469752",
    "updated_at": "2018-08-24 00:46:11.618275",
    "country": "United States",
    "longitude": "-93.773203",
    "latitude": "39.001467"
  },
  {
    "id": "3979",
    "name": "Augusta Brewing Co",
    "brewery_type": "brewpub",
    "street": "109 W Main St",
    "city": "Washington",
    "state": "Missouri",
    "postal_code": "63090-2191",
    "website_url": "http://www.augustabrewing.com",
    "phone": "6362395010",
    "created_at": "2018-07-24 01:33:40.483507",
    "updated_at": "2018-08-24 00:46:12.114022",
    "country": "United States",
    "longitude": "-91.0117347240948",
    "latitude": "38.56026935"
  },
  {
    "id": "3982",
    "name": "Big Rip Brewing Company",
    "brewery_type": "micro",
    "street": "216 E 9th Ave",
    "city": "North Kansas City",
    "state": "Missouri",
    "postal_code": "64116-4315",
    "website_url": "http://www.bigripbrewing.com",
    "phone": "8168660747",
    "created_at": "2018-07-24 01:33:40.526572",
    "updated_at": "2018-08-24 00:46:12.984766",
    "country": "United States",
    "longitude": "-94.57786",
    "latitude": "39.1261133"
  },
  {
    "id": "3983",
    "name": "BKS Artisan Ales",
    "brewery_type": "micro",
    "street": "633 E 63rd St",
    "city": "Kansas City",
    "state": "Missouri",
    "postal_code": "64110",
    "website_url": "http://www.bksartisanales.com",
    "phone": "8166733027",
    "created_at": "2018-07-24 01:33:40.540136",
    "updated_at": "2018-08-24 00:46:13.574498",
    "country": "United States",
    "longitude": "-94.493961",
    "latitude": "39.010093"
  },
  {
    "id": "3985",
    "name": "Border Brewing Company",
    "brewery_type": "micro",
    "street": "406 E 18th St",
    "city": "Kansas City",
    "state": "Missouri",
    "postal_code": "64108",
    "website_url": "http://www.borderbrewco.com",
    "phone": "8163156807",
    "created_at": "2018-07-24 01:33:40.57312",
    "updated_at": "2018-08-24 00:46:14.491211",
    "country": "United States",
    "longitude": "-94.5786142",
    "latitude": "39.0917581"
  },
  {
    "id": "3986",
    "name": "Boulevard Brewing Co",
    "brewery_type": "regional",
    "street": "2501 Southwest Blvd",
    "city": "Kansas City",
    "state": "Missouri",
    "postal_code": "64108-2345",
    "website_url": "http://www.boulevard.com",
    "phone": "8164747095",
    "created_at": "2018-07-24 01:33:40.586763",
    "updated_at": "2018-08-24 00:46:14.963871",
    "country": "United States",
    "longitude": "-94.5968230668374",
    "latitude": "39.08196355"
  },
  {
    "id": "3987",
    "name": "Brew Hub Taproom",
    "brewery_type": "brewpub",
    "street": "5656 Oakland Avenue",
    "city": "St. Louis",
    "state": "Missouri",
    "postal_code": "63110",
    "website_url": "",
    "phone": "3148335453",
    "created_at": "2018-07-24 01:33:40.603853",
    "updated_at": "2018-08-24 00:46:15.470951",
    "country": "United States",
    "longitude": "-90.2830005342466",
    "latitude": "38.6304978630137"
  },
  {
    "id": "3988",
    "name": "Brewery Emperial",
    "brewery_type": "brewpub",
    "street": "1829 Oak St",
    "city": "Kansas City",
    "state": "Missouri",
    "postal_code": "64108",
    "website_url": "http://www.breweryemperial.com",
    "phone": "8169459625",
    "created_at": "2018-07-24 01:33:40.617402",
    "updated_at": "2018-08-24 00:46:16.013602",
    "country": "United States",
    "longitude": "-94.5788631428571",
    "latitude": "39.0911947142857"
  },
  {
    "id": "3993",
    "name": "Broadway Brewery",
    "brewery_type": "brewpub",
    "street": "816 E Broadway Ste B",
    "city": "Columbia",
    "state": "Missouri",
    "postal_code": "65201-4898",
    "website_url": "http://www.broadwaybrewery.com",
    "phone": "5734435054",
    "created_at": "2018-07-24 01:33:40.698312",
    "updated_at": "2018-08-11 21:38:07.004475",
    "country": "United States",
    "longitude": "",
    "latitude": ""
  },
  {
    "id": "3995",
    "name": "Bur Oak Company",
    "brewery_type": "micro",
    "street": "8250 E Trade Center Dr",
    "city": "Columbia",
    "state": "Missouri",
    "postal_code": "65201-7635",
    "website_url": "http://www.buroakbeer.com",
    "phone": "",
    "created_at": "2018-07-24 01:33:40.725717",
    "updated_at": "2018-08-11 21:38:07.063349",
    "country": "United States",
    "longitude": "",
    "latitude": ""
  },
  {
    "id": "3996",
    "name": "Calibration Brewery",
    "brewery_type": "brewpub",
    "street": "119 Armour Rd",
    "city": "Kansas City",
    "state": "Missouri",
    "postal_code": "64116-3502",
    "website_url": "http://www.calibrationbrewery.com",
    "phone": "8169948277",
    "created_at": "2018-07-24 01:33:40.740597",
    "updated_at": "2018-08-11 21:38:07.0932",
    "country": "United States",
    "longitude": "",
    "latitude": ""
  },
  {
    "id": "4000",
    "name": "Charleville Vineyard & Microbrewery",
    "brewery_type": "micro",
    "street": "16937 Boyd Rd",
    "city": "Sainte Genevieve",
    "state": "Missouri",
    "postal_code": "63670-7914",
    "website_url": "http://www.charlevillevineyard.com",
    "phone": "5737564537",
    "created_at": "2018-07-24 01:33:40.793743",
    "updated_at": "2018-08-11 21:38:07.212208",
    "country": "United States",
    "longitude": "",
    "latitude": ""
  },
  {
    "id": "4001",
    "name": "Charlie's Steak, Ribs & Ale",
    "brewery_type": "brewpub",
    "street": "3009 E State Hiwy 76",
    "city": "Branson",
    "state": "Missouri",
    "postal_code": "65616-8312",
    "website_url": "http://www.charliesbranson.com",
    "phone": "4173346090",
    "created_at": "2018-07-24 01:33:40.807174",
    "updated_at": "2018-08-11 21:38:07.297065",
    "country": "United States",
    "longitude": "",
    "latitude": ""
  },
  {
    "id": "4006",
    "name": "Crown Valley Brewing & Distilling Co",
    "brewery_type": "micro",
    "street": "23589 State Route Ww",
    "city": "Sainte Genevieve",
    "state": "Missouri",
    "postal_code": "63670-9039",
    "website_url": "http://www.crownvalleybrewery.com",
    "phone": "5737569700",
    "created_at": "2018-07-24 01:33:40.879411",
    "updated_at": "2018-08-11 21:38:07.44901",
    "country": "United States",
    "longitude": "",
    "latitude": ""
  },
  {
    "id": "4007",
    "name": "Deep Sleep Brewing Company LLC",
    "brewery_type": "micro",
    "street": "6891 Whiskey Creek Rd.",
    "city": "Washington",
    "state": "Missouri",
    "postal_code": "63090",
    "website_url": "",
    "phone": "3142395801",
    "created_at": "2018-07-24 01:33:40.894301",
    "updated_at": "2018-08-11 21:38:07.47729",
    "country": "United States",
    "longitude": "",
    "latitude": ""
  },
  {
    "id": "4008",
    "name": "Deslogetown Brewery",
    "brewery_type": "brewpub",
    "street": "1669 Pine Ridge Trail",
    "city": "Park Hills",
    "state": "Missouri",
    "postal_code": "63601",
    "website_url": "",
    "phone": "",
    "created_at": "2018-07-24 01:33:40.907277",
    "updated_at": "2018-08-11 21:38:07.505753",
    "country": "United States",
    "longitude": "",
    "latitude": ""
  },
  {
    "id": "4012",
    "name": "East Forty Brewing",
    "brewery_type": "planning",
    "street": "",
    "city": "Blue Springs",
    "state": "Missouri",
    "postal_code": "64015-3613",
    "website_url": "http://www.eastfortybrewing.com",
    "phone": "",
    "created_at": "2018-07-24 01:33:40.959206",
    "updated_at": "2018-08-11 21:38:07.61295",
    "country": "United States",
    "longitude": "",
    "latitude": ""
  },
  {
    "id": "4013",
    "name": "Exit 6 Brewery",
    "brewery_type": "micro",
    "street": "5055 Highway N Ste 112",
    "city": "Saint Charles",
    "state": "Missouri",
    "postal_code": "63304-8031",
    "website_url": "http://www.exit6brewery.com",
    "phone": "6362444343",
    "created_at": "2018-07-24 01:33:40.972414",
    "updated_at": "2018-08-11 21:38:07.643042",
    "country": "United States",
    "longitude": "",
    "latitude": ""
  },
  {
    "id": "4018",
    "name": "Good News Brewing Company",
    "brewery_type": "brewpub",
    "street": "330 Sonderen St",
    "city": "O Fallon",
    "state": "Missouri",
    "postal_code": "63366-2629",
    "website_url": "http://goodnewsbrewing.com",
    "phone": "6362946593",
    "created_at": "2018-07-24 01:33:41.049167",
    "updated_at": "2018-08-11 21:38:07.794288",
    "country": "United States",
    "longitude": "",
    "latitude": ""
  },
  {
    "id": "4026",
    "name": "High Heel Brewing",
    "brewery_type": "micro",
    "street": "5656 Oakland",
    "city": "Saint Louis",
    "state": "Missouri",
    "postal_code": "63110",
    "website_url": "http://highheelbrewing.com",
    "phone": "",
    "created_at": "2018-07-24 01:33:41.159688",
    "updated_at": "2018-08-11 21:38:08.061618",
    "country": "United States",
    "longitude": "",
    "latitude": ""
  },
  {
    "id": "4031",
    "name": "Lake Bums BrewCo, LLC.",
    "brewery_type": "micro",
    "street": "112 Parrothead Ln",
    "city": "Pontiac",
    "state": "Missouri",
    "postal_code": "65729-7134",
    "website_url": "http://www.lakebumsbrewco.com",
    "phone": "4172936684",
    "created_at": "2018-07-24 01:33:41.231336",
    "updated_at": "2018-08-11 21:38:08.204064",
    "country": "United States",
    "longitude": "",
    "latitude": ""
  },
  {
    "id": "4035",
    "name": "Mackenzie Brewing Company",
    "brewery_type": "planning",
    "street": "",
    "city": "Valley Park",
    "state": "Missouri",
    "postal_code": "63088",
    "website_url": "http://www.mknzbrewing.com",
    "phone": "3147508307",
    "created_at": "2018-07-24 01:33:41.282024",
    "updated_at": "2018-08-11 21:38:08.325061",
    "country": "United States",
    "longitude": "",
    "latitude": ""
  },
  {
    "id": "3999",
    "name": "Center Ice Brewing Company",
    "brewery_type": "micro",
    "street": "3126 Olive St.",
    "city": "Saint Louis",
    "state": "Missouri",
    "postal_code": "63103",
    "website_url": "http://www.centericebrewery.com",
    "phone": "3142779843",
    "created_at": "2018-07-24 01:33:40.780925",
    "updated_at": "2018-08-24 00:46:19.46483",
    "country": "United States",
    "longitude": "-90.2243063679217",
    "latitude": "38.6353000597984"
  },
  {
    "id": "4004",
    "name": "Civil Life Brewing Company",
    "brewery_type": "brewpub",
    "street": "3714 Holt Ave",
    "city": "Saint Louis",
    "state": "Missouri",
    "postal_code": "63116-2614",
    "website_url": "http://www.thecivillife.com",
    "phone": "",
    "created_at": "2018-07-24 01:33:40.850311",
    "updated_at": "2018-08-24 00:46:20.86525",
    "country": "United States",
    "longitude": "-90.2580716468097",
    "latitude": "38.590897297562"
  },
  {
    "id": "4005",
    "name": "Crane Brewing Company",
    "brewery_type": "micro",
    "street": "6515 Railroad St",
    "city": "Raytown",
    "state": "Missouri",
    "postal_code": "64133-5210",
    "website_url": "http://www.cranebrewing.com",
    "phone": "8167434132",
    "created_at": "2018-07-24 01:33:40.864255",
    "updated_at": "2018-08-24 00:46:21.307992",
    "country": "United States",
    "longitude": "-94.4629013839175",
    "latitude": "39.0052427173607"
  },
  {
    "id": "4009",
    "name": "Double Shift Brewing",
    "brewery_type": "micro",
    "street": "412 E 18th St",
    "city": "Kansas City",
    "state": "Missouri",
    "postal_code": "64108-1410",
    "website_url": "http://www.doubleshiftbrewing.com",
    "phone": "8163047028",
    "created_at": "2018-07-24 01:33:40.920898",
    "updated_at": "2018-08-24 00:46:23.379078",
    "country": "United States",
    "longitude": "-94.5786837346939",
    "latitude": "39.0917049387755"
  },
  {
    "id": "4010",
    "name": "Dubious Claims Brewing",
    "brewery_type": "brewpub",
    "street": "451 S Thompson Ave",
    "city": "Excelsior Springs",
    "state": "Missouri",
    "postal_code": "64024-2133",
    "website_url": "",
    "phone": "8168962477",
    "created_at": "2018-07-24 01:33:40.933252",
    "updated_at": "2018-08-24 00:46:23.939346",
    "country": "United States",
    "longitude": "-94.2258992647695",
    "latitude": "39.3393358306373"
  },
  {
    "id": "4011",
    "name": "Earthbound Beer",
    "brewery_type": "brewpub",
    "street": "2724 Cherokee St",
    "city": "Saint Louis",
    "state": "Missouri",
    "postal_code": "63118-3036",
    "website_url": "http://www.earthboundbeer.com",
    "phone": "3147699576",
    "created_at": "2018-07-24 01:33:40.945766",
    "updated_at": "2018-08-24 00:46:24.436659",
    "country": "United States",
    "longitude": "-90.2286695871746",
    "latitude": "38.5935862955641"
  },
  {
    "id": "4014",
    "name": "Ferguson Brewing Co",
    "brewery_type": "brewpub",
    "street": "418 S Florissant Rd",
    "city": "Saint Louis",
    "state": "Missouri",
    "postal_code": "63135-2716",
    "website_url": "http://www.fergusonbrewing.com",
    "phone": "3142547359",
    "created_at": "2018-07-24 01:33:40.985621",
    "updated_at": "2018-08-24 00:46:25.409102",
    "country": "United States",
    "longitude": "-90.3023163",
    "latitude": "38.7383895"
  },
  {
    "id": "4016",
    "name": "Friendship Brewing Company",
    "brewery_type": "brewpub",
    "street": "100 Pitman Ave",
    "city": "Wentzville",
    "state": "Missouri",
    "postal_code": "63385-1700",
    "website_url": "",
    "phone": "",
    "created_at": "2018-07-24 01:33:41.016167",
    "updated_at": "2018-08-24 00:46:26.398164",
    "country": "United States",
    "longitude": "-90.8512976",
    "latitude": "38.8107544"
  },
  {
    "id": "4017",
    "name": "Fringe Beerworks",
    "brewery_type": "micro",
    "street": "224 SE Douglas St",
    "city": "Lees Summit",
    "state": "Missouri",
    "postal_code": "64063-2329",
    "website_url": "http://www.fringebeerworks.com",
    "phone": "8166002552",
    "created_at": "2018-07-24 01:33:41.032783",
    "updated_at": "2018-08-24 00:46:26.852497",
    "country": "United States",
    "longitude": "-94.37672",
    "latitude": "38.913133"
  },
  {
    "id": "4019",
    "name": "Granite City Food & Brewery (#11)",
    "brewery_type": "brewpub",
    "street": "8461 NW Prairie View Rd",
    "city": "Kansas City",
    "state": "Missouri",
    "postal_code": "64153-1842",
    "website_url": "http://www.gcfb.net",
    "phone": "8165873838",
    "created_at": "2018-07-24 01:33:41.065",
    "updated_at": "2018-08-24 00:46:27.892153",
    "country": "United States",
    "longitude": "-94.66105",
    "latitude": "39.2493641483218"
  },
  {
    "id": "4020",
    "name": "Granite City Food & Brewery (#29)",
    "brewery_type": "brewpub",
    "street": "11411 Olive Blvd",
    "city": "Creve Coeur",
    "state": "Missouri",
    "postal_code": "63141-7108",
    "website_url": "http://www.gcfb.net",
    "phone": "3144323535",
    "created_at": "2018-07-24 01:33:41.081469",
    "updated_at": "2018-08-24 00:46:28.351383",
    "country": "United States",
    "longitude": "-90.4333875245224",
    "latitude": "38.67222065"
  },
  {
    "id": "4021",
    "name": "Green Room Burgers & Beer",
    "brewery_type": "brewpub",
    "street": "4010 Pennsylvania Ave",
    "city": "Kansas City",
    "state": "Missouri",
    "postal_code": "64111-3010",
    "website_url": "http://www.greenroomkc.com",
    "phone": "8162167682",
    "created_at": "2018-07-24 01:33:41.095359",
    "updated_at": "2018-08-24 00:46:28.807141",
    "country": "United States",
    "longitude": "-94.5932559",
    "latitude": "39.0544808"
  },
  {
    "id": "4022",
    "name": "Greer Brewing",
    "brewery_type": "brewpub",
    "street": "16050 Manchester Rd",
    "city": "Ellisville",
    "state": "Missouri",
    "postal_code": "63011-2161",
    "website_url": "http://www.greerbrewingco.com",
    "phone": "6363463979",
    "created_at": "2018-07-24 01:33:41.107528",
    "updated_at": "2018-08-24 00:46:29.333449",
    "country": "United States",
    "longitude": "-90.5948465210502",
    "latitude": "38.5906250047908"
  },
  {
    "id": "4024",
    "name": "Gruhlke's Microbrewery / Bias Vineyards",
    "brewery_type": "brewpub",
    "street": "3166 Highway B",
    "city": "Berger",
    "state": "Missouri",
    "postal_code": "63014-1418",
    "website_url": "http://www.biaswinery.com",
    "phone": "5738345475",
    "created_at": "2018-07-24 01:33:41.132987",
    "updated_at": "2018-08-24 00:46:30.26114",
    "country": "United States",
    "longitude": "-91.3352114",
    "latitude": "38.6769847"
  },
  {
    "id": "4025",
    "name": "Heavy Riff Brewing",
    "brewery_type": "brewpub",
    "street": "6413 Clayton Ave",
    "city": "Saint Louis",
    "state": "Missouri",
    "postal_code": "63139-3305",
    "website_url": "http://www.heavyriffbrwing.com",
    "phone": "3148286148",
    "created_at": "2018-07-24 01:33:41.145806",
    "updated_at": "2018-08-24 00:46:30.782271",
    "country": "United States",
    "longitude": "-90.2931003527612",
    "latitude": "38.6287165375178"
  },
  {
    "id": "4027",
    "name": "Indian Springs Brewing Company",
    "brewery_type": "proprietor",
    "street": "109 E Main St",
    "city": "Neosho",
    "state": "Missouri",
    "postal_code": "64850-1810",
    "website_url": "http://www.indianspringsbrewing.com",
    "phone": "4174549498",
    "created_at": "2018-07-24 01:33:41.173407",
    "updated_at": "2018-08-24 00:46:31.229516",
    "country": "United States",
    "longitude": "-94.3674090204082",
    "latitude": "36.8685369795918"
  },
  {
    "id": "4028",
    "name": "Jackson Street Brew Co.",
    "brewery_type": "brewpub",
    "street": "106 N Jackson St",
    "city": "Perryville",
    "state": "Missouri",
    "postal_code": "63775-1336",
    "website_url": "",
    "phone": "",
    "created_at": "2018-07-24 01:33:41.187827",
    "updated_at": "2018-08-24 00:46:31.655464",
    "country": "United States",
    "longitude": "-89.8637548367347",
    "latitude": "37.7259728571429"
  },
  {
    "id": "4029",
    "name": "Kansas City Bier Company",
    "brewery_type": "micro",
    "street": "310 W 79th St",
    "city": "Kansas City",
    "state": "Missouri",
    "postal_code": "64114-1843",
    "website_url": "http://www.kcbier.com",
    "phone": "8162148691",
    "created_at": "2018-07-24 01:33:41.204476",
    "updated_at": "2018-08-24 00:46:32.11763",
    "country": "United States",
    "longitude": "-94.5936711937258",
    "latitude": "38.98548485"
  },
  {
    "id": "4032",
    "name": "Levi Garrison & Sons Brewing Company",
    "brewery_type": "micro",
    "street": "105 W Bird St",
    "city": "Hamilton",
    "state": "Missouri",
    "postal_code": "64644-1029",
    "website_url": "http://www.lgsbrewingco.com",
    "phone": "8166689421",
    "created_at": "2018-07-24 01:33:41.244128",
    "updated_at": "2018-08-24 00:46:33.418316",
    "country": "United States",
    "longitude": "-94.00051",
    "latitude": "39.744246"
  },
  {
    "id": "4033",
    "name": "Logboat Brewing Co",
    "brewery_type": "micro",
    "street": "504 Fay St",
    "city": "Columbia",
    "state": "Missouri",
    "postal_code": "65201-4782",
    "website_url": "http://www.logboatbrewing.com",
    "phone": "5733976786",
    "created_at": "2018-07-24 01:33:41.257493",
    "updated_at": "2018-08-24 00:46:33.860169",
    "country": "United States",
    "longitude": "-92.322650149356",
    "latitude": "38.9570863933001"
  },
  {
    "id": "4034",
    "name": "Lost Signal Brewing Company",
    "brewery_type": "brewpub",
    "street": "610 W College St",
    "city": "Springfield",
    "state": "Missouri",
    "postal_code": "65806-1240",
    "website_url": "http://www.lostsignalbrewing.com",
    "phone": "9723104162",
    "created_at": "2018-07-24 01:33:41.270138",
    "updated_at": "2018-08-24 00:46:34.300562",
    "country": "United States",
    "longitude": "-93.2974611",
    "latitude": "37.2085049"
  },
  {
    "id": "4036",
    "name": "Main And Mill Brewing Company",
    "brewery_type": "brewpub",
    "street": "240 E Main St",
    "city": "Festus",
    "state": "Missouri",
    "postal_code": "63028-1907",
    "website_url": "http://www.mainandmillbrewco.com",
    "phone": "6365433031",
    "created_at": "2018-07-24 01:33:41.295086",
    "updated_at": "2018-08-24 00:46:34.756927",
    "country": "United States",
    "longitude": "-90.392652168841",
    "latitude": "38.2197488496457"
  },
  {
    "id": "4037",
    "name": "Mark Twain Brewing Company",
    "brewery_type": "brewpub",
    "street": "422 N Main St",
    "city": "Hannibal",
    "state": "Missouri",
    "postal_code": "63401-3324",
    "website_url": "http://www.marktwainbrewery.com",
    "phone": "5734061300",
    "created_at": "2018-07-24 01:33:41.307245",
    "updated_at": "2018-08-24 00:46:35.251206",
    "country": "United States",
    "longitude": "-91.3574422522266",
    "latitude": "39.71293685"
  },
  {
    "id": "4038",
    "name": "Martin City Brewing Company",
    "brewery_type": "micro",
    "street": "410 E 135th St",
    "city": "Kansas City",
    "state": "Missouri",
    "postal_code": "64145-1672",
    "website_url": "http://www.martincitybrewing.com",
    "phone": "8162682222",
    "created_at": "2018-07-24 01:33:41.320709",
    "updated_at": "2018-08-24 00:46:35.750095",
    "country": "United States",
    "longitude": "-94.590214",
    "latitude": "38.882691"
  },
  {
    "id": "4040",
    "name": "Miami Creek Brewing Company",
    "brewery_type": "micro",
    "street": "14226 NW County Road 14001",
    "city": "Drexel",
    "state": "Missouri",
    "postal_code": "64742-9733",
    "website_url": "http://www.miamicreek.com",
    "phone": "8168920297",
    "created_at": "2018-07-24 01:33:41.347869",
    "updated_at": "2018-08-11 21:38:08.474047",
    "country": "United States",
    "longitude": "",
    "latitude": ""
  },
  {
    "id": "4042",
    "name": "Missouri Beer Company",
    "brewery_type": "micro",
    "street": "22 W Industrial Dr",
    "city": "O Fallon",
    "state": "Missouri",
    "postal_code": "63366-1926",
    "website_url": "http://www.mobeerco.com",
    "phone": "6362946672",
    "created_at": "2018-07-24 01:33:41.372636",
    "updated_at": "2018-08-11 21:38:08.531297",
    "country": "United States",
    "longitude": "",
    "latitude": ""
  },
  {
    "id": "4043",
    "name": "Modern Brewery",
    "brewery_type": "micro",
    "street": "5231 Manchester Ave # E",
    "city": "Saint Louis",
    "state": "Missouri",
    "postal_code": "63110-2092",
    "website_url": "http://www.mb314.com",
    "phone": "",
    "created_at": "2018-07-24 01:33:41.38755",
    "updated_at": "2018-08-11 21:38:08.561645",
    "country": "United States",
    "longitude": "",
    "latitude": ""
  },
  {
    "id": "4048",
    "name": "Outlaw Cigar / Gunslinger Saloon Brewing",
    "brewery_type": "planning",
    "street": "",
    "city": "Kansas City",
    "state": "Missouri",
    "postal_code": "64151-2026",
    "website_url": "http://www.outlawcigar.com",
    "phone": "8165052442",
    "created_at": "2018-07-24 01:33:41.453441",
    "updated_at": "2018-08-11 21:38:08.706446",
    "country": "United States",
    "longitude": "",
    "latitude": ""
  },
  {
    "id": "4049",
    "name": "Ozarks Brewing Company",
    "brewery_type": "brewpub",
    "street": "1872 S. U.S. Hwy. 63",
    "city": "West Plains",
    "state": "Missouri",
    "postal_code": "65775",
    "website_url": "http://www.ozarksbrewing.com",
    "phone": "4172741507",
    "created_at": "2018-07-24 01:33:41.465568",
    "updated_at": "2018-08-11 21:38:08.736579",
    "country": "United States",
    "longitude": "",
    "latitude": ""
  },
  {
    "id": "4050",
    "name": "Perennial Artisan Ales",
    "brewery_type": "micro",
    "street": "8125 Michigan Ave Ste 116",
    "city": "Saint Louis",
    "state": "Missouri",
    "postal_code": "63111-3535",
    "website_url": "http://www.perennialbeer.com",
    "phone": "3146317300",
    "created_at": "2018-07-24 01:33:41.479739",
    "updated_at": "2018-08-11 21:38:08.764377",
    "country": "United States",
    "longitude": "",
    "latitude": ""
  },
  {
    "id": "4052",
    "name": "Point Labaddie Brewery",
    "brewery_type": "micro",
    "street": "1029 Thiebes Rd",
    "city": "Labadie",
    "state": "Missouri",
    "postal_code": "63055-1712",
    "website_url": "http://www.pointlabaddiebrewery.com",
    "phone": "6367422861",
    "created_at": "2018-07-24 01:33:41.506456",
    "updated_at": "2018-08-11 21:38:08.840128",
    "country": "United States",
    "longitude": "",
    "latitude": ""
  },
  {
    "id": "4053",
    "name": "Prehistoric Brewing Company",
    "brewery_type": "planning",
    "street": "",
    "city": "Willard",
    "state": "Missouri",
    "postal_code": "65781-8323",
    "website_url": "http://www.prehistoricbrewing.com",
    "phone": "",
    "created_at": "2018-07-24 01:33:41.518454",
    "updated_at": "2018-08-11 21:38:08.870059",
    "country": "United States",
    "longitude": "",
    "latitude": ""
  },
  {
    "id": "4055",
    "name": "Propagation LLC",
    "brewery_type": "planning",
    "street": "",
    "city": "Saint Louis",
    "state": "Missouri",
    "postal_code": "63104-2425",
    "website_url": "http://www.propagation.us",
    "phone": "",
    "created_at": "2018-07-24 01:33:41.543531",
    "updated_at": "2018-08-11 21:38:08.925139",
    "country": "United States",
    "longitude": "",
    "latitude": ""
  },
  {
    "id": "4056",
    "name": "Public House Brewing Co",
    "brewery_type": "micro",
    "street": "551 State Route B",
    "city": "Saint James",
    "state": "Missouri",
    "postal_code": "65559-1055",
    "website_url": "http://www.publichousebrewery.com",
    "phone": "5732613333",
    "created_at": "2018-07-24 01:33:41.556411",
    "updated_at": "2018-08-11 21:38:08.953573",
    "country": "United States",
    "longitude": "",
    "latitude": ""
  },
  {
    "id": "4059",
    "name": "River Bluff Brewing",
    "brewery_type": "planning",
    "street": "",
    "city": "Saint Joseph",
    "state": "Missouri",
    "postal_code": "64501-2334",
    "website_url": "",
    "phone": "",
    "created_at": "2018-07-24 01:33:41.593421",
    "updated_at": "2018-08-11 21:38:09.011537",
    "country": "United States",
    "longitude": "",
    "latitude": ""
  },
  {
    "id": "4061",
    "name": "Rockwell Beer Company",
    "brewery_type": "planning",
    "street": "",
    "city": "Saint Louis",
    "state": "Missouri",
    "postal_code": "63110",
    "website_url": "http://www.rockwellbeer.com",
    "phone": "3144094119",
    "created_at": "2018-07-24 01:33:41.618046",
    "updated_at": "2018-08-11 21:38:09.068682",
    "country": "United States",
    "longitude": "",
    "latitude": ""
  },
  {
    "id": "4063",
    "name": "Schlafly Bottleworks",
    "brewery_type": "regional",
    "street": "1 Schlafly Plz",
    "city": "Saint Louis",
    "state": "Missouri",
    "postal_code": "63143-2454",
    "website_url": "http://www.schlafly.com",
    "phone": "3142412337",
    "created_at": "2018-07-24 01:33:41.644911",
    "updated_at": "2018-08-11 21:38:09.133926",
    "country": "United States",
    "longitude": "",
    "latitude": ""
  },
  {
    "id": "4067",
    "name": "Southern Heritage Brewing Company",
    "brewery_type": "planning",
    "street": "",
    "city": "Doe Run",
    "state": "Missouri",
    "postal_code": "63637-3202",
    "website_url": "http://www.southernheritagebrewing.com",
    "phone": "5737015583",
    "created_at": "2018-07-24 01:33:41.700181",
    "updated_at": "2018-08-11 21:38:09.379395",
    "country": "United States",
    "longitude": "",
    "latitude": ""
  },
  {
    "id": "4070",
    "name": "Steampunk Brew Works",
    "brewery_type": "micro",
    "street": "231 Lamp and Lantern Vlg",
    "city": "Chesterfield",
    "state": "Missouri",
    "postal_code": "63017-8209",
    "website_url": "http://www.steampunkbrewworks.com",
    "phone": "6362308277",
    "created_at": "2018-07-24 01:33:41.74137",
    "updated_at": "2018-08-11 21:38:09.49084",
    "country": "United States",
    "longitude": "",
    "latitude": ""
  },
  {
    "id": "4071",
    "name": "Stockyards Brewing Company",
    "brewery_type": "micro",
    "street": "1600 Genessee St Ste 100",
    "city": "Kansas City",
    "state": "Missouri",
    "postal_code": "64102-1044",
    "website_url": "http://www.stockyardsbrewing.com",
    "phone": "8168958880",
    "created_at": "2018-07-24 01:33:41.753866",
    "updated_at": "2018-08-11 21:38:09.539",
    "country": "United States",
    "longitude": "",
    "latitude": ""
  },
  {
    "id": "4079",
    "name": "Uranus Brewery",
    "brewery_type": "planning",
    "street": "",
    "city": "Saint Robert",
    "state": "Missouri",
    "postal_code": "65584",
    "website_url": "http://www.UranusMissouri.com",
    "phone": "5735282924",
    "created_at": "2018-07-24 01:33:41.865509",
    "updated_at": "2018-08-11 21:38:09.806166",
    "country": "United States",
    "longitude": "",
    "latitude": ""
  },
  {
    "id": "4083",
    "name": "Welpman Springs Brewing Company, LLC.",
    "brewery_type": "micro",
    "street": "517 Hatchery Rd",
    "city": "Stover",
    "state": "Missouri",
    "postal_code": "65078-1132",
    "website_url": "http://www.welpmanspringsbrewing.weebly.com",
    "phone": "5733772343",
    "created_at": "2018-07-24 01:33:41.916904",
    "updated_at": "2018-08-11 21:38:09.946903",
    "country": "United States",
    "longitude": "",
    "latitude": ""
  },
  {
    "id": "4041",
    "name": "Minglewood Brewery",
    "brewery_type": "brewpub",
    "street": "121 Broadway St",
    "city": "Cape Girardeau",
    "state": "Missouri",
    "postal_code": "63701-7326",
    "website_url": "http://www.minglewoodbrewery.com",
    "phone": "5738030524",
    "created_at": "2018-07-24 01:33:41.360134",
    "updated_at": "2018-08-24 00:46:37.297176",
    "country": "United States",
    "longitude": "-89.5185209550299",
    "latitude": "37.3058363554378"
  },
  {
    "id": "4045",
    "name": "Mother's Brewing Co",
    "brewery_type": "micro",
    "street": "215 S Grant Ave",
    "city": "Springfield",
    "state": "Missouri",
    "postal_code": "65806-2001",
    "website_url": "http://www.mothersbrewing.com",
    "phone": "4178620423",
    "created_at": "2018-07-24 01:33:41.414133",
    "updated_at": "2018-08-24 00:46:39.142247",
    "country": "United States",
    "longitude": "-93.2992828178406",
    "latitude": "37.20791735"
  },
  {
    "id": "4047",
    "name": "O'Fallon Brewery",
    "brewery_type": "micro",
    "street": "45 Progress Pkwy",
    "city": "Maryland Heights",
    "state": "Missouri",
    "postal_code": "63043-3701",
    "website_url": "http://www.ofallonbrewery.com",
    "phone": "6362812337",
    "created_at": "2018-07-24 01:33:41.440889",
    "updated_at": "2018-08-24 00:46:40.010429",
    "country": "United States",
    "longitude": "-90.4458066747764",
    "latitude": "38.7125042149117"
  },
  {
    "id": "4051",
    "name": "Piney River Brewing Company",
    "brewery_type": "micro",
    "street": "15194 Walnut Grove Dr",
    "city": "Bucyrus",
    "state": "Missouri",
    "postal_code": "65444-9002",
    "website_url": "http://www.pineyriverbrewing.com",
    "phone": "4179674001",
    "created_at": "2018-07-24 01:33:41.493499",
    "updated_at": "2018-08-24 00:46:41.432674",
    "country": "United States",
    "longitude": "-92.0176853708533",
    "latitude": "37.3214879835947"
  },
  {
    "id": "4054",
    "name": "Prison Brews",
    "brewery_type": "brewpub",
    "street": "305 Ash St",
    "city": "Jefferson City",
    "state": "Missouri",
    "postal_code": "65101-4002",
    "website_url": "http://www.prisonbrews.com",
    "phone": "5736350678",
    "created_at": "2018-07-24 01:33:41.531467",
    "updated_at": "2018-08-24 00:46:42.317297",
    "country": "United States",
    "longitude": "-92.1616013",
    "latitude": "38.5687256"
  },
  {
    "id": "4060",
    "name": "Rock & Run Brewery",
    "brewery_type": "brewpub",
    "street": "110 E Kansas St",
    "city": "Liberty",
    "state": "Missouri",
    "postal_code": "64068-2374",
    "website_url": "http://www.rockandrunbrewery.com",
    "phone": "8164152337",
    "created_at": "2018-07-24 01:33:41.605407",
    "updated_at": "2018-08-24 00:46:43.676137",
    "country": "United States",
    "longitude": "-94.4190247",
    "latitude": "39.2461993"
  },
  {
    "id": "4062",
    "name": "Schlafly Beer/The Saint Louis Brewery, LLC",
    "brewery_type": "regional",
    "street": "2100 Locust St",
    "city": "Saint Louis",
    "state": "Missouri",
    "postal_code": "63103-1616",
    "website_url": "http://www.schlafly.com",
    "phone": "3142412337",
    "created_at": "2018-07-24 01:33:41.630987",
    "updated_at": "2018-08-24 00:46:44.107208",
    "country": "United States",
    "longitude": "-90.2096942481772",
    "latitude": "38.63298865"
  },
  {
    "id": "4064",
    "name": "Side Project Brewing",
    "brewery_type": "micro",
    "street": "7458 Manchester Rd",
    "city": "Maplewood",
    "state": "Missouri",
    "postal_code": "63143-3032",
    "website_url": "http://www.SideProjectBrewing.com",
    "phone": "3142245211",
    "created_at": "2018-07-24 01:33:41.658243",
    "updated_at": "2018-08-24 00:46:45.021598",
    "country": "United States",
    "longitude": "-90.3222114615022",
    "latitude": "38.6122348370255"
  },
  {
    "id": "4065",
    "name": "Six Mile Bridge Brewery",
    "brewery_type": "micro",
    "street": "11841 Dorsett Rd",
    "city": "Maryland Heights",
    "state": "Missouri",
    "postal_code": "63043-2503",
    "website_url": "http://www.sixmilebridgebeer.com",
    "phone": "",
    "created_at": "2018-07-24 01:33:41.675748",
    "updated_at": "2018-08-24 00:46:45.577932",
    "country": "United States",
    "longitude": "-90.4318257169243",
    "latitude": "38.714489"
  },
  {
    "id": "4066",
    "name": "Smoke Brewing Company",
    "brewery_type": "brewpub",
    "street": "209 SE Main St.",
    "city": "Lees Summit",
    "state": "Missouri",
    "postal_code": "64063",
    "website_url": "",
    "phone": "8165252337",
    "created_at": "2018-07-24 01:33:41.68808",
    "updated_at": "2018-08-24 00:46:46.069162",
    "country": "United States",
    "longitude": "-94.3780773877551",
    "latitude": "38.9133490408163"
  },
  {
    "id": "4068",
    "name": "Springfield Brewing Co",
    "brewery_type": "brewpub",
    "street": "305 S Market Ave",
    "city": "Springfield",
    "state": "Missouri",
    "postal_code": "65806-2023",
    "website_url": "http://www.springfieldbrewingco.com",
    "phone": "4178328277",
    "created_at": "2018-07-24 01:33:41.712731",
    "updated_at": "2018-08-24 00:46:46.538293",
    "country": "United States",
    "longitude": "-93.295625",
    "latitude": "37.2077630266667"
  },
  {
    "id": "4069",
    "name": "Square One Brewery and Distillery",
    "brewery_type": "brewpub",
    "street": "1727 Park Ave",
    "city": "Saint Louis",
    "state": "Missouri",
    "postal_code": "63104-2941",
    "website_url": "http://www.squareonebrewery.com",
    "phone": "3142312537",
    "created_at": "2018-07-24 01:33:41.725196",
    "updated_at": "2018-08-24 00:46:46.991552",
    "country": "United States",
    "longitude": "-90.2103947346939",
    "latitude": "38.616665"
  },
  {
    "id": "4073",
    "name": "Strange Days Brewing Company",
    "brewery_type": "micro",
    "street": "316 Oak St",
    "city": "Kansas City",
    "state": "Missouri",
    "postal_code": "64106",
    "website_url": "http://www.strangedaysbrewing.com",
    "phone": "9134336232",
    "created_at": "2018-07-24 01:33:41.778289",
    "updated_at": "2018-08-24 00:46:48.762839",
    "country": "United States",
    "longitude": "-94.5799451187632",
    "latitude": "39.1100614"
  },
  {
    "id": "4074",
    "name": "Third Wheel Brewing",
    "brewery_type": "brewpub",
    "street": "4008 N Service Rd",
    "city": "Saint Peters",
    "state": "Missouri",
    "postal_code": "63376-6462",
    "website_url": "http://www.thirdwheelbrewing.com",
    "phone": "6363239810",
    "created_at": "2018-07-24 01:33:41.791398",
    "updated_at": "2018-08-24 00:46:49.296971",
    "country": "United States",
    "longitude": "-90.5702331498145",
    "latitude": "38.7957811617137"
  },
  {
    "id": "4075",
    "name": "Tie and Timber Beer Company",
    "brewery_type": "micro",
    "street": "1459 E Cherry St",
    "city": "Springfield",
    "state": "Missouri",
    "postal_code": "65802-3356",
    "website_url": "",
    "phone": "7202814664",
    "created_at": "2018-07-24 01:33:41.807752",
    "updated_at": "2018-08-24 00:46:49.920147",
    "country": "United States",
    "longitude": "-93.2689605",
    "latitude": "37.2037898333333"
  },
  {
    "id": "4076",
    "name": "Tin Mill Brewing Co",
    "brewery_type": "brewpub",
    "street": "114 Gutenberg St",
    "city": "Hermann",
    "state": "Missouri",
    "postal_code": "65041-1138",
    "website_url": "http://www.tinmillbrewing.com",
    "phone": "5734862275",
    "created_at": "2018-07-24 01:33:41.819856",
    "updated_at": "2018-08-24 00:46:50.363746",
    "country": "United States",
    "longitude": "-91.4330355714286",
    "latitude": "38.706022"
  },
  {
    "id": "4078",
    "name": "Trailhead Brewing Co",
    "brewery_type": "brewpub",
    "street": "921 S Riverside Dr",
    "city": "Saint Charles",
    "state": "Missouri",
    "postal_code": "63301-3489",
    "website_url": "http://www.trailheadbrewing.com",
    "phone": "6369462739",
    "created_at": "2018-07-24 01:33:41.85042",
    "updated_at": "2018-08-24 00:46:51.278984",
    "country": "United States",
    "longitude": "-90.4842484281908",
    "latitude": "38.7741905718092"
  },
  {
    "id": "4080",
    "name": "Urban Chestnut Brewing Co",
    "brewery_type": "regional",
    "street": "4465 Manchester Ave",
    "city": "Saint Louis",
    "state": "Missouri",
    "postal_code": "63110-2113",
    "website_url": "",
    "phone": "",
    "created_at": "2018-07-24 01:33:41.878688",
    "updated_at": "2018-08-24 00:46:51.706178",
    "country": "United States",
    "longitude": "-90.261143",
    "latitude": "38.626662"
  },
  {
    "id": "4081",
    "name": "Wages Brewing Company",
    "brewery_type": "micro",
    "street": "1382 Bill Virdon Blvd",
    "city": "West Plains",
    "state": "Missouri",
    "postal_code": "65775-3383",
    "website_url": "http://www.wagesbrewco.com",
    "phone": "4172933119",
    "created_at": "2018-07-24 01:33:41.891176",
    "updated_at": "2018-08-24 00:46:52.126109",
    "country": "United States",
    "longitude": "-91.8351090033593",
    "latitude": "36.72461005"
  },
  {
    "id": "4082",
    "name": "Wellspent Brewing Company",
    "brewery_type": "micro",
    "street": "2917 Olive Street",
    "city": "Saint Louis",
    "state": "Missouri",
    "postal_code": "63103",
    "website_url": "http://www.wellspentbeer.com",
    "phone": "3143280505",
    "created_at": "2018-07-24 01:33:41.903899",
    "updated_at": "2018-08-24 00:46:52.571705",
    "country": "United States",
    "longitude": "-90.2207367589074",
    "latitude": "38.6348785"
  },
  {
    "id": "4086",
    "name": "Wild Water",
    "brewery_type": "micro",
    "street": "9995 Winghaven Blvd",
    "city": "O Fallon",
    "state": "Missouri",
    "postal_code": "63368-3623",
    "website_url": "",
    "phone": "6362650751",
    "created_at": "2018-07-24 01:33:41.959318",
    "updated_at": "2018-08-11 21:38:10.06422",
    "country": "United States",
    "longitude": "",
    "latitude": ""
  },
  {
    "id": "4085",
    "name": "White River Brewing Co",
    "brewery_type": "micro",
    "street": "505 W Commercial St",
    "city": "Springfield",
    "state": "Missouri",
    "postal_code": "65803-2631",
    "website_url": "http://www.whiteriverbrewingco.com",
    "phone": "4178691366",
    "created_at": "2018-07-24 01:33:41.946469",
    "updated_at": "2018-08-24 00:46:53.882734",
    "country": "United States",
    "longitude": "-93.2954208453376",
    "latitude": "37.2296298"
  },
  {
    "id": "4087",
    "name": "William K Busch Brewing Co.",
    "brewery_type": "contract",
    "street": "8047 Litzsinger Rd",
    "city": "Saint Louis",
    "state": "Missouri",
    "postal_code": "63144-2505",
    "website_url": "http://www.enjoykraftig.com",
    "phone": "3149327911",
    "created_at": "2018-07-24 01:33:41.971745",
    "updated_at": "2018-08-24 00:46:54.852479",
    "country": "United States",
    "longitude": "-90.3373344235294",
    "latitude": "38.6168771058824"
  },
  {
    "id": "3981",
    "name": "Bastard Brothers Brewing Company",
    "brewery_type": "micro",
    "street": "2114 Penta Dr",
    "city": "High Ridge",
    "state": "Missouri",
    "postal_code": "63049-2684",
    "website_url": "http://www.bastardbrothersbrewery.com",
    "phone": "3145203401",
    "created_at": "2018-07-24 01:33:40.512527",
    "updated_at": "2018-08-11 21:38:06.659289",
    "country": "United States",
    "longitude": "",
    "latitude": ""
  },
  {
    "id": "4046",
    "name": "Narrow Gauge Brewing Company",
    "brewery_type": "brewpub",
    "street": "1595 N Highway 67 St",
    "city": "Florissant",
    "state": "Missouri",
    "postal_code": "63031-4606",
    "website_url": "http://www.narrowgaugestl.com",
    "phone": "3148313222",
    "created_at": "2018-07-24 01:33:41.427789",
    "updated_at": "2018-08-11 21:38:08.648831",
    "country": "United States",
    "longitude": "",
    "latitude": ""
  },
  {
    "id": "4057",
    "name": "Public House Brewing Company",
    "brewery_type": "micro",
    "street": "600 N Rolla St Ste B",
    "city": "Rolla",
    "state": "Missouri",
    "postal_code": "65401-3111",
    "website_url": "http://www.publichousebrewery.com",
    "phone": "5734262337",
    "created_at": "2018-07-24 01:33:41.568828",
    "updated_at": "2018-08-11 21:38:08.983869",
    "country": "United States",
    "longitude": "",
    "latitude": ""
  },
  {
    "id": "3997",
    "name": "Casual Animal",
    "brewery_type": "micro",
    "street": "1725 McGee St",
    "city": "Kansas City",
    "state": "Missouri",
    "postal_code": "64108",
    "website_url": "http://www.casualanimalbrewing.com",
    "phone": "",
    "created_at": "2018-07-24 01:33:40.755166",
    "updated_at": "2018-08-24 00:46:18.439909",
    "country": "United States",
    "longitude": "-94.579773861354",
    "latitude": "39.0924045"
  },
  {
    "id": "4015",
    "name": "Flat Branch Pub and Brewing",
    "brewery_type": "brewpub",
    "street": "115 S 5th St",
    "city": "Columbia",
    "state": "Missouri",
    "postal_code": "65201-4230",
    "website_url": "http://www.flatbranch.com",
    "phone": "5734990400",
    "created_at": "2018-07-24 01:33:40.999749",
    "updated_at": "2018-08-24 00:46:25.910646",
    "country": "United States",
    "longitude": "-92.3319689609883",
    "latitude": "38.9503001261367"
  },
  {
    "id": "4030",
    "name": "Kirkwood Station Brewing",
    "brewery_type": "brewpub",
    "street": "105 E Jefferson Ave",
    "city": "Kirkwood",
    "state": "Missouri",
    "postal_code": "63122-4025",
    "website_url": "http://www.kirkwoodstationbrewing.com",
    "phone": "3149662739",
    "created_at": "2018-07-24 01:33:41.216852",
    "updated_at": "2018-08-24 00:46:32.593688",
    "country": "United States",
    "longitude": "-90.4060884893617",
    "latitude": "38.5823430425532"
  },
  {
    "id": "4077",
    "name": "Torn Label Brewing Company",
    "brewery_type": "micro",
    "street": "1708 Campbell St",
    "city": "Kansas City",
    "state": "Missouri",
    "postal_code": "64108-1524",
    "website_url": "http://www.tornlabel.com",
    "phone": "9136348001",
    "created_at": "2018-07-24 01:33:41.834506",
    "updated_at": "2018-08-24 00:46:50.807044",
    "country": "United States",
    "longitude": "-94.5731695",
    "latitude": "39.0926934"
  },
  {
    "id": "3976",
    "name": "Anheuser-Busch InBev",
    "brewery_type": "large",
    "street": "1 Busch Pl",
    "city": "Saint Louis",
    "state": "Missouri",
    "postal_code": "63118-1849",
    "website_url": "http://www.anheuser-busch.com",
    "phone": "3145772000",
    "created_at": "2018-07-24 01:33:40.443302",
    "updated_at": "2018-08-24 00:46:11.169028",
    "country": "United States",
    "longitude": "-90.2118998",
    "latitude": "38.5954536"
  },
  {
    "id": "3994",
    "name": "Bronze Owl Brewing",
    "brewery_type": "brewpub",
    "street": "506 Vine St",
    "city": "Poplar Bluff",
    "state": "Missouri",
    "postal_code": "63901-7331",
    "website_url": "http://www.bronzeowlbrewing.com",
    "phone": "5738405202",
    "created_at": "2018-07-24 01:33:40.712544",
    "updated_at": "2018-08-24 00:46:16.932549",
    "country": "United States",
    "longitude": "-90.3957733846154",
    "latitude": "36.7566310769231"
  },
  {
    "id": "3998",
    "name": "Cathedral Square Brewery",
    "brewery_type": "contract",
    "street": "3914 Lindell Blvd",
    "city": "Saint Louis",
    "state": "Missouri",
    "postal_code": "63108-3204",
    "website_url": "http://www.cathedralsquarebrewery.com",
    "phone": "3148033605",
    "created_at": "2018-07-24 01:33:40.767826",
    "updated_at": "2018-08-24 00:46:18.98722",
    "country": "United States",
    "longitude": "-90.2439837",
    "latitude": "38.6394897"
  },
  {
    "id": "4002",
    "name": "Cinder Block Brewery",
    "brewery_type": "brewpub",
    "street": "110 E 18th Ave",
    "city": "North Kansas City",
    "state": "Missouri",
    "postal_code": "64116-3635",
    "website_url": "http://www.cinderblockbrewery.com",
    "phone": "8165608365",
    "created_at": "2018-07-24 01:33:40.821851",
    "updated_at": "2018-08-24 00:46:20.410864",
    "country": "United States",
    "longitude": "-94.5794652075528",
    "latitude": "39.1403371573456"
  },
  {
    "id": "4023",
    "name": "Griesedieck Brothers Brewery",
    "brewery_type": "contract",
    "street": "1240 Switzer Ave",
    "city": "Saint Louis",
    "state": "Missouri",
    "postal_code": "63147-1840",
    "website_url": "http://www.gb-beer.com",
    "phone": "3143093210",
    "created_at": "2018-07-24 01:33:41.120931",
    "updated_at": "2018-08-24 00:46:29.773541",
    "country": "United States",
    "longitude": "-90.2349872112676",
    "latitude": "38.7090351126761"
  },
  {
    "id": "4039",
    "name": "McCoy's Public House",
    "brewery_type": "brewpub",
    "street": "4057 Pennsylvania Ave",
    "city": "Kansas City",
    "state": "Missouri",
    "postal_code": "64111-3021",
    "website_url": "http://www.mccoyspublichouse.com",
    "phone": "8169600866",
    "created_at": "2018-07-24 01:33:41.334876",
    "updated_at": "2018-08-24 00:46:36.359778",
    "country": "United States",
    "longitude": "-94.5911729",
    "latitude": "39.1002989"
  },
  {
    "id": "4044",
    "name": "Morgan Street Brewery",
    "brewery_type": "proprietor",
    "street": "721 N 2nd St",
    "city": "Saint Louis",
    "state": "Missouri",
    "postal_code": "63102-2518",
    "website_url": "http://www.morganstreetbrewery.com",
    "phone": "3142319970",
    "created_at": "2018-07-24 01:33:41.400899",
    "updated_at": "2018-08-24 00:46:38.691058",
    "country": "United States",
    "longitude": "-90.1846587143656",
    "latitude": "38.6303271900035"
  },
  {
    "id": "4072",
    "name": "Strange Days Brewing Co",
    "brewery_type": "micro",
    "street": "316 Oak St",
    "city": "Kansas City",
    "state": "Missouri",
    "postal_code": "64106",
    "website_url": "http://www.strangedaysbrewing.com",
    "phone": "8164695321",
    "created_at": "2018-07-24 01:33:41.766066",
    "updated_at": "2018-08-24 00:46:48.321763",
    "country": "United States",
    "longitude": "-94.5799451187632",
    "latitude": "39.1100614"
  },
  {
    "id": "4084",
    "name": "Weston Brewing Co / O'Malley's Pub",
    "brewery_type": "micro",
    "street": "500 Welt St",
    "city": "Weston",
    "state": "Missouri",
    "postal_code": "64098-1242",
    "website_url": "http://www.westonirish.com",
    "phone": "",
    "created_at": "2018-07-24 01:33:41.933088",
    "updated_at": "2018-08-24 00:46:53.436399",
    "country": "United States",
    "longitude": "-94.899934",
    "latitude": "39.411378"
  },
  {
    "id": "4003",
    "name": "City Barrel Brewing Co",
    "brewery_type": "planning",
    "street": "",
    "city": "Kansas City",
    "state": "Missouri",
    "postal_code": "64108-1803",
    "website_url": "",
    "phone": "",
    "created_at": "2018-07-24 01:33:40.834333",
    "updated_at": "2018-08-11 21:38:07.350296",
    "country": "United States",
    "longitude": "",
    "latitude": ""
  },
  {
    "id": "3991",
    "name": "Brewery In Planning - Lees Summit",
    "brewery_type": "planning",
    "street": "",
    "city": "Lees Summit",
    "state": "Missouri",
    "postal_code": "64081",
    "website_url": "",
    "phone": "",
    "created_at": "2018-07-24 01:33:40.667222",
    "updated_at": "2018-08-11 21:38:06.947075",
    "country": "United States",
    "longitude": "",
    "latitude": ""
  },
  {
    "id": "3992",
    "name": "Brewery in Planning - Saint Louis",
    "brewery_type": "planning",
    "street": "",
    "city": "Saint Louis",
    "state": "Missouri",
    "postal_code": "63139",
    "website_url": "",
    "phone": "",
    "created_at": "2018-07-24 01:33:40.683006",
    "updated_at": "2018-08-11 21:38:06.977187",
    "country": "United States",
    "longitude": "",
    "latitude": ""
  },
  {
    "id": "3972",
    "name": "4 By 4 Brewing Company",
    "brewery_type": "micro",
    "street": "2811 E Galloway St Ste A",
    "city": "Springfield",
    "state": "Missouri",
    "postal_code": "65804-4601",
    "website_url": "http://www.4by4brewingcompany.com",
    "phone": "",
    "created_at": "2018-07-24 01:33:40.381456",
    "updated_at": "2018-08-11 21:38:06.401192",
    "country": "United States",
    "longitude": "",
    "latitude": ""
  },
  {
    "id": "3975",
    "name": "Amerisports Brew Pub",
    "brewery_type": "brewpub",
    "street": "3200 Ameristar Dr",
    "city": "Kansas City",
    "state": "Missouri",
    "postal_code": "64161",
    "website_url": "http://www.ameristar.com",
    "phone": "8164147435",
    "created_at": "2018-07-24 01:33:40.423162",
    "updated_at": "2018-08-11 21:38:06.486141",
    "country": "United States",
    "longitude": "",
    "latitude": ""
  },
  {
    "id": "3977",
    "name": "Apex Brew And BBQ Supplies",
    "brewery_type": "planning",
    "street": "",
    "city": "Independence",
    "state": "Missouri",
    "postal_code": "64055-4741",
    "website_url": "http://www.apexbrewwares.com",
    "phone": "8163135039",
    "created_at": "2018-07-24 01:33:40.456857",
    "updated_at": "2018-08-11 21:38:06.54457",
    "country": "United States",
    "longitude": "",
    "latitude": ""
  },
  {
    "id": "3980",
    "name": "Bard's Brewery, LLC",
    "brewery_type": "proprietor",
    "street": "",
    "city": "Lees Summit",
    "state": "Missouri",
    "postal_code": "64063-0905",
    "website_url": "http://www.bardsbeer.com",
    "phone": "8167281707",
    "created_at": "2018-07-24 01:33:40.498854",
    "updated_at": "2018-08-11 21:38:06.632422",
    "country": "United States",
    "longitude": "",
    "latitude": ""
  },
  {
    "id": "3984",
    "name": "Boat Town Brewing",
    "brewery_type": "micro",
    "street": "18146 Campground Rd",
    "city": "Phillipsburg",
    "state": "Missouri",
    "postal_code": "65722-8122",
    "website_url": "http://www.boattownbrewing.com",
    "phone": "4175332306",
    "created_at": "2018-07-24 01:33:40.554183",
    "updated_at": "2018-08-11 21:38:06.745494",
    "country": "United States",
    "longitude": "",
    "latitude": ""
  },
  {
    "id": "3989",
    "name": "Brewery in Planning - Kansas City",
    "brewery_type": "planning",
    "street": "",
    "city": "Kansas City",
    "state": "Missouri",
    "postal_code": "64141-0801",
    "website_url": "",
    "phone": "",
    "created_at": "2018-07-24 01:33:40.632418",
    "updated_at": "2018-08-11 21:38:06.893178",
    "country": "United States",
    "longitude": "",
    "latitude": ""
  },
  {
    "id": "3990",
    "name": "Brewery in Planning - Kansas city, MO",
    "brewery_type": "planning",
    "street": "",
    "city": "Kansas city",
    "state": "Missouri",
    "postal_code": "64108",
    "website_url": "",
    "phone": "8164210011",
    "created_at": "2018-07-24 01:33:40.648927",
    "updated_at": "2018-08-11 21:38:06.920231",
    "country": "United States",
    "longitude": "",
    "latitude": ""
  },
  {
    "id": "3971",
    "name": "2nd Shift Brewing Co",
    "brewery_type": "brewpub",
    "street": "1601 Sublette Ave",
    "city": "Saint Louis",
    "state": "Missouri",
    "postal_code": "63110-1924",
    "website_url": "http://www.2ndshiftbrewing.com",
    "phone": "6187910728",
    "created_at": "2018-07-24 01:33:40.368724",
    "updated_at": "2018-08-24 00:46:08.828559",
    "country": "United States",
    "longitude": "-90.280526",
    "latitude": "38.621943"
  },
  {
    "id": "3973",
    "name": "4 Hands Brewing Co",
    "brewery_type": "regional",
    "street": "1220 S 8th St",
    "city": "Saint Louis",
    "state": "Missouri",
    "postal_code": "63104-3610",
    "website_url": "",
    "phone": "3144361559",
    "created_at": "2018-07-24 01:33:40.395171",
    "updated_at": "2018-08-24 00:46:09.804085",
    "country": "United States",
    "longitude": "-90.1976201185216",
    "latitude": "38.6152659288115"
  },
  {
    "id": "3974",
    "name": "Alpha Brewing Co.",
    "brewery_type": "micro",
    "street": "4310 Fyler Ave",
    "city": "Saint Louis",
    "state": "Missouri",
    "postal_code": "63116",
    "website_url": "http://www.alphabrewingcompany.com",
    "phone": "3146212337",
    "created_at": "2018-07-24 01:33:40.407547",
    "updated_at": "2018-08-24 00:46:10.26282",
    "country": "United States",
    "longitude": "-90.262368381847",
    "latitude": "38.5986181736597"
  },
  {
    "id": "3978",
    "name": "Arcadian Moon",
    "brewery_type": "brewpub",
    "street": "19203 Old Highway 40",
    "city": "Higginsville",
    "state": "Missouri",
    "postal_code": "64037",
    "website_url": "http://www.arcadianmoon.com",
    "phone": "6605846661",
    "created_at": "2018-07-24 01:33:40.469752",
    "updated_at": "2018-08-24 00:46:11.618275",
    "country": "United States",
    "longitude": "-93.773203",
    "latitude": "39.001467"
  },
  {
    "id": "3979",
    "name": "Augusta Brewing Co",
    "brewery_type": "brewpub",
    "street": "109 W Main St",
    "city": "Washington",
    "state": "Missouri",
    "postal_code": "63090-2191",
    "website_url": "http://www.augustabrewing.com",
    "phone": "6362395010",
    "created_at": "2018-07-24 01:33:40.483507",
    "updated_at": "2018-08-24 00:46:12.114022",
    "country": "United States",
    "longitude": "-91.0117347240948",
    "latitude": "38.56026935"
  },
  {
    "id": "3982",
    "name": "Big Rip Brewing Company",
    "brewery_type": "micro",
    "street": "216 E 9th Ave",
    "city": "North Kansas City",
    "state": "Missouri",
    "postal_code": "64116-4315",
    "website_url": "http://www.bigripbrewing.com",
    "phone": "8168660747",
    "created_at": "2018-07-24 01:33:40.526572",
    "updated_at": "2018-08-24 00:46:12.984766",
    "country": "United States",
    "longitude": "-94.57786",
    "latitude": "39.1261133"
  },
  {
    "id": "3983",
    "name": "BKS Artisan Ales",
    "brewery_type": "micro",
    "street": "633 E 63rd St",
    "city": "Kansas City",
    "state": "Missouri",
    "postal_code": "64110",
    "website_url": "http://www.bksartisanales.com",
    "phone": "8166733027",
    "created_at": "2018-07-24 01:33:40.540136",
    "updated_at": "2018-08-24 00:46:13.574498",
    "country": "United States",
    "longitude": "-94.493961",
    "latitude": "39.010093"
  },
  {
    "id": "3985",
    "name": "Border Brewing Company",
    "brewery_type": "micro",
    "street": "406 E 18th St",
    "city": "Kansas City",
    "state": "Missouri",
    "postal_code": "64108",
    "website_url": "http://www.borderbrewco.com",
    "phone": "8163156807",
    "created_at": "2018-07-24 01:33:40.57312",
    "updated_at": "2018-08-24 00:46:14.491211",
    "country": "United States",
    "longitude": "-94.5786142",
    "latitude": "39.0917581"
  },
  {
    "id": "3986",
    "name": "Boulevard Brewing Co",
    "brewery_type": "regional",
    "street": "2501 Southwest Blvd",
    "city": "Kansas City",
    "state": "Missouri",
    "postal_code": "64108-2345",
    "website_url": "http://www.boulevard.com",
    "phone": "8164747095",
    "created_at": "2018-07-24 01:33:40.586763",
    "updated_at": "2018-08-24 00:46:14.963871",
    "country": "United States",
    "longitude": "-94.5968230668374",
    "latitude": "39.08196355"
  },
  {
    "id": "3987",
    "name": "Brew Hub Taproom",
    "brewery_type": "brewpub",
    "street": "5656 Oakland Avenue",
    "city": "St. Louis",
    "state": "Missouri",
    "postal_code": "63110",
    "website_url": "",
    "phone": "3148335453",
    "created_at": "2018-07-24 01:33:40.603853",
    "updated_at": "2018-08-24 00:46:15.470951",
    "country": "United States",
    "longitude": "-90.2830005342466",
    "latitude": "38.6304978630137"
  },
  {
    "id": "3988",
    "name": "Brewery Emperial",
    "brewery_type": "brewpub",
    "street": "1829 Oak St",
    "city": "Kansas City",
    "state": "Missouri",
    "postal_code": "64108",
    "website_url": "http://www.breweryemperial.com",
    "phone": "8169459625",
    "created_at": "2018-07-24 01:33:40.617402",
    "updated_at": "2018-08-24 00:46:16.013602",
    "country": "United States",
    "longitude": "-94.5788631428571",
    "latitude": "39.0911947142857"
  },
  {
    "id": "3993",
    "name": "Broadway Brewery",
    "brewery_type": "brewpub",
    "street": "816 E Broadway Ste B",
    "city": "Columbia",
    "state": "Missouri",
    "postal_code": "65201-4898",
    "website_url": "http://www.broadwaybrewery.com",
    "phone": "5734435054",
    "created_at": "2018-07-24 01:33:40.698312",
    "updated_at": "2018-08-11 21:38:07.004475",
    "country": "United States",
    "longitude": "",
    "latitude": ""
  },
  {
    "id": "3995",
    "name": "Bur Oak Company",
    "brewery_type": "micro",
    "street": "8250 E Trade Center Dr",
    "city": "Columbia",
    "state": "Missouri",
    "postal_code": "65201-7635",
    "website_url": "http://www.buroakbeer.com",
    "phone": "",
    "created_at": "2018-07-24 01:33:40.725717",
    "updated_at": "2018-08-11 21:38:07.063349",
    "country": "United States",
    "longitude": "",
    "latitude": ""
  },
  {
    "id": "3996",
    "name": "Calibration Brewery",
    "brewery_type": "brewpub",
    "street": "119 Armour Rd",
    "city": "Kansas City",
    "state": "Missouri",
    "postal_code": "64116-3502",
    "website_url": "http://www.calibrationbrewery.com",
    "phone": "8169948277",
    "created_at": "2018-07-24 01:33:40.740597",
    "updated_at": "2018-08-11 21:38:07.0932",
    "country": "United States",
    "longitude": "",
    "latitude": ""
  },
  {
    "id": "4000",
    "name": "Charleville Vineyard & Microbrewery",
    "brewery_type": "micro",
    "street": "16937 Boyd Rd",
    "city": "Sainte Genevieve",
    "state": "Missouri",
    "postal_code": "63670-7914",
    "website_url": "http://www.charlevillevineyard.com",
    "phone": "5737564537",
    "created_at": "2018-07-24 01:33:40.793743",
    "updated_at": "2018-08-11 21:38:07.212208",
    "country": "United States",
    "longitude": "",
    "latitude": ""
  },
  {
    "id": "4001",
    "name": "Charlie's Steak, Ribs & Ale",
    "brewery_type": "brewpub",
    "street": "3009 E State Hiwy 76",
    "city": "Branson",
    "state": "Missouri",
    "postal_code": "65616-8312",
    "website_url": "http://www.charliesbranson.com",
    "phone": "4173346090",
    "created_at": "2018-07-24 01:33:40.807174",
    "updated_at": "2018-08-11 21:38:07.297065",
    "country": "United States",
    "longitude": "",
    "latitude": ""
  },
  {
    "id": "4006",
    "name": "Crown Valley Brewing & Distilling Co",
    "brewery_type": "micro",
    "street": "23589 State Route Ww",
    "city": "Sainte Genevieve",
    "state": "Missouri",
    "postal_code": "63670-9039",
    "website_url": "http://www.crownvalleybrewery.com",
    "phone": "5737569700",
    "created_at": "2018-07-24 01:33:40.879411",
    "updated_at": "2018-08-11 21:38:07.44901",
    "country": "United States",
    "longitude": "",
    "latitude": ""
  },
  {
    "id": "4007",
    "name": "Deep Sleep Brewing Company LLC",
    "brewery_type": "micro",
    "street": "6891 Whiskey Creek Rd.",
    "city": "Washington",
    "state": "Missouri",
    "postal_code": "63090",
    "website_url": "",
    "phone": "3142395801",
    "created_at": "2018-07-24 01:33:40.894301",
    "updated_at": "2018-08-11 21:38:07.47729",
    "country": "United States",
    "longitude": "",
    "latitude": ""
  },
  {
    "id": "4008",
    "name": "Deslogetown Brewery",
    "brewery_type": "brewpub",
    "street": "1669 Pine Ridge Trail",
    "city": "Park Hills",
    "state": "Missouri",
    "postal_code": "63601",
    "website_url": "",
    "phone": "",
    "created_at": "2018-07-24 01:33:40.907277",
    "updated_at": "2018-08-11 21:38:07.505753",
    "country": "United States",
    "longitude": "",
    "latitude": ""
  },
  {
    "id": "4012",
    "name": "East Forty Brewing",
    "brewery_type": "planning",
    "street": "",
    "city": "Blue Springs",
    "state": "Missouri",
    "postal_code": "64015-3613",
    "website_url": "http://www.eastfortybrewing.com",
    "phone": "",
    "created_at": "2018-07-24 01:33:40.959206",
    "updated_at": "2018-08-11 21:38:07.61295",
    "country": "United States",
    "longitude": "",
    "latitude": ""
  },
  {
    "id": "4013",
    "name": "Exit 6 Brewery",
    "brewery_type": "micro",
    "street": "5055 Highway N Ste 112",
    "city": "Saint Charles",
    "state": "Missouri",
    "postal_code": "63304-8031",
    "website_url": "http://www.exit6brewery.com",
    "phone": "6362444343",
    "created_at": "2018-07-24 01:33:40.972414",
    "updated_at": "2018-08-11 21:38:07.643042",
    "country": "United States",
    "longitude": "",
    "latitude": ""
  },
  {
    "id": "4018",
    "name": "Good News Brewing Company",
    "brewery_type": "brewpub",
    "street": "330 Sonderen St",
    "city": "O Fallon",
    "state": "Missouri",
    "postal_code": "63366-2629",
    "website_url": "http://goodnewsbrewing.com",
    "phone": "6362946593",
    "created_at": "2018-07-24 01:33:41.049167",
    "updated_at": "2018-08-11 21:38:07.794288",
    "country": "United States",
    "longitude": "",
    "latitude": ""
  },
  {
    "id": "4026",
    "name": "High Heel Brewing",
    "brewery_type": "micro",
    "street": "5656 Oakland",
    "city": "Saint Louis",
    "state": "Missouri",
    "postal_code": "63110",
    "website_url": "http://highheelbrewing.com",
    "phone": "",
    "created_at": "2018-07-24 01:33:41.159688",
    "updated_at": "2018-08-11 21:38:08.061618",
    "country": "United States",
    "longitude": "",
    "latitude": ""
  },
  {
    "id": "4031",
    "name": "Lake Bums BrewCo, LLC.",
    "brewery_type": "micro",
    "street": "112 Parrothead Ln",
    "city": "Pontiac",
    "state": "Missouri",
    "postal_code": "65729-7134",
    "website_url": "http://www.lakebumsbrewco.com",
    "phone": "4172936684",
    "created_at": "2018-07-24 01:33:41.231336",
    "updated_at": "2018-08-11 21:38:08.204064",
    "country": "United States",
    "longitude": "",
    "latitude": ""
  },
  {
    "id": "4035",
    "name": "Mackenzie Brewing Company",
    "brewery_type": "planning",
    "street": "",
    "city": "Valley Park",
    "state": "Missouri",
    "postal_code": "63088",
    "website_url": "http://www.mknzbrewing.com",
    "phone": "3147508307",
    "created_at": "2018-07-24 01:33:41.282024",
    "updated_at": "2018-08-11 21:38:08.325061",
    "country": "United States",
    "longitude": "",
    "latitude": ""
  },
  {
    "id": "3999",
    "name": "Center Ice Brewing Company",
    "brewery_type": "micro",
    "street": "3126 Olive St.",
    "city": "Saint Louis",
    "state": "Missouri",
    "postal_code": "63103",
    "website_url": "http://www.centericebrewery.com",
    "phone": "3142779843",
    "created_at": "2018-07-24 01:33:40.780925",
    "updated_at": "2018-08-24 00:46:19.46483",
    "country": "United States",
    "longitude": "-90.2243063679217",
    "latitude": "38.6353000597984"
  },
  {
    "id": "4004",
    "name": "Civil Life Brewing Company",
    "brewery_type": "brewpub",
    "street": "3714 Holt Ave",
    "city": "Saint Louis",
    "state": "Missouri",
    "postal_code": "63116-2614",
    "website_url": "http://www.thecivillife.com",
    "phone": "",
    "created_at": "2018-07-24 01:33:40.850311",
    "updated_at": "2018-08-24 00:46:20.86525",
    "country": "United States",
    "longitude": "-90.2580716468097",
    "latitude": "38.590897297562"
  },
  {
    "id": "4005",
    "name": "Crane Brewing Company",
    "brewery_type": "micro",
    "street": "6515 Railroad St",
    "city": "Raytown",
    "state": "Missouri",
    "postal_code": "64133-5210",
    "website_url": "http://www.cranebrewing.com",
    "phone": "8167434132",
    "created_at": "2018-07-24 01:33:40.864255",
    "updated_at": "2018-08-24 00:46:21.307992",
    "country": "United States",
    "longitude": "-94.4629013839175",
    "latitude": "39.0052427173607"
  },
  {
    "id": "4009",
    "name": "Double Shift Brewing",
    "brewery_type": "micro",
    "street": "412 E 18th St",
    "city": "Kansas City",
    "state": "Missouri",
    "postal_code": "64108-1410",
    "website_url": "http://www.doubleshiftbrewing.com",
    "phone": "8163047028",
    "created_at": "2018-07-24 01:33:40.920898",
    "updated_at": "2018-08-24 00:46:23.379078",
    "country": "United States",
    "longitude": "-94.5786837346939",
    "latitude": "39.0917049387755"
  },
  {
    "id": "4010",
    "name": "Dubious Claims Brewing",
    "brewery_type": "brewpub",
    "street": "451 S Thompson Ave",
    "city": "Excelsior Springs",
    "state": "Missouri",
    "postal_code": "64024-2133",
    "website_url": "",
    "phone": "8168962477",
    "created_at": "2018-07-24 01:33:40.933252",
    "updated_at": "2018-08-24 00:46:23.939346",
    "country": "United States",
    "longitude": "-94.2258992647695",
    "latitude": "39.3393358306373"
  },
  {
    "id": "4011",
    "name": "Earthbound Beer",
    "brewery_type": "brewpub",
    "street": "2724 Cherokee St",
    "city": "Saint Louis",
    "state": "Missouri",
    "postal_code": "63118-3036",
    "website_url": "http://www.earthboundbeer.com",
    "phone": "3147699576",
    "created_at": "2018-07-24 01:33:40.945766",
    "updated_at": "2018-08-24 00:46:24.436659",
    "country": "United States",
    "longitude": "-90.2286695871746",
    "latitude": "38.5935862955641"
  },
  {
    "id": "4014",
    "name": "Ferguson Brewing Co",
    "brewery_type": "brewpub",
    "street": "418 S Florissant Rd",
    "city": "Saint Louis",
    "state": "Missouri",
    "postal_code": "63135-2716",
    "website_url": "http://www.fergusonbrewing.com",
    "phone": "3142547359",
    "created_at": "2018-07-24 01:33:40.985621",
    "updated_at": "2018-08-24 00:46:25.409102",
    "country": "United States",
    "longitude": "-90.3023163",
    "latitude": "38.7383895"
  },
  {
    "id": "4016",
    "name": "Friendship Brewing Company",
    "brewery_type": "brewpub",
    "street": "100 Pitman Ave",
    "city": "Wentzville",
    "state": "Missouri",
    "postal_code": "63385-1700",
    "website_url": "",
    "phone": "",
    "created_at": "2018-07-24 01:33:41.016167",
    "updated_at": "2018-08-24 00:46:26.398164",
    "country": "United States",
    "longitude": "-90.8512976",
    "latitude": "38.8107544"
  },
  {
    "id": "4017",
    "name": "Fringe Beerworks",
    "brewery_type": "micro",
    "street": "224 SE Douglas St",
    "city": "Lees Summit",
    "state": "Missouri",
    "postal_code": "64063-2329",
    "website_url": "http://www.fringebeerworks.com",
    "phone": "8166002552",
    "created_at": "2018-07-24 01:33:41.032783",
    "updated_at": "2018-08-24 00:46:26.852497",
    "country": "United States",
    "longitude": "-94.37672",
    "latitude": "38.913133"
  },
  {
    "id": "4019",
    "name": "Granite City Food & Brewery (#11)",
    "brewery_type": "brewpub",
    "street": "8461 NW Prairie View Rd",
    "city": "Kansas City",
    "state": "Missouri",
    "postal_code": "64153-1842",
    "website_url": "http://www.gcfb.net",
    "phone": "8165873838",
    "created_at": "2018-07-24 01:33:41.065",
    "updated_at": "2018-08-24 00:46:27.892153",
    "country": "United States",
    "longitude": "-94.66105",
    "latitude": "39.2493641483218"
  },
  {
    "id": "4020",
    "name": "Granite City Food & Brewery (#29)",
    "brewery_type": "brewpub",
    "street": "11411 Olive Blvd",
    "city": "Creve Coeur",
    "state": "Missouri",
    "postal_code": "63141-7108",
    "website_url": "http://www.gcfb.net",
    "phone": "3144323535",
    "created_at": "2018-07-24 01:33:41.081469",
    "updated_at": "2018-08-24 00:46:28.351383",
    "country": "United States",
    "longitude": "-90.4333875245224",
    "latitude": "38.67222065"
  },
  {
    "id": "4021",
    "name": "Green Room Burgers & Beer",
    "brewery_type": "brewpub",
    "street": "4010 Pennsylvania Ave",
    "city": "Kansas City",
    "state": "Missouri",
    "postal_code": "64111-3010",
    "website_url": "http://www.greenroomkc.com",
    "phone": "8162167682",
    "created_at": "2018-07-24 01:33:41.095359",
    "updated_at": "2018-08-24 00:46:28.807141",
    "country": "United States",
    "longitude": "-94.5932559",
    "latitude": "39.0544808"
  },
  {
    "id": "4022",
    "name": "Greer Brewing",
    "brewery_type": "brewpub",
    "street": "16050 Manchester Rd",
    "city": "Ellisville",
    "state": "Missouri",
    "postal_code": "63011-2161",
    "website_url": "http://www.greerbrewingco.com",
    "phone": "6363463979",
    "created_at": "2018-07-24 01:33:41.107528",
    "updated_at": "2018-08-24 00:46:29.333449",
    "country": "United States",
    "longitude": "-90.5948465210502",
    "latitude": "38.5906250047908"
  },
  {
    "id": "4024",
    "name": "Gruhlke's Microbrewery / Bias Vineyards",
    "brewery_type": "brewpub",
    "street": "3166 Highway B",
    "city": "Berger",
    "state": "Missouri",
    "postal_code": "63014-1418",
    "website_url": "http://www.biaswinery.com",
    "phone": "5738345475",
    "created_at": "2018-07-24 01:33:41.132987",
    "updated_at": "2018-08-24 00:46:30.26114",
    "country": "United States",
    "longitude": "-91.3352114",
    "latitude": "38.6769847"
  },
  {
    "id": "4025",
    "name": "Heavy Riff Brewing",
    "brewery_type": "brewpub",
    "street": "6413 Clayton Ave",
    "city": "Saint Louis",
    "state": "Missouri",
    "postal_code": "63139-3305",
    "website_url": "http://www.heavyriffbrwing.com",
    "phone": "3148286148",
    "created_at": "2018-07-24 01:33:41.145806",
    "updated_at": "2018-08-24 00:46:30.782271",
    "country": "United States",
    "longitude": "-90.2931003527612",
    "latitude": "38.6287165375178"
  },
  {
    "id": "4027",
    "name": "Indian Springs Brewing Company",
    "brewery_type": "proprietor",
    "street": "109 E Main St",
    "city": "Neosho",
    "state": "Missouri",
    "postal_code": "64850-1810",
    "website_url": "http://www.indianspringsbrewing.com",
    "phone": "4174549498",
    "created_at": "2018-07-24 01:33:41.173407",
    "updated_at": "2018-08-24 00:46:31.229516",
    "country": "United States",
    "longitude": "-94.3674090204082",
    "latitude": "36.8685369795918"
  },
  {
    "id": "4028",
    "name": "Jackson Street Brew Co.",
    "brewery_type": "brewpub",
    "street": "106 N Jackson St",
    "city": "Perryville",
    "state": "Missouri",
    "postal_code": "63775-1336",
    "website_url": "",
    "phone": "",
    "created_at": "2018-07-24 01:33:41.187827",
    "updated_at": "2018-08-24 00:46:31.655464",
    "country": "United States",
    "longitude": "-89.8637548367347",
    "latitude": "37.7259728571429"
  },
  {
    "id": "4029",
    "name": "Kansas City Bier Company",
    "brewery_type": "micro",
    "street": "310 W 79th St",
    "city": "Kansas City",
    "state": "Missouri",
    "postal_code": "64114-1843",
    "website_url": "http://www.kcbier.com",
    "phone": "8162148691",
    "created_at": "2018-07-24 01:33:41.204476",
    "updated_at": "2018-08-24 00:46:32.11763",
    "country": "United States",
    "longitude": "-94.5936711937258",
    "latitude": "38.98548485"
  },
  {
    "id": "4032",
    "name": "Levi Garrison & Sons Brewing Company",
    "brewery_type": "micro",
    "street": "105 W Bird St",
    "city": "Hamilton",
    "state": "Missouri",
    "postal_code": "64644-1029",
    "website_url": "http://www.lgsbrewingco.com",
    "phone": "8166689421",
    "created_at": "2018-07-24 01:33:41.244128",
    "updated_at": "2018-08-24 00:46:33.418316",
    "country": "United States",
    "longitude": "-94.00051",
    "latitude": "39.744246"
  },
  {
    "id": "4033",
    "name": "Logboat Brewing Co",
    "brewery_type": "micro",
    "street": "504 Fay St",
    "city": "Columbia",
    "state": "Missouri",
    "postal_code": "65201-4782",
    "website_url": "http://www.logboatbrewing.com",
    "phone": "5733976786",
    "created_at": "2018-07-24 01:33:41.257493",
    "updated_at": "2018-08-24 00:46:33.860169",
    "country": "United States",
    "longitude": "-92.322650149356",
    "latitude": "38.9570863933001"
  },
  {
    "id": "4034",
    "name": "Lost Signal Brewing Company",
    "brewery_type": "brewpub",
    "street": "610 W College St",
    "city": "Springfield",
    "state": "Missouri",
    "postal_code": "65806-1240",
    "website_url": "http://www.lostsignalbrewing.com",
    "phone": "9723104162",
    "created_at": "2018-07-24 01:33:41.270138",
    "updated_at": "2018-08-24 00:46:34.300562",
    "country": "United States",
    "longitude": "-93.2974611",
    "latitude": "37.2085049"
  },
  {
    "id": "4036",
    "name": "Main And Mill Brewing Company",
    "brewery_type": "brewpub",
    "street": "240 E Main St",
    "city": "Festus",
    "state": "Missouri",
    "postal_code": "63028-1907",
    "website_url": "http://www.mainandmillbrewco.com",
    "phone": "6365433031",
    "created_at": "2018-07-24 01:33:41.295086",
    "updated_at": "2018-08-24 00:46:34.756927",
    "country": "United States",
    "longitude": "-90.392652168841",
    "latitude": "38.2197488496457"
  },
  {
    "id": "4037",
    "name": "Mark Twain Brewing Company",
    "brewery_type": "brewpub",
    "street": "422 N Main St",
    "city": "Hannibal",
    "state": "Missouri",
    "postal_code": "63401-3324",
    "website_url": "http://www.marktwainbrewery.com",
    "phone": "5734061300",
    "created_at": "2018-07-24 01:33:41.307245",
    "updated_at": "2018-08-24 00:46:35.251206",
    "country": "United States",
    "longitude": "-91.3574422522266",
    "latitude": "39.71293685"
  },
  {
    "id": "4038",
    "name": "Martin City Brewing Company",
    "brewery_type": "micro",
    "street": "410 E 135th St",
    "city": "Kansas City",
    "state": "Missouri",
    "postal_code": "64145-1672",
    "website_url": "http://www.martincitybrewing.com",
    "phone": "8162682222",
    "created_at": "2018-07-24 01:33:41.320709",
    "updated_at": "2018-08-24 00:46:35.750095",
    "country": "United States",
    "longitude": "-94.590214",
    "latitude": "38.882691"
  },
  {
    "id": "4040",
    "name": "Miami Creek Brewing Company",
    "brewery_type": "micro",
    "street": "14226 NW County Road 14001",
    "city": "Drexel",
    "state": "Missouri",
    "postal_code": "64742-9733",
    "website_url": "http://www.miamicreek.com",
    "phone": "8168920297",
    "created_at": "2018-07-24 01:33:41.347869",
    "updated_at": "2018-08-11 21:38:08.474047",
    "country": "United States",
    "longitude": "",
    "latitude": ""
  },
  {
    "id": "4042",
    "name": "Missouri Beer Company",
    "brewery_type": "micro",
    "street": "22 W Industrial Dr",
    "city": "O Fallon",
    "state": "Missouri",
    "postal_code": "63366-1926",
    "website_url": "http://www.mobeerco.com",
    "phone": "6362946672",
    "created_at": "2018-07-24 01:33:41.372636",
    "updated_at": "2018-08-11 21:38:08.531297",
    "country": "United States",
    "longitude": "",
    "latitude": ""
  },
  {
    "id": "4043",
    "name": "Modern Brewery",
    "brewery_type": "micro",
    "street": "5231 Manchester Ave # E",
    "city": "Saint Louis",
    "state": "Missouri",
    "postal_code": "63110-2092",
    "website_url": "http://www.mb314.com",
    "phone": "",
    "created_at": "2018-07-24 01:33:41.38755",
    "updated_at": "2018-08-11 21:38:08.561645",
    "country": "United States",
    "longitude": "",
    "latitude": ""
  },
  {
    "id": "4048",
    "name": "Outlaw Cigar / Gunslinger Saloon Brewing",
    "brewery_type": "planning",
    "street": "",
    "city": "Kansas City",
    "state": "Missouri",
    "postal_code": "64151-2026",
    "website_url": "http://www.outlawcigar.com",
    "phone": "8165052442",
    "created_at": "2018-07-24 01:33:41.453441",
    "updated_at": "2018-08-11 21:38:08.706446",
    "country": "United States",
    "longitude": "",
    "latitude": ""
  },
  {
    "id": "4049",
    "name": "Ozarks Brewing Company",
    "brewery_type": "brewpub",
    "street": "1872 S. U.S. Hwy. 63",
    "city": "West Plains",
    "state": "Missouri",
    "postal_code": "65775",
    "website_url": "http://www.ozarksbrewing.com",
    "phone": "4172741507",
    "created_at": "2018-07-24 01:33:41.465568",
    "updated_at": "2018-08-11 21:38:08.736579",
    "country": "United States",
    "longitude": "",
    "latitude": ""
  },
  {
    "id": "4050",
    "name": "Perennial Artisan Ales",
    "brewery_type": "micro",
    "street": "8125 Michigan Ave Ste 116",
    "city": "Saint Louis",
    "state": "Missouri",
    "postal_code": "63111-3535",
    "website_url": "http://www.perennialbeer.com",
    "phone": "3146317300",
    "created_at": "2018-07-24 01:33:41.479739",
    "updated_at": "2018-08-11 21:38:08.764377",
    "country": "United States",
    "longitude": "",
    "latitude": ""
  },
  {
    "id": "4052",
    "name": "Point Labaddie Brewery",
    "brewery_type": "micro",
    "street": "1029 Thiebes Rd",
    "city": "Labadie",
    "state": "Missouri",
    "postal_code": "63055-1712",
    "website_url": "http://www.pointlabaddiebrewery.com",
    "phone": "6367422861",
    "created_at": "2018-07-24 01:33:41.506456",
    "updated_at": "2018-08-11 21:38:08.840128",
    "country": "United States",
    "longitude": "",
    "latitude": ""
  },
  {
    "id": "4053",
    "name": "Prehistoric Brewing Company",
    "brewery_type": "planning",
    "street": "",
    "city": "Willard",
    "state": "Missouri",
    "postal_code": "65781-8323",
    "website_url": "http://www.prehistoricbrewing.com",
    "phone": "",
    "created_at": "2018-07-24 01:33:41.518454",
    "updated_at": "2018-08-11 21:38:08.870059",
    "country": "United States",
    "longitude": "",
    "latitude": ""
  },
  {
    "id": "4055",
    "name": "Propagation LLC",
    "brewery_type": "planning",
    "street": "",
    "city": "Saint Louis",
    "state": "Missouri",
    "postal_code": "63104-2425",
    "website_url": "http://www.propagation.us",
    "phone": "",
    "created_at": "2018-07-24 01:33:41.543531",
    "updated_at": "2018-08-11 21:38:08.925139",
    "country": "United States",
    "longitude": "",
    "latitude": ""
  },
  {
    "id": "4056",
    "name": "Public House Brewing Co",
    "brewery_type": "micro",
    "street": "551 State Route B",
    "city": "Saint James",
    "state": "Missouri",
    "postal_code": "65559-1055",
    "website_url": "http://www.publichousebrewery.com",
    "phone": "5732613333",
    "created_at": "2018-07-24 01:33:41.556411",
    "updated_at": "2018-08-11 21:38:08.953573",
    "country": "United States",
    "longitude": "",
    "latitude": ""
  },
  {
    "id": "4059",
    "name": "River Bluff Brewing",
    "brewery_type": "planning",
    "street": "",
    "city": "Saint Joseph",
    "state": "Missouri",
    "postal_code": "64501-2334",
    "website_url": "",
    "phone": "",
    "created_at": "2018-07-24 01:33:41.593421",
    "updated_at": "2018-08-11 21:38:09.011537",
    "country": "United States",
    "longitude": "",
    "latitude": ""
  },
  {
    "id": "4061",
    "name": "Rockwell Beer Company",
    "brewery_type": "planning",
    "street": "",
    "city": "Saint Louis",
    "state": "Missouri",
    "postal_code": "63110",
    "website_url": "http://www.rockwellbeer.com",
    "phone": "3144094119",
    "created_at": "2018-07-24 01:33:41.618046",
    "updated_at": "2018-08-11 21:38:09.068682",
    "country": "United States",
    "longitude": "",
    "latitude": ""
  },
  {
    "id": "4063",
    "name": "Schlafly Bottleworks",
    "brewery_type": "regional",
    "street": "1 Schlafly Plz",
    "city": "Saint Louis",
    "state": "Missouri",
    "postal_code": "63143-2454",
    "website_url": "http://www.schlafly.com",
    "phone": "3142412337",
    "created_at": "2018-07-24 01:33:41.644911",
    "updated_at": "2018-08-11 21:38:09.133926",
    "country": "United States",
    "longitude": "",
    "latitude": ""
  },
  {
    "id": "4067",
    "name": "Southern Heritage Brewing Company",
    "brewery_type": "planning",
    "street": "",
    "city": "Doe Run",
    "state": "Missouri",
    "postal_code": "63637-3202",
    "website_url": "http://www.southernheritagebrewing.com",
    "phone": "5737015583",
    "created_at": "2018-07-24 01:33:41.700181",
    "updated_at": "2018-08-11 21:38:09.379395",
    "country": "United States",
    "longitude": "",
    "latitude": ""
  },
  {
    "id": "4070",
    "name": "Steampunk Brew Works",
    "brewery_type": "micro",
    "street": "231 Lamp and Lantern Vlg",
    "city": "Chesterfield",
    "state": "Missouri",
    "postal_code": "63017-8209",
    "website_url": "http://www.steampunkbrewworks.com",
    "phone": "6362308277",
    "created_at": "2018-07-24 01:33:41.74137",
    "updated_at": "2018-08-11 21:38:09.49084",
    "country": "United States",
    "longitude": "",
    "latitude": ""
  },
  {
    "id": "4071",
    "name": "Stockyards Brewing Company",
    "brewery_type": "micro",
    "street": "1600 Genessee St Ste 100",
    "city": "Kansas City",
    "state": "Missouri",
    "postal_code": "64102-1044",
    "website_url": "http://www.stockyardsbrewing.com",
    "phone": "8168958880",
    "created_at": "2018-07-24 01:33:41.753866",
    "updated_at": "2018-08-11 21:38:09.539",
    "country": "United States",
    "longitude": "",
    "latitude": ""
  },
  {
    "id": "4079",
    "name": "Uranus Brewery",
    "brewery_type": "planning",
    "street": "",
    "city": "Saint Robert",
    "state": "Missouri",
    "postal_code": "65584",
    "website_url": "http://www.UranusMissouri.com",
    "phone": "5735282924",
    "created_at": "2018-07-24 01:33:41.865509",
    "updated_at": "2018-08-11 21:38:09.806166",
    "country": "United States",
    "longitude": "",
    "latitude": ""
  },
  {
    "id": "4083",
    "name": "Welpman Springs Brewing Company, LLC.",
    "brewery_type": "micro",
    "street": "517 Hatchery Rd",
    "city": "Stover",
    "state": "Missouri",
    "postal_code": "65078-1132",
    "website_url": "http://www.welpmanspringsbrewing.weebly.com",
    "phone": "5733772343",
    "created_at": "2018-07-24 01:33:41.916904",
    "updated_at": "2018-08-11 21:38:09.946903",
    "country": "United States",
    "longitude": "",
    "latitude": ""
  },
  {
    "id": "4041",
    "name": "Minglewood Brewery",
    "brewery_type": "brewpub",
    "street": "121 Broadway St",
    "city": "Cape Girardeau",
    "state": "Missouri",
    "postal_code": "63701-7326",
    "website_url": "http://www.minglewoodbrewery.com",
    "phone": "5738030524",
    "created_at": "2018-07-24 01:33:41.360134",
    "updated_at": "2018-08-24 00:46:37.297176",
    "country": "United States",
    "longitude": "-89.5185209550299",
    "latitude": "37.3058363554378"
  },
  {
    "id": "4045",
    "name": "Mother's Brewing Co",
    "brewery_type": "micro",
    "street": "215 S Grant Ave",
    "city": "Springfield",
    "state": "Missouri",
    "postal_code": "65806-2001",
    "website_url": "http://www.mothersbrewing.com",
    "phone": "4178620423",
    "created_at": "2018-07-24 01:33:41.414133",
    "updated_at": "2018-08-24 00:46:39.142247",
    "country": "United States",
    "longitude": "-93.2992828178406",
    "latitude": "37.20791735"
  },
  {
    "id": "4047",
    "name": "O'Fallon Brewery",
    "brewery_type": "micro",
    "street": "45 Progress Pkwy",
    "city": "Maryland Heights",
    "state": "Missouri",
    "postal_code": "63043-3701",
    "website_url": "http://www.ofallonbrewery.com",
    "phone": "6362812337",
    "created_at": "2018-07-24 01:33:41.440889",
    "updated_at": "2018-08-24 00:46:40.010429",
    "country": "United States",
    "longitude": "-90.4458066747764",
    "latitude": "38.7125042149117"
  },
  {
    "id": "4051",
    "name": "Piney River Brewing Company",
    "brewery_type": "micro",
    "street": "15194 Walnut Grove Dr",
    "city": "Bucyrus",
    "state": "Missouri",
    "postal_code": "65444-9002",
    "website_url": "http://www.pineyriverbrewing.com",
    "phone": "4179674001",
    "created_at": "2018-07-24 01:33:41.493499",
    "updated_at": "2018-08-24 00:46:41.432674",
    "country": "United States",
    "longitude": "-92.0176853708533",
    "latitude": "37.3214879835947"
  },
  {
    "id": "4054",
    "name": "Prison Brews",
    "brewery_type": "brewpub",
    "street": "305 Ash St",
    "city": "Jefferson City",
    "state": "Missouri",
    "postal_code": "65101-4002",
    "website_url": "http://www.prisonbrews.com",
    "phone": "5736350678",
    "created_at": "2018-07-24 01:33:41.531467",
    "updated_at": "2018-08-24 00:46:42.317297",
    "country": "United States",
    "longitude": "-92.1616013",
    "latitude": "38.5687256"
  },
  {
    "id": "4060",
    "name": "Rock & Run Brewery",
    "brewery_type": "brewpub",
    "street": "110 E Kansas St",
    "city": "Liberty",
    "state": "Missouri",
    "postal_code": "64068-2374",
    "website_url": "http://www.rockandrunbrewery.com",
    "phone": "8164152337",
    "created_at": "2018-07-24 01:33:41.605407",
    "updated_at": "2018-08-24 00:46:43.676137",
    "country": "United States",
    "longitude": "-94.4190247",
    "latitude": "39.2461993"
  },
  {
    "id": "4062",
    "name": "Schlafly Beer/The Saint Louis Brewery, LLC",
    "brewery_type": "regional",
    "street": "2100 Locust St",
    "city": "Saint Louis",
    "state": "Missouri",
    "postal_code": "63103-1616",
    "website_url": "http://www.schlafly.com",
    "phone": "3142412337",
    "created_at": "2018-07-24 01:33:41.630987",
    "updated_at": "2018-08-24 00:46:44.107208",
    "country": "United States",
    "longitude": "-90.2096942481772",
    "latitude": "38.63298865"
  },
  {
    "id": "4064",
    "name": "Side Project Brewing",
    "brewery_type": "micro",
    "street": "7458 Manchester Rd",
    "city": "Maplewood",
    "state": "Missouri",
    "postal_code": "63143-3032",
    "website_url": "http://www.SideProjectBrewing.com",
    "phone": "3142245211",
    "created_at": "2018-07-24 01:33:41.658243",
    "updated_at": "2018-08-24 00:46:45.021598",
    "country": "United States",
    "longitude": "-90.3222114615022",
    "latitude": "38.6122348370255"
  },
  {
    "id": "4065",
    "name": "Six Mile Bridge Brewery",
    "brewery_type": "micro",
    "street": "11841 Dorsett Rd",
    "city": "Maryland Heights",
    "state": "Missouri",
    "postal_code": "63043-2503",
    "website_url": "http://www.sixmilebridgebeer.com",
    "phone": "",
    "created_at": "2018-07-24 01:33:41.675748",
    "updated_at": "2018-08-24 00:46:45.577932",
    "country": "United States",
    "longitude": "-90.4318257169243",
    "latitude": "38.714489"
  },
  {
    "id": "4066",
    "name": "Smoke Brewing Company",
    "brewery_type": "brewpub",
    "street": "209 SE Main St.",
    "city": "Lees Summit",
    "state": "Missouri",
    "postal_code": "64063",
    "website_url": "",
    "phone": "8165252337",
    "created_at": "2018-07-24 01:33:41.68808",
    "updated_at": "2018-08-24 00:46:46.069162",
    "country": "United States",
    "longitude": "-94.3780773877551",
    "latitude": "38.9133490408163"
  },
  {
    "id": "4068",
    "name": "Springfield Brewing Co",
    "brewery_type": "brewpub",
    "street": "305 S Market Ave",
    "city": "Springfield",
    "state": "Missouri",
    "postal_code": "65806-2023",
    "website_url": "http://www.springfieldbrewingco.com",
    "phone": "4178328277",
    "created_at": "2018-07-24 01:33:41.712731",
    "updated_at": "2018-08-24 00:46:46.538293",
    "country": "United States",
    "longitude": "-93.295625",
    "latitude": "37.2077630266667"
  },
  {
    "id": "4069",
    "name": "Square One Brewery and Distillery",
    "brewery_type": "brewpub",
    "street": "1727 Park Ave",
    "city": "Saint Louis",
    "state": "Missouri",
    "postal_code": "63104-2941",
    "website_url": "http://www.squareonebrewery.com",
    "phone": "3142312537",
    "created_at": "2018-07-24 01:33:41.725196",
    "updated_at": "2018-08-24 00:46:46.991552",
    "country": "United States",
    "longitude": "-90.2103947346939",
    "latitude": "38.616665"
  },
  {
    "id": "4073",
    "name": "Strange Days Brewing Company",
    "brewery_type": "micro",
    "street": "316 Oak St",
    "city": "Kansas City",
    "state": "Missouri",
    "postal_code": "64106",
    "website_url": "http://www.strangedaysbrewing.com",
    "phone": "9134336232",
    "created_at": "2018-07-24 01:33:41.778289",
    "updated_at": "2018-08-24 00:46:48.762839",
    "country": "United States",
    "longitude": "-94.5799451187632",
    "latitude": "39.1100614"
  },
  {
    "id": "4074",
    "name": "Third Wheel Brewing",
    "brewery_type": "brewpub",
    "street": "4008 N Service Rd",
    "city": "Saint Peters",
    "state": "Missouri",
    "postal_code": "63376-6462",
    "website_url": "http://www.thirdwheelbrewing.com",
    "phone": "6363239810",
    "created_at": "2018-07-24 01:33:41.791398",
    "updated_at": "2018-08-24 00:46:49.296971",
    "country": "United States",
    "longitude": "-90.5702331498145",
    "latitude": "38.7957811617137"
  },
  {
    "id": "4075",
    "name": "Tie and Timber Beer Company",
    "brewery_type": "micro",
    "street": "1459 E Cherry St",
    "city": "Springfield",
    "state": "Missouri",
    "postal_code": "65802-3356",
    "website_url": "",
    "phone": "7202814664",
    "created_at": "2018-07-24 01:33:41.807752",
    "updated_at": "2018-08-24 00:46:49.920147",
    "country": "United States",
    "longitude": "-93.2689605",
    "latitude": "37.2037898333333"
  },
  {
    "id": "4076",
    "name": "Tin Mill Brewing Co",
    "brewery_type": "brewpub",
    "street": "114 Gutenberg St",
    "city": "Hermann",
    "state": "Missouri",
    "postal_code": "65041-1138",
    "website_url": "http://www.tinmillbrewing.com",
    "phone": "5734862275",
    "created_at": "2018-07-24 01:33:41.819856",
    "updated_at": "2018-08-24 00:46:50.363746",
    "country": "United States",
    "longitude": "-91.4330355714286",
    "latitude": "38.706022"
  },
  {
    "id": "4078",
    "name": "Trailhead Brewing Co",
    "brewery_type": "brewpub",
    "street": "921 S Riverside Dr",
    "city": "Saint Charles",
    "state": "Missouri",
    "postal_code": "63301-3489",
    "website_url": "http://www.trailheadbrewing.com",
    "phone": "6369462739",
    "created_at": "2018-07-24 01:33:41.85042",
    "updated_at": "2018-08-24 00:46:51.278984",
    "country": "United States",
    "longitude": "-90.4842484281908",
    "latitude": "38.7741905718092"
  },
  {
    "id": "4080",
    "name": "Urban Chestnut Brewing Co",
    "brewery_type": "regional",
    "street": "4465 Manchester Ave",
    "city": "Saint Louis",
    "state": "Missouri",
    "postal_code": "63110-2113",
    "website_url": "",
    "phone": "",
    "created_at": "2018-07-24 01:33:41.878688",
    "updated_at": "2018-08-24 00:46:51.706178",
    "country": "United States",
    "longitude": "-90.261143",
    "latitude": "38.626662"
  },
  {
    "id": "4081",
    "name": "Wages Brewing Company",
    "brewery_type": "micro",
    "street": "1382 Bill Virdon Blvd",
    "city": "West Plains",
    "state": "Missouri",
    "postal_code": "65775-3383",
    "website_url": "http://www.wagesbrewco.com",
    "phone": "4172933119",
    "created_at": "2018-07-24 01:33:41.891176",
    "updated_at": "2018-08-24 00:46:52.126109",
    "country": "United States",
    "longitude": "-91.8351090033593",
    "latitude": "36.72461005"
  },
  {
    "id": "4082",
    "name": "Wellspent Brewing Company",
    "brewery_type": "micro",
    "street": "2917 Olive Street",
    "city": "Saint Louis",
    "state": "Missouri",
    "postal_code": "63103",
    "website_url": "http://www.wellspentbeer.com",
    "phone": "3143280505",
    "created_at": "2018-07-24 01:33:41.903899",
    "updated_at": "2018-08-24 00:46:52.571705",
    "country": "United States",
    "longitude": "-90.2207367589074",
    "latitude": "38.6348785"
  },
  {
    "id": "4086",
    "name": "Wild Water",
    "brewery_type": "micro",
    "street": "9995 Winghaven Blvd",
    "city": "O Fallon",
    "state": "Missouri",
    "postal_code": "63368-3623",
    "website_url": "",
    "phone": "6362650751",
    "created_at": "2018-07-24 01:33:41.959318",
    "updated_at": "2018-08-11 21:38:10.06422",
    "country": "United States",
    "longitude": "",
    "latitude": ""
  },
  {
    "id": "4085",
    "name": "White River Brewing Co",
    "brewery_type": "micro",
    "street": "505 W Commercial St",
    "city": "Springfield",
    "state": "Missouri",
    "postal_code": "65803-2631",
    "website_url": "http://www.whiteriverbrewingco.com",
    "phone": "4178691366",
    "created_at": "2018-07-24 01:33:41.946469",
    "updated_at": "2018-08-24 00:46:53.882734",
    "country": "United States",
    "longitude": "-93.2954208453376",
    "latitude": "37.2296298"
  },
  {
    "id": "4087",
    "name": "William K Busch Brewing Co.",
    "brewery_type": "contract",
    "street": "8047 Litzsinger Rd",
    "city": "Saint Louis",
    "state": "Missouri",
    "postal_code": "63144-2505",
    "website_url": "http://www.enjoykraftig.com",
    "phone": "3149327911",
    "created_at": "2018-07-24 01:33:41.971745",
    "updated_at": "2018-08-24 00:46:54.852479",
    "country": "United States",
    "longitude": "-90.3373344235294",
    "latitude": "38.6168771058824"
  },
  {
    "id": "3981",
    "name": "Bastard Brothers Brewing Company",
    "brewery_type": "micro",
    "street": "2114 Penta Dr",
    "city": "High Ridge",
    "state": "Missouri",
    "postal_code": "63049-2684",
    "website_url": "http://www.bastardbrothersbrewery.com",
    "phone": "3145203401",
    "created_at": "2018-07-24 01:33:40.512527",
    "updated_at": "2018-08-11 21:38:06.659289",
    "country": "United States",
    "longitude": "",
    "latitude": ""
  },
  {
    "id": "4046",
    "name": "Narrow Gauge Brewing Company",
    "brewery_type": "brewpub",
    "street": "1595 N Highway 67 St",
    "city": "Florissant",
    "state": "Missouri",
    "postal_code": "63031-4606",
    "website_url": "http://www.narrowgaugestl.com",
    "phone": "3148313222",
    "created_at": "2018-07-24 01:33:41.427789",
    "updated_at": "2018-08-11 21:38:08.648831",
    "country": "United States",
    "longitude": "",
    "latitude": ""
  },
  {
    "id": "4057",
    "name": "Public House Brewing Company",
    "brewery_type": "micro",
    "street": "600 N Rolla St Ste B",
    "city": "Rolla",
    "state": "Missouri",
    "postal_code": "65401-3111",
    "website_url": "http://www.publichousebrewery.com",
    "phone": "5734262337",
    "created_at": "2018-07-24 01:33:41.568828",
    "updated_at": "2018-08-11 21:38:08.983869",
    "country": "United States",
    "longitude": "",
    "latitude": ""
  },
  {
    "id": "3997",
    "name": "Casual Animal",
    "brewery_type": "micro",
    "street": "1725 McGee St",
    "city": "Kansas City",
    "state": "Missouri",
    "postal_code": "64108",
    "website_url": "http://www.casualanimalbrewing.com",
    "phone": "",
    "created_at": "2018-07-24 01:33:40.755166",
    "updated_at": "2018-08-24 00:46:18.439909",
    "country": "United States",
    "longitude": "-94.579773861354",
    "latitude": "39.0924045"
  },
  {
    "id": "4015",
    "name": "Flat Branch Pub and Brewing",
    "brewery_type": "brewpub",
    "street": "115 S 5th St",
    "city": "Columbia",
    "state": "Missouri",
    "postal_code": "65201-4230",
    "website_url": "http://www.flatbranch.com",
    "phone": "5734990400",
    "created_at": "2018-07-24 01:33:40.999749",
    "updated_at": "2018-08-24 00:46:25.910646",
    "country": "United States",
    "longitude": "-92.3319689609883",
    "latitude": "38.9503001261367"
  },
  {
    "id": "4030",
    "name": "Kirkwood Station Brewing",
    "brewery_type": "brewpub",
    "street": "105 E Jefferson Ave",
    "city": "Kirkwood",
    "state": "Missouri",
    "postal_code": "63122-4025",
    "website_url": "http://www.kirkwoodstationbrewing.com",
    "phone": "3149662739",
    "created_at": "2018-07-24 01:33:41.216852",
    "updated_at": "2018-08-24 00:46:32.593688",
    "country": "United States",
    "longitude": "-90.4060884893617",
    "latitude": "38.5823430425532"
  },
  {
    "id": "4077",
    "name": "Torn Label Brewing Company",
    "brewery_type": "micro",
    "street": "1708 Campbell St",
    "city": "Kansas City",
    "state": "Missouri",
    "postal_code": "64108-1524",
    "website_url": "http://www.tornlabel.com",
    "phone": "9136348001",
    "created_at": "2018-07-24 01:33:41.834506",
    "updated_at": "2018-08-24 00:46:50.807044",
    "country": "United States",
    "longitude": "-94.5731695",
    "latitude": "39.0926934"
  }
]