[
  {
    "id": "3957",
    "name": "Chandeleur Island Brewing Company",
    "brewery_type": "micro",
    "street": "2711 14th St",
    "city": "Gulfport",
    "state": "Mississippi",
    "postal_code": "39501-1928",
    "website_url": "http://www.chandeleurbrew.com",
    "phone": "2287019985",
    "created_at": "2018-07-24 01:33:40.172716",
    "updated_at": "2018-08-24 00:46:03.091007",
    "country": "United States",
    "longitude": "-89.0954070161456",
    "latitude": "30.367827"
  },
  {
    "id": "3955",
    "name": "1817 Brewery",
    "brewery_type": "micro",
    "street": "100 B South Olive St",
    "city": "okolona",
    "state": "Mississippi",
    "postal_code": "38860",
    "website_url": "",
    "phone": "6623055907",
    "created_at": "2018-07-24 01:33:40.141296",
    "updated_at": "2018-08-24 00:46:02.182145",
    "country": "United States",
    "longitude": "-88.750264",
    "latitude": "34.001703"
  },
  {
    "id": "3958",
    "name": "Colludium Brewery",
    "brewery_type": "planning",
    "street": "",
    "city": "Hattiesburg",
    "state": "Mississippi",
    "postal_code": "39401",
    "website_url": "http://www.colludiumbrewery.com",
    "phone": "6015202789",
    "created_at": "2018-07-24 01:33:40.185368",
    "updated_at": "2018-08-11 21:38:05.942952",
    "country": "United States",
    "longitude": "",
    "latitude": ""
  },
  {
    "id": "3959",
    "name": "Crooked Letter Brewing Co",
    "brewery_type": "brewpub",
    "street": "503 Porter Ave",
    "city": "Ocean Springs",
    "state": "Mississippi",
    "postal_code": "39564",
    "website_url": "http://www.crookedletterbrewery.com",
    "phone": "2282353994",
    "created_at": "2018-07-24 01:33:40.197588",
    "updated_at": "2018-08-11 21:38:05.971776",
    "country": "United States",
    "longitude": "",
    "latitude": ""
  },
  {
    "id": "3965",
    "name": "Mighty Miss Brewing Co.",
    "brewery_type": "micro",
    "street": "525 S Washington Ave Ste B",
    "city": "Greenville",
    "state": "Mississippi",
    "postal_code": "38701-",
    "website_url": "http://www.mightymissbeer.com",
    "phone": "6623796477",
    "created_at": "2018-07-24 01:33:40.272976",
    "updated_at": "2018-08-11 21:38:06.182451",
    "country": "United States",
    "longitude": "",
    "latitude": ""
  },
  {
    "id": "3956",
    "name": "Biloxi Brewing Co",
    "brewery_type": "micro",
    "street": "186 Bohn St",
    "city": "Biloxi",
    "state": "Mississippi",
    "postal_code": "39530-3812",
    "website_url": "http://www.biloxibrewing.com",
    "phone": "2282731638",
    "created_at": "2018-07-24 01:33:40.156993",
    "updated_at": "2018-08-24 00:46:02.621328",
    "country": "United States",
    "longitude": "-88.8936191295261",
    "latitude": "30.3982915"
  },
  {
    "id": "3960",
    "name": "Hops and Growlers",
    "brewery_type": "micro",
    "street": "2339 Government St",
    "city": "Ocean Springs",
    "state": "Mississippi",
    "postal_code": "39564",
    "website_url": "http://www.hopsandgrowlers.com",
    "phone": "2283345585",
    "created_at": "2018-07-24 01:33:40.210787",
    "updated_at": "2018-08-24 00:46:04.041277",
    "country": "United States",
    "longitude": "-88.8090062028846",
    "latitude": "30.4136478456894"
  },
  {
    "id": "3961",
    "name": "Key City Brewing Co.",
    "brewery_type": "brewpub",
    "street": "1311 Washington St.",
    "city": "Vicksburg",
    "state": "Mississippi",
    "postal_code": "39180",
    "website_url": "http://keycitybeer.com",
    "phone": "6264871330",
    "created_at": "2018-07-24 01:33:40.222973",
    "updated_at": "2018-08-24 00:46:04.548882",
    "country": "United States",
    "longitude": "-90.8821644466135",
    "latitude": "32.3492729109236"
  },
  {
    "id": "3962",
    "name": "Lazy Magnolia Brewing Co, LLC",
    "brewery_type": "micro",
    "street": "7030 Roscoe Turner Rd",
    "city": "Kiln",
    "state": "Mississippi",
    "postal_code": "39556-8000",
    "website_url": "http://www.lazymagnolia.com",
    "phone": "2284672727",
    "created_at": "2018-07-24 01:33:40.234968",
    "updated_at": "2018-08-24 00:46:05.012863",
    "country": "United States",
    "longitude": "-89.4494876938776",
    "latitude": "30.376901755102"
  },
  {
    "id": "3963",
    "name": "Lucky Town Brewing Co",
    "brewery_type": "micro",
    "street": "1710 N Mill St",
    "city": "Jackson",
    "state": "Mississippi",
    "postal_code": "39202-1536",
    "website_url": "http://www.luckytownbrewing.com",
    "phone": "6017900142",
    "created_at": "2018-07-24 01:33:40.248304",
    "updated_at": "2018-08-24 00:46:05.542642",
    "country": "United States",
    "longitude": "-90.1885780771694",
    "latitude": "32.3196560375173"
  },
  {
    "id": "3966",
    "name": "Natchez Brewing Co",
    "brewery_type": "micro",
    "street": "207 High St",
    "city": "Natchez",
    "state": "Mississippi",
    "postal_code": "39120-3222",
    "website_url": "http://www.natchezbrew.com",
    "phone": "8287135311",
    "created_at": "2018-07-24 01:33:40.286492",
    "updated_at": "2018-08-24 00:46:06.43072",
    "country": "United States",
    "longitude": "-91.4021969011096",
    "latitude": "31.5634832602662"
  },
  {
    "id": "3967",
    "name": "Slowboat Brewing Company",
    "brewery_type": "micro",
    "street": "318 W 5th St",
    "city": "Laurel",
    "state": "Mississippi",
    "postal_code": "39440-3461",
    "website_url": "http://www.slowboatbrewco.com",
    "phone": "6014332723",
    "created_at": "2018-07-24 01:33:40.299118",
    "updated_at": "2018-08-24 00:46:06.913063",
    "country": "United States",
    "longitude": "-89.127895375",
    "latitude": "31.6942523125"
  },
  {
    "id": "3968",
    "name": "Southern Prohibition Brewing",
    "brewery_type": "micro",
    "street": "301 Mobile St",
    "city": "Hattiesburg",
    "state": "Mississippi",
    "postal_code": "39401-3406",
    "website_url": "http://www.soprobrewing.com",
    "phone": "6014671057",
    "created_at": "2018-07-24 01:33:40.311806",
    "updated_at": "2018-08-24 00:46:07.432246",
    "country": "United States",
    "longitude": "-89.2899201053982",
    "latitude": "31.3312346426886"
  },
  {
    "id": "3969",
    "name": "Threefoot Brewing Company, LLC",
    "brewery_type": "contract",
    "street": "4010 23rd Avenue",
    "city": "Meridian",
    "state": "Mississippi",
    "postal_code": "39305",
    "website_url": "http://www.threefootbrewing.com",
    "phone": "6016931074",
    "created_at": "2018-07-24 01:33:40.326335",
    "updated_at": "2018-08-24 00:46:07.900874",
    "country": "United States",
    "longitude": "-88.7010359",
    "latitude": "32.4001022"
  },
  {
    "id": "3970",
    "name": "Yalobusha Brewing Company",
    "brewery_type": "micro",
    "street": "102 S Main St",
    "city": "Water Valley",
    "state": "Mississippi",
    "postal_code": "38965-2906",
    "website_url": "http://www.yalobrew.com",
    "phone": "",
    "created_at": "2018-07-24 01:33:40.339951",
    "updated_at": "2018-08-24 00:46:08.371565",
    "country": "United States",
    "longitude": "-89.6366568",
    "latitude": "34.1422633"
  },
  {
    "id": "3964",
    "name": "Mayhew Junction Brewing Company",
    "brewery_type": "micro",
    "street": "106 Eckford Dr",
    "city": "Starkville",
    "state": "Mississippi",
    "postal_code": "39759-3710",
    "website_url": "http://www.mayhewjunction.com",
    "phone": "6625460510",
    "created_at": "2018-07-24 01:33:40.260521",
    "updated_at": "2018-08-11 21:38:06.14732",
    "country": "United States",
    "longitude": "",
    "latitude": ""
  },
  {
    "id": "3957",
    "name": "Chandeleur Island Brewing Company",
    "brewery_type": "micro",
    "street": "2711 14th St",
    "city": "Gulfport",
    "state": "Mississippi",
    "postal_code": "39501-1928",
    "website_url": "http://www.chandeleurbrew.com",
    "phone": "2287019985",
    "created_at": "2018-07-24 01:33:40.172716",
    "updated_at": "2018-08-24 00:46:03.091007",
    "country": "United States",
    "longitude": "-89.0954070161456",
    "latitude": "30.367827"
  },
  {
    "id": "3955",
    "name": "1817 Brewery",
    "brewery_type": "micro",
    "street": "100 B South Olive St",
    "city": "okolona",
    "state": "Mississippi",
    "postal_code": "38860",
    "website_url": "",
    "phone": "6623055907",
    "created_at": "2018-07-24 01:33:40.141296",
    "updated_at": "2018-08-24 00:46:02.182145",
    "country": "United States",
    "longitude": "-88.750264",
    "latitude": "34.001703"
  },
  {
    "id": "3958",
    "name": "Colludium Brewery",
    "brewery_type": "planning",
    "street": "",
    "city": "Hattiesburg",
    "state": "Mississippi",
    "postal_code": "39401",
    "website_url": "http://www.colludiumbrewery.com",
    "phone": "6015202789",
    "created_at": "2018-07-24 01:33:40.185368",
    "updated_at": "2018-08-11 21:38:05.942952",
    "country": "United States",
    "longitude": "",
    "latitude": ""
  },
  {
    "id": "3959",
    "name": "Crooked Letter Brewing Co",
    "brewery_type": "brewpub",
    "street": "503 Porter Ave",
    "city": "Ocean Springs",
    "state": "Mississippi",
    "postal_code": "39564",
    "website_url": "http://www.crookedletterbrewery.com",
    "phone": "2282353994",
    "created_at": "2018-07-24 01:33:40.197588",
    "updated_at": "2018-08-11 21:38:05.971776",
    "country": "United States",
    "longitude": "",
    "latitude": ""
  },
  {
    "id": "3965",
    "name": "Mighty Miss Brewing Co.",
    "brewery_type": "micro",
    "street": "525 S Washington Ave Ste B",
    "city": "Greenville",
    "state": "Mississippi",
    "postal_code": "38701-",
    "website_url": "http://www.mightymissbeer.com",
    "phone": "6623796477",
    "created_at": "2018-07-24 01:33:40.272976",
    "updated_at": "2018-08-11 21:38:06.182451",
    "country": "United States",
    "longitude": "",
    "latitude": ""
  },
  {
    "id": "3956",
    "name": "Biloxi Brewing Co",
    "brewery_type": "micro",
    "street": "186 Bohn St",
    "city": "Biloxi",
    "state": "Mississippi",
    "postal_code": "39530-3812",
    "website_url": "http://www.biloxibrewing.com",
    "phone": "2282731638",
    "created_at": "2018-07-24 01:33:40.156993",
    "updated_at": "2018-08-24 00:46:02.621328",
    "country": "United States",
    "longitude": "-88.8936191295261",
    "latitude": "30.3982915"
  },
  {
    "id": "3960",
    "name": "Hops and Growlers",
    "brewery_type": "micro",
    "street": "2339 Government St",
    "city": "Ocean Springs",
    "state": "Mississippi",
    "postal_code": "39564",
    "website_url": "http://www.hopsandgrowlers.com",
    "phone": "2283345585",
    "created_at": "2018-07-24 01:33:40.210787",
    "updated_at": "2018-08-24 00:46:04.041277",
    "country": "United States",
    "longitude": "-88.8090062028846",
    "latitude": "30.4136478456894"
  },
  {
    "id": "3961",
    "name": "Key City Brewing Co.",
    "brewery_type": "brewpub",
    "street": "1311 Washington St.",
    "city": "Vicksburg",
    "state": "Mississippi",
    "postal_code": "39180",
    "website_url": "http://keycitybeer.com",
    "phone": "6264871330",
    "created_at": "2018-07-24 01:33:40.222973",
    "updated_at": "2018-08-24 00:46:04.548882",
    "country": "United States",
    "longitude": "-90.8821644466135",
    "latitude": "32.3492729109236"
  },
  {
    "id": "3962",
    "name": "Lazy Magnolia Brewing Co, LLC",
    "brewery_type": "micro",
    "street": "7030 Roscoe Turner Rd",
    "city": "Kiln",
    "state": "Mississippi",
    "postal_code": "39556-8000",
    "website_url": "http://www.lazymagnolia.com",
    "phone": "2284672727",
    "created_at": "2018-07-24 01:33:40.234968",
    "updated_at": "2018-08-24 00:46:05.012863",
    "country": "United States",
    "longitude": "-89.4494876938776",
    "latitude": "30.376901755102"
  },
  {
    "id": "3963",
    "name": "Lucky Town Brewing Co",
    "brewery_type": "micro",
    "street": "1710 N Mill St",
    "city": "Jackson",
    "state": "Mississippi",
    "postal_code": "39202-1536",
    "website_url": "http://www.luckytownbrewing.com",
    "phone": "6017900142",
    "created_at": "2018-07-24 01:33:40.248304",
    "updated_at": "2018-08-24 00:46:05.542642",
    "country": "United States",
    "longitude": "-90.1885780771694",
    "latitude": "32.3196560375173"
  },
  {
    "id": "3966",
    "name": "Natchez Brewing Co",
    "brewery_type": "micro",
    "street": "207 High St",
    "city": "Natchez",
    "state": "Mississippi",
    "postal_code": "39120-3222",
    "website_url": "http://www.natchezbrew.com",
    "phone": "8287135311",
    "created_at": "2018-07-24 01:33:40.286492",
    "updated_at": "2018-08-24 00:46:06.43072",
    "country": "United States",
    "longitude": "-91.4021969011096",
    "latitude": "31.5634832602662"
  },
  {
    "id": "3967",
    "name": "Slowboat Brewing Company",
    "brewery_type": "micro",
    "street": "318 W 5th St",
    "city": "Laurel",
    "state": "Mississippi",
    "postal_code": "39440-3461",
    "website_url": "http://www.slowboatbrewco.com",
    "phone": "6014332723",
    "created_at": "2018-07-24 01:33:40.299118",
    "updated_at": "2018-08-24 00:46:06.913063",
    "country": "United States",
    "longitude": "-89.127895375",
    "latitude": "31.6942523125"
  },
  {
    "id": "3968",
    "name": "Southern Prohibition Brewing",
    "brewery_type": "micro",
    "street": "301 Mobile St",
    "city": "Hattiesburg",
    "state": "Mississippi",
    "postal_code": "39401-3406",
    "website_url": "http://www.soprobrewing.com",
    "phone": "6014671057",
    "created_at": "2018-07-24 01:33:40.311806",
    "updated_at": "2018-08-24 00:46:07.432246",
    "country": "United States",
    "longitude": "-89.2899201053982",
    "latitude": "31.3312346426886"
  },
  {
    "id": "3969",
    "name": "Threefoot Brewing Company, LLC",
    "brewery_type": "contract",
    "street": "4010 23rd Avenue",
    "city": "Meridian",
    "state": "Mississippi",
    "postal_code": "39305",
    "website_url": "http://www.threefootbrewing.com",
    "phone": "6016931074",
    "created_at": "2018-07-24 01:33:40.326335",
    "updated_at": "2018-08-24 00:46:07.900874",
    "country": "United States",
    "longitude": "-88.7010359",
    "latitude": "32.4001022"
  },
  {
    "id": "3970",
    "name": "Yalobusha Brewing Company",
    "brewery_type": "micro",
    "street": "102 S Main St",
    "city": "Water Valley",
    "state": "Mississippi",
    "postal_code": "38965-2906",
    "website_url": "http://www.yalobrew.com",
    "phone": "",
    "created_at": "2018-07-24 01:33:40.339951",
    "updated_at": "2018-08-24 00:46:08.371565",
    "country": "United States",
    "longitude": "-89.6366568",
    "latitude": "34.1422633"
  },
  {
    "id": "3964",
    "name": "Mayhew Junction Brewing Company",
    "brewery_type": "micro",
    "street": "106 Eckford Dr",
    "city": "Starkville",
    "state": "Mississippi",
    "postal_code": "39759-3710",
    "website_url": "http://www.mayhewjunction.com",
    "phone": "6625460510",
    "created_at": "2018-07-24 01:33:40.260521",
    "updated_at": "2018-08-11 21:38:06.14732",
    "country": "United States",
    "longitude": "",
    "latitude": ""
  }
]