[
  {
    "id": "4088",
    "name": "2 Basset Brewery",
    "brewery_type": "micro",
    "street": "202 E Main St",
    "city": "White Sulphur Springs",
    "state": "Montana",
    "postal_code": "59645-9081",
    "website_url": "http://www.2bassetbrewery.com",
    "phone": "4065472337",
    "created_at": "2018-07-24 01:33:41.996169",
    "updated_at": "2018-08-24 00:46:55.355806",
    "country": "United States",
    "longitude": "-110.900486489644",
    "latitude": "46.5480760866913"
  },
  {
    "id": "4114",
    "name": "Cabinet Mountain Brewing Co",
    "brewery_type": "brewpub",
    "street": "206 Mineral Ave",
    "city": "Libby",
    "state": "Montana",
    "postal_code": "59923-1952",
    "website_url": "http://www.cabinetmountainbrewing.com",
    "phone": "4062932739",
    "created_at": "2018-07-24 01:33:42.374974",
    "updated_at": "2018-08-24 00:47:04.988553",
    "country": "United States",
    "longitude": "-115.5506412",
    "latitude": "48.3936508"
  },
  {
    "id": "4133",
    "name": "Harvest Moon Brewing",
    "brewery_type": "micro",
    "street": "7 5th St S",
    "city": "Belt",
    "state": "Montana",
    "postal_code": "59412-0510",
    "website_url": "http://www.harvestmoonbrew.com",
    "phone": "4062773188",
    "created_at": "2018-07-24 01:33:42.675374",
    "updated_at": "2018-08-24 00:47:12.187893",
    "country": "United States",
    "longitude": "-110.92985271363",
    "latitude": "47.3822191883646"
  },
  {
    "id": "4150",
    "name": "Meadowlark Brewing",
    "brewery_type": "brewpub",
    "street": "117 S Central Ave",
    "city": "Sidney",
    "state": "Montana",
    "postal_code": "59270-4123",
    "website_url": "http://www.meadowlarkbrewing.com",
    "phone": "",
    "created_at": "2018-07-24 01:33:42.889365",
    "updated_at": "2018-08-24 00:47:19.69559",
    "country": "United States",
    "longitude": "-104.1602945",
    "latitude": "47.7105211"
  },
  {
    "id": "4165",
    "name": "Red Lodge Ales Brewing Co",
    "brewery_type": "micro",
    "street": "1445 N Broadway Ave",
    "city": "Red Lodge",
    "state": "Montana",
    "postal_code": "59068-9383",
    "website_url": "http://www.redlodgeales.net",
    "phone": "4064464607",
    "created_at": "2018-07-24 01:33:43.113752",
    "updated_at": "2018-08-24 00:47:25.147288",
    "country": "United States",
    "longitude": "-109.24653926506",
    "latitude": "45.1972705301205"
  },
  {
    "id": "4149",
    "name": "MAP Brewing Company",
    "brewery_type": "brewpub",
    "street": "510 Manley Rd",
    "city": "Bozeman",
    "state": "Montana",
    "postal_code": "59715-8784",
    "website_url": "http://www.mapbrewing.com",
    "phone": "4065874070",
    "created_at": "2018-07-24 01:33:42.876968",
    "updated_at": "2018-08-24 00:47:19.247974",
    "country": "United States",
    "longitude": "-111.0400807",
    "latitude": "45.7033199"
  },
  {
    "id": "4089",
    "name": "380 Brewing Company",
    "brewery_type": "planning",
    "street": "",
    "city": "Clancy",
    "state": "Montana",
    "postal_code": "59634",
    "website_url": "",
    "phone": "2065796509",
    "created_at": "2018-07-24 01:33:42.015609",
    "updated_at": "2018-08-11 21:38:10.167568",
    "country": "United States",
    "longitude": "",
    "latitude": ""
  },
  {
    "id": "4090",
    "name": "406 Brewing Company",
    "brewery_type": "micro",
    "street": "101 E Oak St,Â Ste D",
    "city": "Bozeman",
    "state": "Montana",
    "postal_code": "59715-2967",
    "website_url": "http://www.406brewingcompany.com",
    "phone": "4065853745",
    "created_at": "2018-07-24 01:33:42.028946",
    "updated_at": "2018-08-11 21:38:10.197919",
    "country": "United States",
    "longitude": "",
    "latitude": ""
  },
  {
    "id": "4092",
    "name": "Backslope Brewing",
    "brewery_type": "brewpub",
    "street": "1107 9th St W (Highway 2)",
    "city": "Columbia Falls",
    "state": "Montana",
    "postal_code": "59912",
    "website_url": "http://www.backslopebrewing.com",
    "phone": "4062242510",
    "created_at": "2018-07-24 01:33:42.057302",
    "updated_at": "2018-08-11 21:38:10.264342",
    "country": "United States",
    "longitude": "",
    "latitude": ""
  },
  {
    "id": "4093",
    "name": "Bandit Brewing Co",
    "brewery_type": "micro",
    "street": "610 N 1st St Ste 5-228",
    "city": "Hamilton",
    "state": "Montana",
    "postal_code": "59840-2149",
    "website_url": "http://www.banditbeer.com",
    "phone": "4066466003",
    "created_at": "2018-07-24 01:33:42.077407",
    "updated_at": "2018-08-11 21:38:10.298097",
    "country": "United States",
    "longitude": "",
    "latitude": ""
  },
  {
    "id": "4099",
    "name": "Bias Brewing",
    "brewery_type": "micro",
    "street": "409 1st Ave E Ste B",
    "city": "Kalispell",
    "state": "Montana",
    "postal_code": "59901",
    "website_url": "http://www.biasbrewing.com",
    "phone": "4067303020",
    "created_at": "2018-07-24 01:33:42.169015",
    "updated_at": "2018-08-11 21:38:10.507663",
    "country": "United States",
    "longitude": "",
    "latitude": ""
  },
  {
    "id": "4105",
    "name": "BLUE RIDGE BREWING",
    "brewery_type": "planning",
    "street": "",
    "city": "Malta",
    "state": "Montana",
    "postal_code": "59538",
    "website_url": "",
    "phone": "4066542855",
    "created_at": "2018-07-24 01:33:42.247577",
    "updated_at": "2018-08-11 21:38:10.711018",
    "country": "United States",
    "longitude": "",
    "latitude": ""
  },
  {
    "id": "4108",
    "name": "Brewery in Planning - Helena",
    "brewery_type": "planning",
    "street": "",
    "city": "Helena",
    "state": "Montana",
    "postal_code": "59602-0552",
    "website_url": "http://brewingeducation.com",
    "phone": "4065584619",
    "created_at": "2018-07-24 01:33:42.295098",
    "updated_at": "2018-08-11 21:38:10.817043",
    "country": "United States",
    "longitude": "",
    "latitude": ""
  },
  {
    "id": "4109",
    "name": "Brewing Academy Of Montana At FVCC",
    "brewery_type": "planning",
    "street": "",
    "city": "Kalispell",
    "state": "Montana",
    "postal_code": "59901",
    "website_url": "http://www.fvcc.edu",
    "phone": "4067564359",
    "created_at": "2018-07-24 01:33:42.308634",
    "updated_at": "2018-08-11 21:38:10.857259",
    "country": "United States",
    "longitude": "",
    "latitude": ""
  },
  {
    "id": "4117",
    "name": "Conflux Brewing",
    "brewery_type": "planning",
    "street": "",
    "city": "Missoula",
    "state": "Montana",
    "postal_code": "59802-4418",
    "website_url": "",
    "phone": "",
    "created_at": "2018-07-24 01:33:42.423725",
    "updated_at": "2018-08-11 21:38:11.205288",
    "country": "United States",
    "longitude": "",
    "latitude": ""
  },
  {
    "id": "4118",
    "name": "Crooked Furrow Brewing",
    "brewery_type": "micro",
    "street": "2801 N Roberts Ave",
    "city": "Helena",
    "state": "Montana",
    "postal_code": "59601",
    "website_url": "http://www.crookedfurrowbrewing.com",
    "phone": "4064225975",
    "created_at": "2018-07-24 01:33:42.444982",
    "updated_at": "2018-08-11 21:38:11.242257",
    "country": "United States",
    "longitude": "",
    "latitude": ""
  },
  {
    "id": "4121",
    "name": "Dog Tag Brewing",
    "brewery_type": "contract",
    "street": "2042 Stadium Dr Ste 2",
    "city": "Bozeman",
    "state": "Montana",
    "postal_code": "59715-0710",
    "website_url": "http://www.dogtagbrewing.org",
    "phone": "",
    "created_at": "2018-07-24 01:33:42.481971",
    "updated_at": "2018-08-11 21:38:11.344419",
    "country": "United States",
    "longitude": "",
    "latitude": ""
  },
  {
    "id": "4124",
    "name": "Flathead Lake Brewing Co",
    "brewery_type": "micro",
    "street": "116 Holt Dr Ste B",
    "city": "Bigfork",
    "state": "Montana",
    "postal_code": "59911-3707",
    "website_url": "http://www.flatheadlakebrewing.com",
    "phone": "4068370085",
    "created_at": "2018-07-24 01:33:42.539293",
    "updated_at": "2018-08-11 21:38:11.482478",
    "country": "United States",
    "longitude": "",
    "latitude": ""
  },
  {
    "id": "4125",
    "name": "Flathead Lake Brewing Co - Production Only",
    "brewery_type": "micro",
    "street": "",
    "city": "Bigfork",
    "state": "Montana",
    "postal_code": "59911-8484",
    "website_url": "http://www.flatheadlakebrewing.com",
    "phone": "4068370085",
    "created_at": "2018-07-24 01:33:42.560154",
    "updated_at": "2018-08-11 21:38:11.544098",
    "country": "United States",
    "longitude": "",
    "latitude": ""
  },
  {
    "id": "4127",
    "name": "Game Bag Brewing",
    "brewery_type": "planning",
    "street": "",
    "city": "Belgrade",
    "state": "Montana",
    "postal_code": "59714-8809",
    "website_url": "",
    "phone": "5092208584",
    "created_at": "2018-07-24 01:33:42.58917",
    "updated_at": "2018-08-11 21:38:11.629763",
    "country": "United States",
    "longitude": "",
    "latitude": ""
  },
  {
    "id": "4128",
    "name": "GILD BREWING",
    "brewery_type": "planning",
    "street": "",
    "city": "Missoula",
    "state": "Montana",
    "postal_code": "59801-2734",
    "website_url": "",
    "phone": "",
    "created_at": "2018-07-24 01:33:42.600992",
    "updated_at": "2018-08-11 21:38:11.66805",
    "country": "United States",
    "longitude": "",
    "latitude": ""
  },
  {
    "id": "4091",
    "name": "Angry Hank's Microbrewery",
    "brewery_type": "micro",
    "street": "20 N 30th St",
    "city": "Billings",
    "state": "Montana",
    "postal_code": "59101-2140",
    "website_url": "",
    "phone": "4062523370",
    "created_at": "2018-07-24 01:33:42.043111",
    "updated_at": "2018-08-24 00:46:56.319957",
    "country": "United States",
    "longitude": "-108.507602476104",
    "latitude": "45.78022172594"
  },
  {
    "id": "4094",
    "name": "Bar 3 BBQ and Brewing",
    "brewery_type": "brewpub",
    "street": "100 S Broadway",
    "city": "Belgrade",
    "state": "Montana",
    "postal_code": "59714-3909",
    "website_url": "http://www.bar3bbq.com",
    "phone": "4063889182",
    "created_at": "2018-07-24 01:33:42.091491",
    "updated_at": "2018-08-24 00:46:57.704054",
    "country": "United States",
    "longitude": "-111.1770268",
    "latitude": "45.7751537"
  },
  {
    "id": "4095",
    "name": "Bayern Brewing Inc.",
    "brewery_type": "micro",
    "street": "1507 Montana St",
    "city": "Missoula",
    "state": "Montana",
    "postal_code": "59801-1409",
    "website_url": "http://www.bayernbrewery.com",
    "phone": "4067211482",
    "created_at": "2018-07-24 01:33:42.114747",
    "updated_at": "2018-08-24 00:46:58.12443",
    "country": "United States",
    "longitude": "-114.0202088",
    "latitude": "46.8725952"
  },
  {
    "id": "4097",
    "name": "Beaverhead Brewing Co",
    "brewery_type": "micro",
    "street": "218 S Montana St",
    "city": "Dillon",
    "state": "Montana",
    "postal_code": "59725-2438",
    "website_url": "http://www.beaverheadbeer.com",
    "phone": "4069880011",
    "created_at": "2018-07-24 01:33:42.143995",
    "updated_at": "2018-08-24 00:46:58.999422",
    "country": "United States",
    "longitude": "-112.639687521806",
    "latitude": "45.215753506488"
  },
  {
    "id": "4098",
    "name": "Beehive Basin Brewery",
    "brewery_type": "micro",
    "street": "245 Town Center Ave",
    "city": "Big Sky",
    "state": "Montana",
    "postal_code": "59716",
    "website_url": "http://www.beehivebasinbrewery.com",
    "phone": "4069957444",
    "created_at": "2018-07-24 01:33:42.156603",
    "updated_at": "2018-08-24 00:46:59.450897",
    "country": "United States",
    "longitude": "-111.3037009",
    "latitude": "45.259632"
  },
  {
    "id": "4101",
    "name": "Bitter Root Brewing Co",
    "brewery_type": "micro",
    "street": "101 Marcus St",
    "city": "Hamilton",
    "state": "Montana",
    "postal_code": "59840-2541",
    "website_url": "http://www.bitterrootbrewing.com",
    "phone": "4063637468",
    "created_at": "2018-07-24 01:33:42.193616",
    "updated_at": "2018-08-24 00:47:00.86465",
    "country": "United States",
    "longitude": "-114.155194559549",
    "latitude": "46.2473377752819"
  },
  {
    "id": "4102",
    "name": "Black Eagle Brewery",
    "brewery_type": "micro",
    "street": "1600 25th Ave NE",
    "city": "Black Eagle",
    "state": "Montana",
    "postal_code": "59414-1070",
    "website_url": "http://www.pitstopblackeagle.com",
    "phone": "4068681866",
    "created_at": "2018-07-24 01:33:42.210305",
    "updated_at": "2018-08-24 00:47:01.325876",
    "country": "United States",
    "longitude": "-111.279526",
    "latitude": "47.528243"
  },
  {
    "id": "4103",
    "name": "Blackfoot River Brewing Co",
    "brewery_type": "micro",
    "street": "66 S Park Ave",
    "city": "Helena",
    "state": "Montana",
    "postal_code": "59601-6271",
    "website_url": "http://www.blackfootriverbrewing.com",
    "phone": "4064493005",
    "created_at": "2018-07-24 01:33:42.222844",
    "updated_at": "2018-08-24 00:47:01.834067",
    "country": "United States",
    "longitude": "-112.0417121",
    "latitude": "46.5862933"
  },
  {
    "id": "4104",
    "name": "Blacksmith Brewing Co",
    "brewery_type": "micro",
    "street": "114 Main St",
    "city": "Stevensville",
    "state": "Montana",
    "postal_code": "59870-2109",
    "website_url": "http://www.blacksmithbrewing.com",
    "phone": "4067770680",
    "created_at": "2018-07-24 01:33:42.235424",
    "updated_at": "2018-08-24 00:47:02.2893",
    "country": "United States",
    "longitude": "-114.092930285714",
    "latitude": "46.5115497142857"
  },
  {
    "id": "4106",
    "name": "Bonsai Brewing Project",
    "brewery_type": "brewpub",
    "street": "549 Wisconsin Ave",
    "city": "Whitefish",
    "state": "Montana",
    "postal_code": "59937-2127",
    "website_url": "http://bonsaibrew.com",
    "phone": "4067301717",
    "created_at": "2018-07-24 01:33:42.262374",
    "updated_at": "2018-08-24 00:47:02.724742",
    "country": "United States",
    "longitude": "-114.3406189",
    "latitude": "48.4214453"
  },
  {
    "id": "4107",
    "name": "Bozeman Brewing Co",
    "brewery_type": "micro",
    "street": "504 N Broadway Ave",
    "city": "Bozeman",
    "state": "Montana",
    "postal_code": "59715-3006",
    "website_url": "http://www.bozemanbrewing.com",
    "phone": "4065859142",
    "created_at": "2018-07-24 01:33:42.281959",
    "updated_at": "2018-08-24 00:47:03.182743",
    "country": "United States",
    "longitude": "-111.0238884",
    "latitude": "45.6845234"
  },
  {
    "id": "4110",
    "name": "Bridger Brewing Company",
    "brewery_type": "brewpub",
    "street": "1609 S 11th Ave",
    "city": "Bozeman",
    "state": "Montana",
    "postal_code": "59715-5466",
    "website_url": "http://www.bridgerbrewing.com",
    "phone": "4065872124",
    "created_at": "2018-07-24 01:33:42.321712",
    "updated_at": "2018-08-24 00:47:03.647536",
    "country": "United States",
    "longitude": "-111.0526959",
    "latitude": "45.6627215"
  },
  {
    "id": "4112",
    "name": "Busted Knuckle Brewery",
    "brewery_type": "micro",
    "street": "303 1st Ave S",
    "city": "Glasgow",
    "state": "Montana",
    "postal_code": "59230-2308",
    "website_url": "",
    "phone": "4062282277",
    "created_at": "2018-07-24 01:33:42.350247",
    "updated_at": "2018-08-24 00:47:04.130079",
    "country": "United States",
    "longitude": "-106.633546376276",
    "latitude": "48.1938471991415"
  },
  {
    "id": "4113",
    "name": "Butte Brewing Co",
    "brewery_type": "micro",
    "street": "465 E Galena St",
    "city": "Butte",
    "state": "Montana",
    "postal_code": "59701-1928",
    "website_url": "http://www.buttebrewing.com",
    "phone": "4062993953",
    "created_at": "2018-07-24 01:33:42.362547",
    "updated_at": "2018-08-24 00:47:04.566757",
    "country": "United States",
    "longitude": "-112.525919731978",
    "latitude": "46.0124680410196"
  },
  {
    "id": "4115",
    "name": "Canyon Creek Brewing",
    "brewery_type": "micro",
    "street": "3060 Gabel Rd",
    "city": "Billings",
    "state": "Montana",
    "postal_code": "59102-7336",
    "website_url": "http://www.canyoncreekbrewing.com",
    "phone": "4066562528",
    "created_at": "2018-07-24 01:33:42.388474",
    "updated_at": "2018-08-24 00:47:05.421559",
    "country": "United States",
    "longitude": "-108.591675204462",
    "latitude": "45.7443650206617"
  },
  {
    "id": "4116",
    "name": "Carters Brewing",
    "brewery_type": "micro",
    "street": "2526 Montana Ave",
    "city": "Billings",
    "state": "Montana",
    "postal_code": "59101-2313",
    "website_url": "http://www.cartersbrewing.com",
    "phone": "4068617712",
    "created_at": "2018-07-24 01:33:42.400621",
    "updated_at": "2018-08-24 00:47:05.853626",
    "country": "United States",
    "longitude": "-108.501653826985",
    "latitude": "45.7829133357354"
  },
  {
    "id": "4119",
    "name": "Cross Country Brewing",
    "brewery_type": "micro",
    "street": "320 E Allard St",
    "city": "Glendive",
    "state": "Montana",
    "postal_code": "59330-2719",
    "website_url": "",
    "phone": "4063772739",
    "created_at": "2018-07-24 01:33:42.457184",
    "updated_at": "2018-08-24 00:47:06.706413",
    "country": "United States",
    "longitude": "-104.70579",
    "latitude": "47.11209"
  },
  {
    "id": "4122",
    "name": "Draught Works Brewing",
    "brewery_type": "micro",
    "street": "915 Toole Ave",
    "city": "Missoula",
    "state": "Montana",
    "postal_code": "59802-2625",
    "website_url": "http://www.draughtworksbrewery.com",
    "phone": "4062412423",
    "created_at": "2018-07-24 01:33:42.507624",
    "updated_at": "2018-08-24 00:47:08.050953",
    "country": "United States",
    "longitude": "-114.0044493",
    "latitude": "46.8782576"
  },
  {
    "id": "4123",
    "name": "Elk Ridge Brewing Company",
    "brewery_type": "micro",
    "street": "320 Main St",
    "city": "Deer Lodge",
    "state": "Montana",
    "postal_code": "59722-1057",
    "website_url": "http://www.elkridgebrewingcompany.com",
    "phone": "4068464650",
    "created_at": "2018-07-24 01:33:42.526556",
    "updated_at": "2018-08-24 00:47:08.51581",
    "country": "United States",
    "longitude": "-112.953554730671",
    "latitude": "46.1280590464857"
  },
  {
    "id": "4126",
    "name": "Gally's Brewing Co",
    "brewery_type": "micro",
    "street": "30 Central Ave S",
    "city": "Harlowton",
    "state": "Montana",
    "postal_code": "59036",
    "website_url": "http://www.gallysbrewing.com",
    "phone": "4066325838",
    "created_at": "2018-07-24 01:33:42.576484",
    "updated_at": "2018-08-24 00:47:09.408652",
    "country": "United States",
    "longitude": "-109.83186554326",
    "latitude": "46.4351371751918"
  },
  {
    "id": "4129",
    "name": "Glacier Brewing Co",
    "brewery_type": "micro",
    "street": "6 10th Ave E",
    "city": "Polson",
    "state": "Montana",
    "postal_code": "59860-3219",
    "website_url": "http://www.glacierbrewing.com",
    "phone": "4068832595",
    "created_at": "2018-07-24 01:33:42.613031",
    "updated_at": "2018-08-24 00:47:09.881749",
    "country": "United States",
    "longitude": "-114.16277352",
    "latitude": "47.6862114"
  },
  {
    "id": "4130",
    "name": "Great Burn Brewing",
    "brewery_type": "micro",
    "street": "2230 McDonald Ave",
    "city": "Missoula",
    "state": "Montana",
    "postal_code": "59801-8802",
    "website_url": "http://www.greatburnbrewing.com",
    "phone": "4063171557",
    "created_at": "2018-07-24 01:33:42.631883",
    "updated_at": "2018-08-24 00:47:10.842586",
    "country": "United States",
    "longitude": "-114.033997040816",
    "latitude": "46.8397919183673"
  },
  {
    "id": "4131",
    "name": "Great Northern Brewing Co",
    "brewery_type": "micro",
    "street": "2 Central Ave",
    "city": "Whitefish",
    "state": "Montana",
    "postal_code": "59937-2547",
    "website_url": "http://www.greatnorthernbrewing.com",
    "phone": "4068631000",
    "created_at": "2018-07-24 01:33:42.649296",
    "updated_at": "2018-08-24 00:47:11.27576",
    "country": "United States",
    "longitude": "-114.3370175",
    "latitude": "48.4123443"
  },
  {
    "id": "4132",
    "name": "H.A. Brewing Co",
    "brewery_type": "brewpub",
    "street": "2525 Grave Creek Rd",
    "city": "Eureka",
    "state": "Montana",
    "postal_code": "59917-9609",
    "website_url": "http://www.habrewing.com",
    "phone": "4068893950",
    "created_at": "2018-07-24 01:33:42.66194",
    "updated_at": "2018-08-11 21:38:11.846465",
    "country": "United States",
    "longitude": "",
    "latitude": ""
  },
  {
    "id": "4139",
    "name": "Kalispell Brewing Co",
    "brewery_type": "micro",
    "street": "412 Main St",
    "city": "Kalispell",
    "state": "Montana",
    "postal_code": "59901-4849",
    "website_url": "http://www.kalispellbrewing.com",
    "phone": "4067562739",
    "created_at": "2018-07-24 01:33:42.752143",
    "updated_at": "2018-08-11 21:38:12.10548",
    "country": "United States",
    "longitude": "",
    "latitude": ""
  },
  {
    "id": "4140",
    "name": "Katabatic Brewing Co",
    "brewery_type": "micro",
    "street": "117 W Park St",
    "city": "Livingston",
    "state": "Montana",
    "postal_code": "59047-2626",
    "website_url": "http://www.katabaticbrewing.com",
    "phone": "4063332855",
    "created_at": "2018-07-24 01:33:42.764183",
    "updated_at": "2018-08-11 21:38:12.1504",
    "country": "United States",
    "longitude": "",
    "latitude": ""
  },
  {
    "id": "4141",
    "name": "Kettle House Brewing Co.",
    "brewery_type": "regional",
    "street": "605 Coldsmoke Ave",
    "city": "Bonner",
    "state": "Montana",
    "postal_code": "59823-8504",
    "website_url": "http://www.kettlehouse.com",
    "phone": "4067281660",
    "created_at": "2018-07-24 01:33:42.776615",
    "updated_at": "2018-08-11 21:38:12.197353",
    "country": "United States",
    "longitude": "",
    "latitude": ""
  },
  {
    "id": "4142",
    "name": "Kettlehouse Brewing Co - Bonner Brewery",
    "brewery_type": "micro",
    "street": "605 Coldsmoke Ave",
    "city": "Bonner",
    "state": "Montana",
    "postal_code": "59823-8504",
    "website_url": "",
    "phone": "4067281660",
    "created_at": "2018-07-24 01:33:42.790135",
    "updated_at": "2018-08-11 21:38:12.231359",
    "country": "United States",
    "longitude": "",
    "latitude": ""
  },
  {
    "id": "4144",
    "name": "Lewis & Clark Brewing Co",
    "brewery_type": "micro",
    "street": "1517 Dodge Ave",
    "city": "Helena",
    "state": "Montana",
    "postal_code": "59601-2970",
    "website_url": "http://www.lewisandclarkbrewing.com",
    "phone": "4064425960",
    "created_at": "2018-07-24 01:33:42.81511",
    "updated_at": "2018-08-11 21:38:12.324878",
    "country": "United States",
    "longitude": "",
    "latitude": ""
  },
  {
    "id": "4145",
    "name": "Lewistown Brewing Co",
    "brewery_type": "planning",
    "street": "",
    "city": "Lewistown",
    "state": "Montana",
    "postal_code": "59457-8659",
    "website_url": "",
    "phone": "4063500170",
    "created_at": "2018-07-24 01:33:42.827679",
    "updated_at": "2018-08-11 21:38:12.378524",
    "country": "United States",
    "longitude": "",
    "latitude": ""
  },
  {
    "id": "4146",
    "name": "Lolo Peak Brewing Company",
    "brewery_type": "micro",
    "street": "6201 Brewery Way",
    "city": "Lolo",
    "state": "Montana",
    "postal_code": "59847-9375",
    "website_url": "http://www.lolopeakbrewery.com",
    "phone": "4064936231",
    "created_at": "2018-07-24 01:33:42.840039",
    "updated_at": "2018-08-11 21:38:12.430347",
    "country": "United States",
    "longitude": "",
    "latitude": ""
  },
  {
    "id": "4154",
    "name": "Montana Brewing Co",
    "brewery_type": "brewpub",
    "street": "113 N Broadway",
    "city": "Billings",
    "state": "Montana",
    "postal_code": "59101-2043",
    "website_url": "http://www.montanabrewingcompany.com",
    "phone": "4062529200",
    "created_at": "2018-07-24 01:33:42.940394",
    "updated_at": "2018-08-11 21:38:12.775027",
    "country": "United States",
    "longitude": "",
    "latitude": ""
  },
  {
    "id": "4155",
    "name": "Montucky Cold Snacks",
    "brewery_type": "contract",
    "street": "123 W Lewis St",
    "city": "Livingston",
    "state": "Montana",
    "postal_code": "59047-3010",
    "website_url": "http://www.montuckycoldsnacks.com",
    "phone": "4068718886",
    "created_at": "2018-07-24 01:33:42.953785",
    "updated_at": "2018-08-11 21:38:12.805636",
    "country": "United States",
    "longitude": "",
    "latitude": ""
  },
  {
    "id": "4158",
    "name": "Neptunes Brewery, LLC",
    "brewery_type": "micro",
    "street": "119 N L St",
    "city": "Livingston",
    "state": "Montana",
    "postal_code": "59047-2819",
    "website_url": "http://www.neptunesbrewery.com",
    "phone": "4062227837",
    "created_at": "2018-07-24 01:33:42.994736",
    "updated_at": "2018-08-11 21:38:12.962527",
    "country": "United States",
    "longitude": "",
    "latitude": ""
  },
  {
    "id": "4159",
    "name": "OddPitch Brewing Co.",
    "brewery_type": "planning",
    "street": "",
    "city": "Missoula",
    "state": "Montana",
    "postal_code": "59801-4473",
    "website_url": "http://www.oddpitch.com",
    "phone": "4063605363",
    "created_at": "2018-07-24 01:33:43.009173",
    "updated_at": "2018-08-11 21:38:13.030522",
    "country": "United States",
    "longitude": "",
    "latitude": ""
  },
  {
    "id": "4167",
    "name": "Sacred Waters Brewing Company",
    "brewery_type": "planning",
    "street": "",
    "city": "Kalispell",
    "state": "Montana",
    "postal_code": "59901-6641",
    "website_url": "http://www.sacredwatersbrewing.com",
    "phone": "4062530746",
    "created_at": "2018-07-24 01:33:43.138337",
    "updated_at": "2018-08-11 21:38:13.459158",
    "country": "United States",
    "longitude": "",
    "latitude": ""
  },
  {
    "id": "4169",
    "name": "Snow Hop Brewery",
    "brewery_type": "micro",
    "street": "685 Barney St Ste A",
    "city": "Helena",
    "state": "Montana",
    "postal_code": "59602",
    "website_url": "",
    "phone": "4064225026",
    "created_at": "2018-07-24 01:33:43.165287",
    "updated_at": "2018-08-11 21:38:13.550629",
    "country": "United States",
    "longitude": "",
    "latitude": ""
  },
  {
    "id": "4172",
    "name": "Ten Mile Creek Brewery",
    "brewery_type": "micro",
    "street": "48 N Last Chance Gulch",
    "city": "Helena",
    "state": "Montana",
    "postal_code": "59601-4122",
    "website_url": "http://www.tenmilecreekbrewing.com",
    "phone": "4065021382",
    "created_at": "2018-07-24 01:33:43.205343",
    "updated_at": "2018-08-11 21:38:13.7268",
    "country": "United States",
    "longitude": "",
    "latitude": ""
  },
  {
    "id": "4173",
    "name": "The Bunkhouse Brewery",
    "brewery_type": "micro",
    "street": "1216 W Lincoln St Ste A",
    "city": "Bozeman",
    "state": "Montana",
    "postal_code": "59715-5417",
    "website_url": "http://www.bunkhousebrewery.com",
    "phone": "4065772074",
    "created_at": "2018-07-24 01:33:43.217613",
    "updated_at": "2018-08-11 21:38:13.768182",
    "country": "United States",
    "longitude": "",
    "latitude": ""
  },
  {
    "id": "4178",
    "name": "Westslope Brewing, LLC",
    "brewery_type": "planning",
    "street": "",
    "city": "Lolo",
    "state": "Montana",
    "postal_code": "59847-9757",
    "website_url": "http://www.westslopebrewing.com",
    "phone": "4065316959",
    "created_at": "2018-07-24 01:33:43.279109",
    "updated_at": "2018-08-11 21:38:14.024314",
    "country": "United States",
    "longitude": "",
    "latitude": ""
  },
  {
    "id": "4134",
    "name": "High Plains Brewing",
    "brewery_type": "micro",
    "street": "611 E Main St",
    "city": "Laurel",
    "state": "Montana",
    "postal_code": "59044-3124",
    "website_url": "",
    "phone": "4066334594",
    "created_at": "2018-07-24 01:33:42.688734",
    "updated_at": "2018-08-24 00:47:12.798203",
    "country": "United States",
    "longitude": "-108.764098952111",
    "latitude": "45.6710214990329"
  },
  {
    "id": "4135",
    "name": "Higherground Brewing Co",
    "brewery_type": "brewpub",
    "street": "518 N 1st St",
    "city": "Hamilton",
    "state": "Montana",
    "postal_code": "59840-2130",
    "website_url": "http://www.highergroundbrewing.com",
    "phone": "4063755204",
    "created_at": "2018-07-24 01:33:42.701096",
    "updated_at": "2018-08-24 00:47:13.294013",
    "country": "United States",
    "longitude": "-114.156081666667",
    "latitude": "46.2516766"
  },
  {
    "id": "4137",
    "name": "Jeremiah Johnson Brewing Company",
    "brewery_type": "brewpub",
    "street": "215 3rd St NW",
    "city": "Great Falls",
    "state": "Montana",
    "postal_code": "59404-4103",
    "website_url": "http://www.jeremiahjohnsonbrewing.com",
    "phone": "4067273947",
    "created_at": "2018-07-24 01:33:42.726994",
    "updated_at": "2018-08-24 00:47:14.387897",
    "country": "United States",
    "longitude": "-111.302394703835",
    "latitude": "47.5077802895334"
  },
  {
    "id": "4138",
    "name": "Julius Lehrkind Brewing",
    "brewery_type": "micro",
    "street": "1717 N Rouse Ave",
    "city": "Bozeman",
    "state": "Montana",
    "postal_code": "59715-2426",
    "website_url": "http://www.juliusbrewing.com",
    "phone": "4065510199",
    "created_at": "2018-07-24 01:33:42.739135",
    "updated_at": "2018-08-24 00:47:14.851792",
    "country": "United States",
    "longitude": "-111.031558026981",
    "latitude": "45.696333352463"
  },
  {
    "id": "4143",
    "name": "Kettlehouse Brewing Co - Southside",
    "brewery_type": "micro",
    "street": "602 Myrtle St",
    "city": "Missoula",
    "state": "Montana",
    "postal_code": "59801-2704",
    "website_url": "http://www.kettlehouse.com",
    "phone": "4067281660",
    "created_at": "2018-07-24 01:33:42.802879",
    "updated_at": "2018-08-24 00:47:17.074253",
    "country": "United States",
    "longitude": "-113.9987621",
    "latitude": "46.8655748"
  },
  {
    "id": "4147",
    "name": "Lone Peak Brewery",
    "brewery_type": "brewpub",
    "street": "48 Market Pl",
    "city": "Big Sky",
    "state": "Montana",
    "postal_code": "59716",
    "website_url": "http://www.lonepeakbrewery.com",
    "phone": "4069953939",
    "created_at": "2018-07-24 01:33:42.852198",
    "updated_at": "2018-08-24 00:47:18.36471",
    "country": "United States",
    "longitude": "-111.291285374965",
    "latitude": "45.2671806"
  },
  {
    "id": "4151",
    "name": "Mighty Mo Brew Co",
    "brewery_type": "brewpub",
    "street": "412 Central Ave",
    "city": "Great Falls",
    "state": "Montana",
    "postal_code": "59401-3116",
    "website_url": "http://www.mightymobrewing.com",
    "phone": "4069520342",
    "created_at": "2018-07-24 01:33:42.901734",
    "updated_at": "2018-08-24 00:47:20.127293",
    "country": "United States",
    "longitude": "-111.300448841961",
    "latitude": "47.5051830677645"
  },
  {
    "id": "4152",
    "name": "Missoula Brewing Company",
    "brewery_type": "brewpub",
    "street": "200 International Dr",
    "city": "Missoula",
    "state": "Montana",
    "postal_code": "59808-1584",
    "website_url": "http://www.highlanderbeer.com",
    "phone": "4065498193",
    "created_at": "2018-07-24 01:33:42.915037",
    "updated_at": "2018-08-24 00:47:20.595996",
    "country": "United States",
    "longitude": "-114.043307798163",
    "latitude": "46.9045483527514"
  },
  {
    "id": "4153",
    "name": "Missouri Breaks Brewing",
    "brewery_type": "micro",
    "street": "326 Main St",
    "city": "Wolf Point",
    "state": "Montana",
    "postal_code": "59201-0654",
    "website_url": "http://www.missouribreaksbrewing.com",
    "phone": "4066531467",
    "created_at": "2018-07-24 01:33:42.92746",
    "updated_at": "2018-08-24 00:47:21.027644",
    "country": "United States",
    "longitude": "-105.642174830493",
    "latitude": "48.0901300353139"
  },
  {
    "id": "4156",
    "name": "Mountains Walking",
    "brewery_type": "brewpub",
    "street": "422 N Plum Ave",
    "city": "Bozeman",
    "state": "Montana",
    "postal_code": "59718",
    "website_url": "http://www.mountainswalking.com",
    "phone": "4062193480",
    "created_at": "2018-07-24 01:33:42.969341",
    "updated_at": "2018-08-24 00:47:21.91535",
    "country": "United States",
    "longitude": "-111.025560977778",
    "latitude": "45.6841878888889"
  },
  {
    "id": "4157",
    "name": "Muddy Creek Brewery",
    "brewery_type": "micro",
    "street": "2 E Galena St",
    "city": "Butte",
    "state": "Montana",
    "postal_code": "59701-1704",
    "website_url": "http://muddycreekbrewery.com",
    "phone": "4062993645",
    "created_at": "2018-07-24 01:33:42.982382",
    "updated_at": "2018-08-24 00:47:22.371869",
    "country": "United States",
    "longitude": "-112.535291",
    "latitude": "46.01201"
  },
  {
    "id": "4160",
    "name": "Old Station Brewing Co",
    "brewery_type": "micro",
    "street": "140 1st St",
    "city": "Havre",
    "state": "Montana",
    "postal_code": "59501-3502",
    "website_url": "",
    "phone": "4062650980",
    "created_at": "2018-07-24 01:33:43.024135",
    "updated_at": "2018-08-24 00:47:23.325149",
    "country": "United States",
    "longitude": "-109.680359338382",
    "latitude": "48.5536751239243"
  },
  {
    "id": "4161",
    "name": "Outlaw Brewing Co",
    "brewery_type": "micro",
    "street": "2876 N 27th Ave",
    "city": "Bozeman",
    "state": "Montana",
    "postal_code": "59718-7168",
    "website_url": "http://www.outlaw-brewing.com",
    "phone": "4063889182",
    "created_at": "2018-07-24 01:33:43.044285",
    "updated_at": "2018-08-24 00:47:23.77383",
    "country": "United States",
    "longitude": "-111.07251894026",
    "latitude": "45.70878295"
  },
  {
    "id": "4163",
    "name": "Philipsburg Brewing Co",
    "brewery_type": "micro",
    "street": "106 Brewery Road",
    "city": "Philipsburg",
    "state": "Montana",
    "postal_code": "59858",
    "website_url": "",
    "phone": "4068592739",
    "created_at": "2018-07-24 01:33:43.084763",
    "updated_at": "2018-08-24 00:47:24.199147",
    "country": "United States",
    "longitude": "-113.2871976",
    "latitude": "46.3299328"
  },
  {
    "id": "4164",
    "name": "Quarry Brewing",
    "brewery_type": "micro",
    "street": "124 W Broadway St",
    "city": "Butte",
    "state": "Montana",
    "postal_code": "59701-9224",
    "website_url": "http://www.wedigbeer.com",
    "phone": "4067230245",
    "created_at": "2018-07-24 01:33:43.097825",
    "updated_at": "2018-08-24 00:47:24.696604",
    "country": "United States",
    "longitude": "-112.539000932836",
    "latitude": "46.0133546634842"
  },
  {
    "id": "4166",
    "name": "Ruby Valley Brew",
    "brewery_type": "micro",
    "street": "111 S Main St",
    "city": "Sheridan",
    "state": "Montana",
    "postal_code": "59749-7742",
    "website_url": "http://www.rubyvalleybrew.com",
    "phone": "4068425977",
    "created_at": "2018-07-24 01:33:43.126061",
    "updated_at": "2018-08-24 00:47:25.606088",
    "country": "United States",
    "longitude": "-104.559298042118",
    "latitude": "48.7736375285348"
  },
  {
    "id": "4168",
    "name": "Smelter City Brewing",
    "brewery_type": "micro",
    "street": "101 E Commercial Ave",
    "city": "Anaconda",
    "state": "Montana",
    "postal_code": "59711-2289",
    "website_url": "http://www.smeltercitybrewing.com",
    "phone": "4065630344",
    "created_at": "2018-07-24 01:33:43.152951",
    "updated_at": "2018-08-24 00:47:26.044816",
    "country": "United States",
    "longitude": "-112.95216",
    "latitude": "46.130107"
  },
  {
    "id": "4170",
    "name": "SunRift Beer Company",
    "brewery_type": "micro",
    "street": "55 1st Ave WN",
    "city": "Kalispell",
    "state": "Montana",
    "postal_code": "59901",
    "website_url": "http://www.sunriftbeer.com",
    "phone": "4068712567",
    "created_at": "2018-07-24 01:33:43.179096",
    "updated_at": "2018-08-24 00:47:26.942552",
    "country": "United States",
    "longitude": "-114.3181197",
    "latitude": "48.2059559"
  },
  {
    "id": "4171",
    "name": "Tamarack Brewing Co",
    "brewery_type": "micro",
    "street": "105 Blacktail Rd # 2",
    "city": "Lakeside",
    "state": "Montana",
    "postal_code": "59922-9628",
    "website_url": "http://www.tamarackbrewing.com",
    "phone": "4068440244",
    "created_at": "2018-07-24 01:33:43.192459",
    "updated_at": "2018-08-24 00:47:27.380916",
    "country": "United States",
    "longitude": "-114.2253672",
    "latitude": "48.0161369"
  },
  {
    "id": "4174",
    "name": "Thirsty Street Brewing",
    "brewery_type": "brewpub",
    "street": "3008 1st Ave N",
    "city": "Billings",
    "state": "Montana",
    "postal_code": "59101-2134",
    "website_url": "http://www.thirstystreet.com",
    "phone": "4069693200",
    "created_at": "2018-07-24 01:33:43.22974",
    "updated_at": "2018-08-24 00:47:28.74616",
    "country": "United States",
    "longitude": "-108.508367554058",
    "latitude": "45.7807684579042"
  },
  {
    "id": "4175",
    "name": "Tilt Wurks Brewhouse & Casino",
    "brewery_type": "micro",
    "street": "420 Pacific Ave",
    "city": "Miles City",
    "state": "Montana",
    "postal_code": "59301-4000",
    "website_url": "http://www.tiltwurks.com",
    "phone": "4068748458",
    "created_at": "2018-07-24 01:33:43.242162",
    "updated_at": "2018-08-24 00:47:29.178011",
    "country": "United States",
    "longitude": "-105.850804936162",
    "latitude": "46.4020664093132"
  },
  {
    "id": "4176",
    "name": "Triple Dog Brewing Company",
    "brewery_type": "micro",
    "street": "675 1st St W",
    "city": "Havre",
    "state": "Montana",
    "postal_code": "59501-3415",
    "website_url": "",
    "phone": "4068798103",
    "created_at": "2018-07-24 01:33:43.254642",
    "updated_at": "2018-08-24 00:47:29.601925",
    "country": "United States",
    "longitude": "-109.694577034247",
    "latitude": "48.5550030273973"
  },
  {
    "id": "4177",
    "name": "Uberbrew",
    "brewery_type": "brewpub",
    "street": "2305 Montana Ave",
    "city": "Billings",
    "state": "Montana",
    "postal_code": "59101-2421",
    "website_url": "http://uberbrewmt.com",
    "phone": "4065346960",
    "created_at": "2018-07-24 01:33:43.26678",
    "updated_at": "2018-08-24 00:47:30.017036",
    "country": "United States",
    "longitude": "-108.499045606394",
    "latitude": "45.7841710578742"
  },
  {
    "id": "4180",
    "name": "Wildwood Brewing Co",
    "brewery_type": "micro",
    "street": "4018 US Highway 93 N",
    "city": "Stevensville",
    "state": "Montana",
    "postal_code": "59870-6443",
    "website_url": "http://www.wildwoodbrewing.com",
    "phone": "4065296919",
    "created_at": "2018-07-24 01:33:43.303415",
    "updated_at": "2018-08-11 21:38:14.141043",
    "country": "United States",
    "longitude": "",
    "latitude": ""
  },
  {
    "id": "4181",
    "name": "Yellowstone Valley Brewing Co.",
    "brewery_type": "micro",
    "street": "2123B 1st Ave N",
    "city": "Billings",
    "state": "Montana",
    "postal_code": "59101-2404",
    "website_url": "http://www.yellowstonevalleybrew.com",
    "phone": "4062450918",
    "created_at": "2018-07-24 01:33:43.316567",
    "updated_at": "2018-08-11 21:38:14.215529",
    "country": "United States",
    "longitude": "",
    "latitude": ""
  },
  {
    "id": "4096",
    "name": "Beaver Creek Brewery",
    "brewery_type": "micro",
    "street": "104 W Oregon Ave",
    "city": "Wibaux",
    "state": "Montana",
    "postal_code": "59353-8001",
    "website_url": "http://www.beavercreekbrewery.com",
    "phone": "4067952337",
    "created_at": "2018-07-24 01:33:42.127434",
    "updated_at": "2018-08-11 21:38:10.406387",
    "country": "United States",
    "longitude": "",
    "latitude": ""
  },
  {
    "id": "4148",
    "name": "Madison River Brewing Co",
    "brewery_type": "micro",
    "street": "20900 Frontage Rd Ste B",
    "city": "Belgrade",
    "state": "Montana",
    "postal_code": "59714-8558",
    "website_url": "http://www.madisonriverbrewing.com",
    "phone": "4063880322",
    "created_at": "2018-07-24 01:33:42.864291",
    "updated_at": "2018-08-11 21:38:12.556389",
    "country": "United States",
    "longitude": "",
    "latitude": ""
  },
  {
    "id": "4162",
    "name": "Philipsburg Brewing Co",
    "brewery_type": "micro",
    "street": "101 W Broadway",
    "city": "Philipsburg",
    "state": "Montana",
    "postal_code": "59858",
    "website_url": "http://www.philipsburgbrewingcompany.com",
    "phone": "4068592739",
    "created_at": "2018-07-24 01:33:43.059752",
    "updated_at": "2018-08-11 21:38:13.170853",
    "country": "United States",
    "longitude": "",
    "latitude": ""
  },
  {
    "id": "4100",
    "name": "Big Sky Brewing Co",
    "brewery_type": "regional",
    "street": "5417 Trumpeter Way",
    "city": "Missoula",
    "state": "Montana",
    "postal_code": "59808-8680",
    "website_url": "http://www.bigskybrew.com",
    "phone": "4065492777",
    "created_at": "2018-07-24 01:33:42.181166",
    "updated_at": "2018-08-24 00:47:00.320641",
    "country": "United States",
    "longitude": "-114.0730248",
    "latitude": "46.9224156"
  },
  {
    "id": "4120",
    "name": "Cut Bank Creek Brewery",
    "brewery_type": "micro",
    "street": "315 E Railroad St",
    "city": "Cut Bank",
    "state": "Montana",
    "postal_code": "59427-3021",
    "website_url": "http://www.cutbankcreekbrewery.com",
    "phone": "4062290298",
    "created_at": "2018-07-24 01:33:42.46969",
    "updated_at": "2018-08-24 00:47:07.202076",
    "country": "United States",
    "longitude": "-112.327076506344",
    "latitude": "48.634430638306"
  },
  {
    "id": "4136",
    "name": "Imagine Nation Brewing",
    "brewery_type": "micro",
    "street": "1151 W Broadway St",
    "city": "Missoula",
    "state": "Montana",
    "postal_code": "59802-3916",
    "website_url": "http://www.imaginenationbrewing.com",
    "phone": "4069261251",
    "created_at": "2018-07-24 01:33:42.713727",
    "updated_at": "2018-08-24 00:47:13.910658",
    "country": "United States",
    "longitude": "-114.0099097",
    "latitude": "46.8766353"
  },
  {
    "id": "4179",
    "name": "White Dog Brewing Company",
    "brewery_type": "micro",
    "street": "121 W Main St",
    "city": "Bozeman",
    "state": "Montana",
    "postal_code": "59715-4644",
    "website_url": "http://www.whitedogbrewing.com",
    "phone": "4065955574",
    "created_at": "2018-07-24 01:33:43.291112",
    "updated_at": "2018-08-24 00:47:30.486971",
    "country": "United States",
    "longitude": "-111.039389424987",
    "latitude": "45.67961135"
  },
  {
    "id": "4088",
    "name": "2 Basset Brewery",
    "brewery_type": "micro",
    "street": "202 E Main St",
    "city": "White Sulphur Springs",
    "state": "Montana",
    "postal_code": "59645-9081",
    "website_url": "http://www.2bassetbrewery.com",
    "phone": "4065472337",
    "created_at": "2018-07-24 01:33:41.996169",
    "updated_at": "2018-08-24 00:46:55.355806",
    "country": "United States",
    "longitude": "-110.900486489644",
    "latitude": "46.5480760866913"
  },
  {
    "id": "4114",
    "name": "Cabinet Mountain Brewing Co",
    "brewery_type": "brewpub",
    "street": "206 Mineral Ave",
    "city": "Libby",
    "state": "Montana",
    "postal_code": "59923-1952",
    "website_url": "http://www.cabinetmountainbrewing.com",
    "phone": "4062932739",
    "created_at": "2018-07-24 01:33:42.374974",
    "updated_at": "2018-08-24 00:47:04.988553",
    "country": "United States",
    "longitude": "-115.5506412",
    "latitude": "48.3936508"
  },
  {
    "id": "4133",
    "name": "Harvest Moon Brewing",
    "brewery_type": "micro",
    "street": "7 5th St S",
    "city": "Belt",
    "state": "Montana",
    "postal_code": "59412-0510",
    "website_url": "http://www.harvestmoonbrew.com",
    "phone": "4062773188",
    "created_at": "2018-07-24 01:33:42.675374",
    "updated_at": "2018-08-24 00:47:12.187893",
    "country": "United States",
    "longitude": "-110.92985271363",
    "latitude": "47.3822191883646"
  },
  {
    "id": "4150",
    "name": "Meadowlark Brewing",
    "brewery_type": "brewpub",
    "street": "117 S Central Ave",
    "city": "Sidney",
    "state": "Montana",
    "postal_code": "59270-4123",
    "website_url": "http://www.meadowlarkbrewing.com",
    "phone": "",
    "created_at": "2018-07-24 01:33:42.889365",
    "updated_at": "2018-08-24 00:47:19.69559",
    "country": "United States",
    "longitude": "-104.1602945",
    "latitude": "47.7105211"
  },
  {
    "id": "4165",
    "name": "Red Lodge Ales Brewing Co",
    "brewery_type": "micro",
    "street": "1445 N Broadway Ave",
    "city": "Red Lodge",
    "state": "Montana",
    "postal_code": "59068-9383",
    "website_url": "http://www.redlodgeales.net",
    "phone": "4064464607",
    "created_at": "2018-07-24 01:33:43.113752",
    "updated_at": "2018-08-24 00:47:25.147288",
    "country": "United States",
    "longitude": "-109.24653926506",
    "latitude": "45.1972705301205"
  },
  {
    "id": "4149",
    "name": "MAP Brewing Company",
    "brewery_type": "brewpub",
    "street": "510 Manley Rd",
    "city": "Bozeman",
    "state": "Montana",
    "postal_code": "59715-8784",
    "website_url": "http://www.mapbrewing.com",
    "phone": "4065874070",
    "created_at": "2018-07-24 01:33:42.876968",
    "updated_at": "2018-08-24 00:47:19.247974",
    "country": "United States",
    "longitude": "-111.0400807",
    "latitude": "45.7033199"
  },
  {
    "id": "4089",
    "name": "380 Brewing Company",
    "brewery_type": "planning",
    "street": "",
    "city": "Clancy",
    "state": "Montana",
    "postal_code": "59634",
    "website_url": "",
    "phone": "2065796509",
    "created_at": "2018-07-24 01:33:42.015609",
    "updated_at": "2018-08-11 21:38:10.167568",
    "country": "United States",
    "longitude": "",
    "latitude": ""
  },
  {
    "id": "4090",
    "name": "406 Brewing Company",
    "brewery_type": "micro",
    "street": "101 E Oak St,Â Ste D",
    "city": "Bozeman",
    "state": "Montana",
    "postal_code": "59715-2967",
    "website_url": "http://www.406brewingcompany.com",
    "phone": "4065853745",
    "created_at": "2018-07-24 01:33:42.028946",
    "updated_at": "2018-08-11 21:38:10.197919",
    "country": "United States",
    "longitude": "",
    "latitude": ""
  },
  {
    "id": "4092",
    "name": "Backslope Brewing",
    "brewery_type": "brewpub",
    "street": "1107 9th St W (Highway 2)",
    "city": "Columbia Falls",
    "state": "Montana",
    "postal_code": "59912",
    "website_url": "http://www.backslopebrewing.com",
    "phone": "4062242510",
    "created_at": "2018-07-24 01:33:42.057302",
    "updated_at": "2018-08-11 21:38:10.264342",
    "country": "United States",
    "longitude": "",
    "latitude": ""
  },
  {
    "id": "4093",
    "name": "Bandit Brewing Co",
    "brewery_type": "micro",
    "street": "610 N 1st St Ste 5-228",
    "city": "Hamilton",
    "state": "Montana",
    "postal_code": "59840-2149",
    "website_url": "http://www.banditbeer.com",
    "phone": "4066466003",
    "created_at": "2018-07-24 01:33:42.077407",
    "updated_at": "2018-08-11 21:38:10.298097",
    "country": "United States",
    "longitude": "",
    "latitude": ""
  },
  {
    "id": "4099",
    "name": "Bias Brewing",
    "brewery_type": "micro",
    "street": "409 1st Ave E Ste B",
    "city": "Kalispell",
    "state": "Montana",
    "postal_code": "59901",
    "website_url": "http://www.biasbrewing.com",
    "phone": "4067303020",
    "created_at": "2018-07-24 01:33:42.169015",
    "updated_at": "2018-08-11 21:38:10.507663",
    "country": "United States",
    "longitude": "",
    "latitude": ""
  },
  {
    "id": "4105",
    "name": "BLUE RIDGE BREWING",
    "brewery_type": "planning",
    "street": "",
    "city": "Malta",
    "state": "Montana",
    "postal_code": "59538",
    "website_url": "",
    "phone": "4066542855",
    "created_at": "2018-07-24 01:33:42.247577",
    "updated_at": "2018-08-11 21:38:10.711018",
    "country": "United States",
    "longitude": "",
    "latitude": ""
  },
  {
    "id": "4108",
    "name": "Brewery in Planning - Helena",
    "brewery_type": "planning",
    "street": "",
    "city": "Helena",
    "state": "Montana",
    "postal_code": "59602-0552",
    "website_url": "http://brewingeducation.com",
    "phone": "4065584619",
    "created_at": "2018-07-24 01:33:42.295098",
    "updated_at": "2018-08-11 21:38:10.817043",
    "country": "United States",
    "longitude": "",
    "latitude": ""
  },
  {
    "id": "4109",
    "name": "Brewing Academy Of Montana At FVCC",
    "brewery_type": "planning",
    "street": "",
    "city": "Kalispell",
    "state": "Montana",
    "postal_code": "59901",
    "website_url": "http://www.fvcc.edu",
    "phone": "4067564359",
    "created_at": "2018-07-24 01:33:42.308634",
    "updated_at": "2018-08-11 21:38:10.857259",
    "country": "United States",
    "longitude": "",
    "latitude": ""
  },
  {
    "id": "4117",
    "name": "Conflux Brewing",
    "brewery_type": "planning",
    "street": "",
    "city": "Missoula",
    "state": "Montana",
    "postal_code": "59802-4418",
    "website_url": "",
    "phone": "",
    "created_at": "2018-07-24 01:33:42.423725",
    "updated_at": "2018-08-11 21:38:11.205288",
    "country": "United States",
    "longitude": "",
    "latitude": ""
  },
  {
    "id": "4118",
    "name": "Crooked Furrow Brewing",
    "brewery_type": "micro",
    "street": "2801 N Roberts Ave",
    "city": "Helena",
    "state": "Montana",
    "postal_code": "59601",
    "website_url": "http://www.crookedfurrowbrewing.com",
    "phone": "4064225975",
    "created_at": "2018-07-24 01:33:42.444982",
    "updated_at": "2018-08-11 21:38:11.242257",
    "country": "United States",
    "longitude": "",
    "latitude": ""
  },
  {
    "id": "4121",
    "name": "Dog Tag Brewing",
    "brewery_type": "contract",
    "street": "2042 Stadium Dr Ste 2",
    "city": "Bozeman",
    "state": "Montana",
    "postal_code": "59715-0710",
    "website_url": "http://www.dogtagbrewing.org",
    "phone": "",
    "created_at": "2018-07-24 01:33:42.481971",
    "updated_at": "2018-08-11 21:38:11.344419",
    "country": "United States",
    "longitude": "",
    "latitude": ""
  },
  {
    "id": "4124",
    "name": "Flathead Lake Brewing Co",
    "brewery_type": "micro",
    "street": "116 Holt Dr Ste B",
    "city": "Bigfork",
    "state": "Montana",
    "postal_code": "59911-3707",
    "website_url": "http://www.flatheadlakebrewing.com",
    "phone": "4068370085",
    "created_at": "2018-07-24 01:33:42.539293",
    "updated_at": "2018-08-11 21:38:11.482478",
    "country": "United States",
    "longitude": "",
    "latitude": ""
  },
  {
    "id": "4125",
    "name": "Flathead Lake Brewing Co - Production Only",
    "brewery_type": "micro",
    "street": "",
    "city": "Bigfork",
    "state": "Montana",
    "postal_code": "59911-8484",
    "website_url": "http://www.flatheadlakebrewing.com",
    "phone": "4068370085",
    "created_at": "2018-07-24 01:33:42.560154",
    "updated_at": "2018-08-11 21:38:11.544098",
    "country": "United States",
    "longitude": "",
    "latitude": ""
  },
  {
    "id": "4127",
    "name": "Game Bag Brewing",
    "brewery_type": "planning",
    "street": "",
    "city": "Belgrade",
    "state": "Montana",
    "postal_code": "59714-8809",
    "website_url": "",
    "phone": "5092208584",
    "created_at": "2018-07-24 01:33:42.58917",
    "updated_at": "2018-08-11 21:38:11.629763",
    "country": "United States",
    "longitude": "",
    "latitude": ""
  },
  {
    "id": "4128",
    "name": "GILD BREWING",
    "brewery_type": "planning",
    "street": "",
    "city": "Missoula",
    "state": "Montana",
    "postal_code": "59801-2734",
    "website_url": "",
    "phone": "",
    "created_at": "2018-07-24 01:33:42.600992",
    "updated_at": "2018-08-11 21:38:11.66805",
    "country": "United States",
    "longitude": "",
    "latitude": ""
  },
  {
    "id": "4091",
    "name": "Angry Hank's Microbrewery",
    "brewery_type": "micro",
    "street": "20 N 30th St",
    "city": "Billings",
    "state": "Montana",
    "postal_code": "59101-2140",
    "website_url": "",
    "phone": "4062523370",
    "created_at": "2018-07-24 01:33:42.043111",
    "updated_at": "2018-08-24 00:46:56.319957",
    "country": "United States",
    "longitude": "-108.507602476104",
    "latitude": "45.78022172594"
  },
  {
    "id": "4094",
    "name": "Bar 3 BBQ and Brewing",
    "brewery_type": "brewpub",
    "street": "100 S Broadway",
    "city": "Belgrade",
    "state": "Montana",
    "postal_code": "59714-3909",
    "website_url": "http://www.bar3bbq.com",
    "phone": "4063889182",
    "created_at": "2018-07-24 01:33:42.091491",
    "updated_at": "2018-08-24 00:46:57.704054",
    "country": "United States",
    "longitude": "-111.1770268",
    "latitude": "45.7751537"
  },
  {
    "id": "4095",
    "name": "Bayern Brewing Inc.",
    "brewery_type": "micro",
    "street": "1507 Montana St",
    "city": "Missoula",
    "state": "Montana",
    "postal_code": "59801-1409",
    "website_url": "http://www.bayernbrewery.com",
    "phone": "4067211482",
    "created_at": "2018-07-24 01:33:42.114747",
    "updated_at": "2018-08-24 00:46:58.12443",
    "country": "United States",
    "longitude": "-114.0202088",
    "latitude": "46.8725952"
  },
  {
    "id": "4097",
    "name": "Beaverhead Brewing Co",
    "brewery_type": "micro",
    "street": "218 S Montana St",
    "city": "Dillon",
    "state": "Montana",
    "postal_code": "59725-2438",
    "website_url": "http://www.beaverheadbeer.com",
    "phone": "4069880011",
    "created_at": "2018-07-24 01:33:42.143995",
    "updated_at": "2018-08-24 00:46:58.999422",
    "country": "United States",
    "longitude": "-112.639687521806",
    "latitude": "45.215753506488"
  },
  {
    "id": "4098",
    "name": "Beehive Basin Brewery",
    "brewery_type": "micro",
    "street": "245 Town Center Ave",
    "city": "Big Sky",
    "state": "Montana",
    "postal_code": "59716",
    "website_url": "http://www.beehivebasinbrewery.com",
    "phone": "4069957444",
    "created_at": "2018-07-24 01:33:42.156603",
    "updated_at": "2018-08-24 00:46:59.450897",
    "country": "United States",
    "longitude": "-111.3037009",
    "latitude": "45.259632"
  },
  {
    "id": "4101",
    "name": "Bitter Root Brewing Co",
    "brewery_type": "micro",
    "street": "101 Marcus St",
    "city": "Hamilton",
    "state": "Montana",
    "postal_code": "59840-2541",
    "website_url": "http://www.bitterrootbrewing.com",
    "phone": "4063637468",
    "created_at": "2018-07-24 01:33:42.193616",
    "updated_at": "2018-08-24 00:47:00.86465",
    "country": "United States",
    "longitude": "-114.155194559549",
    "latitude": "46.2473377752819"
  },
  {
    "id": "4102",
    "name": "Black Eagle Brewery",
    "brewery_type": "micro",
    "street": "1600 25th Ave NE",
    "city": "Black Eagle",
    "state": "Montana",
    "postal_code": "59414-1070",
    "website_url": "http://www.pitstopblackeagle.com",
    "phone": "4068681866",
    "created_at": "2018-07-24 01:33:42.210305",
    "updated_at": "2018-08-24 00:47:01.325876",
    "country": "United States",
    "longitude": "-111.279526",
    "latitude": "47.528243"
  },
  {
    "id": "4103",
    "name": "Blackfoot River Brewing Co",
    "brewery_type": "micro",
    "street": "66 S Park Ave",
    "city": "Helena",
    "state": "Montana",
    "postal_code": "59601-6271",
    "website_url": "http://www.blackfootriverbrewing.com",
    "phone": "4064493005",
    "created_at": "2018-07-24 01:33:42.222844",
    "updated_at": "2018-08-24 00:47:01.834067",
    "country": "United States",
    "longitude": "-112.0417121",
    "latitude": "46.5862933"
  },
  {
    "id": "4104",
    "name": "Blacksmith Brewing Co",
    "brewery_type": "micro",
    "street": "114 Main St",
    "city": "Stevensville",
    "state": "Montana",
    "postal_code": "59870-2109",
    "website_url": "http://www.blacksmithbrewing.com",
    "phone": "4067770680",
    "created_at": "2018-07-24 01:33:42.235424",
    "updated_at": "2018-08-24 00:47:02.2893",
    "country": "United States",
    "longitude": "-114.092930285714",
    "latitude": "46.5115497142857"
  },
  {
    "id": "4106",
    "name": "Bonsai Brewing Project",
    "brewery_type": "brewpub",
    "street": "549 Wisconsin Ave",
    "city": "Whitefish",
    "state": "Montana",
    "postal_code": "59937-2127",
    "website_url": "http://bonsaibrew.com",
    "phone": "4067301717",
    "created_at": "2018-07-24 01:33:42.262374",
    "updated_at": "2018-08-24 00:47:02.724742",
    "country": "United States",
    "longitude": "-114.3406189",
    "latitude": "48.4214453"
  },
  {
    "id": "4107",
    "name": "Bozeman Brewing Co",
    "brewery_type": "micro",
    "street": "504 N Broadway Ave",
    "city": "Bozeman",
    "state": "Montana",
    "postal_code": "59715-3006",
    "website_url": "http://www.bozemanbrewing.com",
    "phone": "4065859142",
    "created_at": "2018-07-24 01:33:42.281959",
    "updated_at": "2018-08-24 00:47:03.182743",
    "country": "United States",
    "longitude": "-111.0238884",
    "latitude": "45.6845234"
  },
  {
    "id": "4110",
    "name": "Bridger Brewing Company",
    "brewery_type": "brewpub",
    "street": "1609 S 11th Ave",
    "city": "Bozeman",
    "state": "Montana",
    "postal_code": "59715-5466",
    "website_url": "http://www.bridgerbrewing.com",
    "phone": "4065872124",
    "created_at": "2018-07-24 01:33:42.321712",
    "updated_at": "2018-08-24 00:47:03.647536",
    "country": "United States",
    "longitude": "-111.0526959",
    "latitude": "45.6627215"
  },
  {
    "id": "4112",
    "name": "Busted Knuckle Brewery",
    "brewery_type": "micro",
    "street": "303 1st Ave S",
    "city": "Glasgow",
    "state": "Montana",
    "postal_code": "59230-2308",
    "website_url": "",
    "phone": "4062282277",
    "created_at": "2018-07-24 01:33:42.350247",
    "updated_at": "2018-08-24 00:47:04.130079",
    "country": "United States",
    "longitude": "-106.633546376276",
    "latitude": "48.1938471991415"
  },
  {
    "id": "4113",
    "name": "Butte Brewing Co",
    "brewery_type": "micro",
    "street": "465 E Galena St",
    "city": "Butte",
    "state": "Montana",
    "postal_code": "59701-1928",
    "website_url": "http://www.buttebrewing.com",
    "phone": "4062993953",
    "created_at": "2018-07-24 01:33:42.362547",
    "updated_at": "2018-08-24 00:47:04.566757",
    "country": "United States",
    "longitude": "-112.525919731978",
    "latitude": "46.0124680410196"
  },
  {
    "id": "4115",
    "name": "Canyon Creek Brewing",
    "brewery_type": "micro",
    "street": "3060 Gabel Rd",
    "city": "Billings",
    "state": "Montana",
    "postal_code": "59102-7336",
    "website_url": "http://www.canyoncreekbrewing.com",
    "phone": "4066562528",
    "created_at": "2018-07-24 01:33:42.388474",
    "updated_at": "2018-08-24 00:47:05.421559",
    "country": "United States",
    "longitude": "-108.591675204462",
    "latitude": "45.7443650206617"
  },
  {
    "id": "4116",
    "name": "Carters Brewing",
    "brewery_type": "micro",
    "street": "2526 Montana Ave",
    "city": "Billings",
    "state": "Montana",
    "postal_code": "59101-2313",
    "website_url": "http://www.cartersbrewing.com",
    "phone": "4068617712",
    "created_at": "2018-07-24 01:33:42.400621",
    "updated_at": "2018-08-24 00:47:05.853626",
    "country": "United States",
    "longitude": "-108.501653826985",
    "latitude": "45.7829133357354"
  },
  {
    "id": "4119",
    "name": "Cross Country Brewing",
    "brewery_type": "micro",
    "street": "320 E Allard St",
    "city": "Glendive",
    "state": "Montana",
    "postal_code": "59330-2719",
    "website_url": "",
    "phone": "4063772739",
    "created_at": "2018-07-24 01:33:42.457184",
    "updated_at": "2018-08-24 00:47:06.706413",
    "country": "United States",
    "longitude": "-104.70579",
    "latitude": "47.11209"
  },
  {
    "id": "4122",
    "name": "Draught Works Brewing",
    "brewery_type": "micro",
    "street": "915 Toole Ave",
    "city": "Missoula",
    "state": "Montana",
    "postal_code": "59802-2625",
    "website_url": "http://www.draughtworksbrewery.com",
    "phone": "4062412423",
    "created_at": "2018-07-24 01:33:42.507624",
    "updated_at": "2018-08-24 00:47:08.050953",
    "country": "United States",
    "longitude": "-114.0044493",
    "latitude": "46.8782576"
  },
  {
    "id": "4123",
    "name": "Elk Ridge Brewing Company",
    "brewery_type": "micro",
    "street": "320 Main St",
    "city": "Deer Lodge",
    "state": "Montana",
    "postal_code": "59722-1057",
    "website_url": "http://www.elkridgebrewingcompany.com",
    "phone": "4068464650",
    "created_at": "2018-07-24 01:33:42.526556",
    "updated_at": "2018-08-24 00:47:08.51581",
    "country": "United States",
    "longitude": "-112.953554730671",
    "latitude": "46.1280590464857"
  },
  {
    "id": "4126",
    "name": "Gally's Brewing Co",
    "brewery_type": "micro",
    "street": "30 Central Ave S",
    "city": "Harlowton",
    "state": "Montana",
    "postal_code": "59036",
    "website_url": "http://www.gallysbrewing.com",
    "phone": "4066325838",
    "created_at": "2018-07-24 01:33:42.576484",
    "updated_at": "2018-08-24 00:47:09.408652",
    "country": "United States",
    "longitude": "-109.83186554326",
    "latitude": "46.4351371751918"
  },
  {
    "id": "4129",
    "name": "Glacier Brewing Co",
    "brewery_type": "micro",
    "street": "6 10th Ave E",
    "city": "Polson",
    "state": "Montana",
    "postal_code": "59860-3219",
    "website_url": "http://www.glacierbrewing.com",
    "phone": "4068832595",
    "created_at": "2018-07-24 01:33:42.613031",
    "updated_at": "2018-08-24 00:47:09.881749",
    "country": "United States",
    "longitude": "-114.16277352",
    "latitude": "47.6862114"
  },
  {
    "id": "4130",
    "name": "Great Burn Brewing",
    "brewery_type": "micro",
    "street": "2230 McDonald Ave",
    "city": "Missoula",
    "state": "Montana",
    "postal_code": "59801-8802",
    "website_url": "http://www.greatburnbrewing.com",
    "phone": "4063171557",
    "created_at": "2018-07-24 01:33:42.631883",
    "updated_at": "2018-08-24 00:47:10.842586",
    "country": "United States",
    "longitude": "-114.033997040816",
    "latitude": "46.8397919183673"
  },
  {
    "id": "4131",
    "name": "Great Northern Brewing Co",
    "brewery_type": "micro",
    "street": "2 Central Ave",
    "city": "Whitefish",
    "state": "Montana",
    "postal_code": "59937-2547",
    "website_url": "http://www.greatnorthernbrewing.com",
    "phone": "4068631000",
    "created_at": "2018-07-24 01:33:42.649296",
    "updated_at": "2018-08-24 00:47:11.27576",
    "country": "United States",
    "longitude": "-114.3370175",
    "latitude": "48.4123443"
  },
  {
    "id": "4132",
    "name": "H.A. Brewing Co",
    "brewery_type": "brewpub",
    "street": "2525 Grave Creek Rd",
    "city": "Eureka",
    "state": "Montana",
    "postal_code": "59917-9609",
    "website_url": "http://www.habrewing.com",
    "phone": "4068893950",
    "created_at": "2018-07-24 01:33:42.66194",
    "updated_at": "2018-08-11 21:38:11.846465",
    "country": "United States",
    "longitude": "",
    "latitude": ""
  },
  {
    "id": "4139",
    "name": "Kalispell Brewing Co",
    "brewery_type": "micro",
    "street": "412 Main St",
    "city": "Kalispell",
    "state": "Montana",
    "postal_code": "59901-4849",
    "website_url": "http://www.kalispellbrewing.com",
    "phone": "4067562739",
    "created_at": "2018-07-24 01:33:42.752143",
    "updated_at": "2018-08-11 21:38:12.10548",
    "country": "United States",
    "longitude": "",
    "latitude": ""
  },
  {
    "id": "4140",
    "name": "Katabatic Brewing Co",
    "brewery_type": "micro",
    "street": "117 W Park St",
    "city": "Livingston",
    "state": "Montana",
    "postal_code": "59047-2626",
    "website_url": "http://www.katabaticbrewing.com",
    "phone": "4063332855",
    "created_at": "2018-07-24 01:33:42.764183",
    "updated_at": "2018-08-11 21:38:12.1504",
    "country": "United States",
    "longitude": "",
    "latitude": ""
  },
  {
    "id": "4141",
    "name": "Kettle House Brewing Co.",
    "brewery_type": "regional",
    "street": "605 Coldsmoke Ave",
    "city": "Bonner",
    "state": "Montana",
    "postal_code": "59823-8504",
    "website_url": "http://www.kettlehouse.com",
    "phone": "4067281660",
    "created_at": "2018-07-24 01:33:42.776615",
    "updated_at": "2018-08-11 21:38:12.197353",
    "country": "United States",
    "longitude": "",
    "latitude": ""
  },
  {
    "id": "4142",
    "name": "Kettlehouse Brewing Co - Bonner Brewery",
    "brewery_type": "micro",
    "street": "605 Coldsmoke Ave",
    "city": "Bonner",
    "state": "Montana",
    "postal_code": "59823-8504",
    "website_url": "",
    "phone": "4067281660",
    "created_at": "2018-07-24 01:33:42.790135",
    "updated_at": "2018-08-11 21:38:12.231359",
    "country": "United States",
    "longitude": "",
    "latitude": ""
  },
  {
    "id": "4144",
    "name": "Lewis & Clark Brewing Co",
    "brewery_type": "micro",
    "street": "1517 Dodge Ave",
    "city": "Helena",
    "state": "Montana",
    "postal_code": "59601-2970",
    "website_url": "http://www.lewisandclarkbrewing.com",
    "phone": "4064425960",
    "created_at": "2018-07-24 01:33:42.81511",
    "updated_at": "2018-08-11 21:38:12.324878",
    "country": "United States",
    "longitude": "",
    "latitude": ""
  },
  {
    "id": "4145",
    "name": "Lewistown Brewing Co",
    "brewery_type": "planning",
    "street": "",
    "city": "Lewistown",
    "state": "Montana",
    "postal_code": "59457-8659",
    "website_url": "",
    "phone": "4063500170",
    "created_at": "2018-07-24 01:33:42.827679",
    "updated_at": "2018-08-11 21:38:12.378524",
    "country": "United States",
    "longitude": "",
    "latitude": ""
  },
  {
    "id": "4146",
    "name": "Lolo Peak Brewing Company",
    "brewery_type": "micro",
    "street": "6201 Brewery Way",
    "city": "Lolo",
    "state": "Montana",
    "postal_code": "59847-9375",
    "website_url": "http://www.lolopeakbrewery.com",
    "phone": "4064936231",
    "created_at": "2018-07-24 01:33:42.840039",
    "updated_at": "2018-08-11 21:38:12.430347",
    "country": "United States",
    "longitude": "",
    "latitude": ""
  },
  {
    "id": "4154",
    "name": "Montana Brewing Co",
    "brewery_type": "brewpub",
    "street": "113 N Broadway",
    "city": "Billings",
    "state": "Montana",
    "postal_code": "59101-2043",
    "website_url": "http://www.montanabrewingcompany.com",
    "phone": "4062529200",
    "created_at": "2018-07-24 01:33:42.940394",
    "updated_at": "2018-08-11 21:38:12.775027",
    "country": "United States",
    "longitude": "",
    "latitude": ""
  },
  {
    "id": "4155",
    "name": "Montucky Cold Snacks",
    "brewery_type": "contract",
    "street": "123 W Lewis St",
    "city": "Livingston",
    "state": "Montana",
    "postal_code": "59047-3010",
    "website_url": "http://www.montuckycoldsnacks.com",
    "phone": "4068718886",
    "created_at": "2018-07-24 01:33:42.953785",
    "updated_at": "2018-08-11 21:38:12.805636",
    "country": "United States",
    "longitude": "",
    "latitude": ""
  },
  {
    "id": "4158",
    "name": "Neptunes Brewery, LLC",
    "brewery_type": "micro",
    "street": "119 N L St",
    "city": "Livingston",
    "state": "Montana",
    "postal_code": "59047-2819",
    "website_url": "http://www.neptunesbrewery.com",
    "phone": "4062227837",
    "created_at": "2018-07-24 01:33:42.994736",
    "updated_at": "2018-08-11 21:38:12.962527",
    "country": "United States",
    "longitude": "",
    "latitude": ""
  },
  {
    "id": "4159",
    "name": "OddPitch Brewing Co.",
    "brewery_type": "planning",
    "street": "",
    "city": "Missoula",
    "state": "Montana",
    "postal_code": "59801-4473",
    "website_url": "http://www.oddpitch.com",
    "phone": "4063605363",
    "created_at": "2018-07-24 01:33:43.009173",
    "updated_at": "2018-08-11 21:38:13.030522",
    "country": "United States",
    "longitude": "",
    "latitude": ""
  },
  {
    "id": "4167",
    "name": "Sacred Waters Brewing Company",
    "brewery_type": "planning",
    "street": "",
    "city": "Kalispell",
    "state": "Montana",
    "postal_code": "59901-6641",
    "website_url": "http://www.sacredwatersbrewing.com",
    "phone": "4062530746",
    "created_at": "2018-07-24 01:33:43.138337",
    "updated_at": "2018-08-11 21:38:13.459158",
    "country": "United States",
    "longitude": "",
    "latitude": ""
  },
  {
    "id": "4169",
    "name": "Snow Hop Brewery",
    "brewery_type": "micro",
    "street": "685 Barney St Ste A",
    "city": "Helena",
    "state": "Montana",
    "postal_code": "59602",
    "website_url": "",
    "phone": "4064225026",
    "created_at": "2018-07-24 01:33:43.165287",
    "updated_at": "2018-08-11 21:38:13.550629",
    "country": "United States",
    "longitude": "",
    "latitude": ""
  },
  {
    "id": "4172",
    "name": "Ten Mile Creek Brewery",
    "brewery_type": "micro",
    "street": "48 N Last Chance Gulch",
    "city": "Helena",
    "state": "Montana",
    "postal_code": "59601-4122",
    "website_url": "http://www.tenmilecreekbrewing.com",
    "phone": "4065021382",
    "created_at": "2018-07-24 01:33:43.205343",
    "updated_at": "2018-08-11 21:38:13.7268",
    "country": "United States",
    "longitude": "",
    "latitude": ""
  },
  {
    "id": "4173",
    "name": "The Bunkhouse Brewery",
    "brewery_type": "micro",
    "street": "1216 W Lincoln St Ste A",
    "city": "Bozeman",
    "state": "Montana",
    "postal_code": "59715-5417",
    "website_url": "http://www.bunkhousebrewery.com",
    "phone": "4065772074",
    "created_at": "2018-07-24 01:33:43.217613",
    "updated_at": "2018-08-11 21:38:13.768182",
    "country": "United States",
    "longitude": "",
    "latitude": ""
  },
  {
    "id": "4178",
    "name": "Westslope Brewing, LLC",
    "brewery_type": "planning",
    "street": "",
    "city": "Lolo",
    "state": "Montana",
    "postal_code": "59847-9757",
    "website_url": "http://www.westslopebrewing.com",
    "phone": "4065316959",
    "created_at": "2018-07-24 01:33:43.279109",
    "updated_at": "2018-08-11 21:38:14.024314",
    "country": "United States",
    "longitude": "",
    "latitude": ""
  },
  {
    "id": "4134",
    "name": "High Plains Brewing",
    "brewery_type": "micro",
    "street": "611 E Main St",
    "city": "Laurel",
    "state": "Montana",
    "postal_code": "59044-3124",
    "website_url": "",
    "phone": "4066334594",
    "created_at": "2018-07-24 01:33:42.688734",
    "updated_at": "2018-08-24 00:47:12.798203",
    "country": "United States",
    "longitude": "-108.764098952111",
    "latitude": "45.6710214990329"
  },
  {
    "id": "4135",
    "name": "Higherground Brewing Co",
    "brewery_type": "brewpub",
    "street": "518 N 1st St",
    "city": "Hamilton",
    "state": "Montana",
    "postal_code": "59840-2130",
    "website_url": "http://www.highergroundbrewing.com",
    "phone": "4063755204",
    "created_at": "2018-07-24 01:33:42.701096",
    "updated_at": "2018-08-24 00:47:13.294013",
    "country": "United States",
    "longitude": "-114.156081666667",
    "latitude": "46.2516766"
  },
  {
    "id": "4137",
    "name": "Jeremiah Johnson Brewing Company",
    "brewery_type": "brewpub",
    "street": "215 3rd St NW",
    "city": "Great Falls",
    "state": "Montana",
    "postal_code": "59404-4103",
    "website_url": "http://www.jeremiahjohnsonbrewing.com",
    "phone": "4067273947",
    "created_at": "2018-07-24 01:33:42.726994",
    "updated_at": "2018-08-24 00:47:14.387897",
    "country": "United States",
    "longitude": "-111.302394703835",
    "latitude": "47.5077802895334"
  },
  {
    "id": "4138",
    "name": "Julius Lehrkind Brewing",
    "brewery_type": "micro",
    "street": "1717 N Rouse Ave",
    "city": "Bozeman",
    "state": "Montana",
    "postal_code": "59715-2426",
    "website_url": "http://www.juliusbrewing.com",
    "phone": "4065510199",
    "created_at": "2018-07-24 01:33:42.739135",
    "updated_at": "2018-08-24 00:47:14.851792",
    "country": "United States",
    "longitude": "-111.031558026981",
    "latitude": "45.696333352463"
  },
  {
    "id": "4143",
    "name": "Kettlehouse Brewing Co - Southside",
    "brewery_type": "micro",
    "street": "602 Myrtle St",
    "city": "Missoula",
    "state": "Montana",
    "postal_code": "59801-2704",
    "website_url": "http://www.kettlehouse.com",
    "phone": "4067281660",
    "created_at": "2018-07-24 01:33:42.802879",
    "updated_at": "2018-08-24 00:47:17.074253",
    "country": "United States",
    "longitude": "-113.9987621",
    "latitude": "46.8655748"
  },
  {
    "id": "4147",
    "name": "Lone Peak Brewery",
    "brewery_type": "brewpub",
    "street": "48 Market Pl",
    "city": "Big Sky",
    "state": "Montana",
    "postal_code": "59716",
    "website_url": "http://www.lonepeakbrewery.com",
    "phone": "4069953939",
    "created_at": "2018-07-24 01:33:42.852198",
    "updated_at": "2018-08-24 00:47:18.36471",
    "country": "United States",
    "longitude": "-111.291285374965",
    "latitude": "45.2671806"
  },
  {
    "id": "4151",
    "name": "Mighty Mo Brew Co",
    "brewery_type": "brewpub",
    "street": "412 Central Ave",
    "city": "Great Falls",
    "state": "Montana",
    "postal_code": "59401-3116",
    "website_url": "http://www.mightymobrewing.com",
    "phone": "4069520342",
    "created_at": "2018-07-24 01:33:42.901734",
    "updated_at": "2018-08-24 00:47:20.127293",
    "country": "United States",
    "longitude": "-111.300448841961",
    "latitude": "47.5051830677645"
  },
  {
    "id": "4152",
    "name": "Missoula Brewing Company",
    "brewery_type": "brewpub",
    "street": "200 International Dr",
    "city": "Missoula",
    "state": "Montana",
    "postal_code": "59808-1584",
    "website_url": "http://www.highlanderbeer.com",
    "phone": "4065498193",
    "created_at": "2018-07-24 01:33:42.915037",
    "updated_at": "2018-08-24 00:47:20.595996",
    "country": "United States",
    "longitude": "-114.043307798163",
    "latitude": "46.9045483527514"
  },
  {
    "id": "4153",
    "name": "Missouri Breaks Brewing",
    "brewery_type": "micro",
    "street": "326 Main St",
    "city": "Wolf Point",
    "state": "Montana",
    "postal_code": "59201-0654",
    "website_url": "http://www.missouribreaksbrewing.com",
    "phone": "4066531467",
    "created_at": "2018-07-24 01:33:42.92746",
    "updated_at": "2018-08-24 00:47:21.027644",
    "country": "United States",
    "longitude": "-105.642174830493",
    "latitude": "48.0901300353139"
  },
  {
    "id": "4156",
    "name": "Mountains Walking",
    "brewery_type": "brewpub",
    "street": "422 N Plum Ave",
    "city": "Bozeman",
    "state": "Montana",
    "postal_code": "59718",
    "website_url": "http://www.mountainswalking.com",
    "phone": "4062193480",
    "created_at": "2018-07-24 01:33:42.969341",
    "updated_at": "2018-08-24 00:47:21.91535",
    "country": "United States",
    "longitude": "-111.025560977778",
    "latitude": "45.6841878888889"
  },
  {
    "id": "4157",
    "name": "Muddy Creek Brewery",
    "brewery_type": "micro",
    "street": "2 E Galena St",
    "city": "Butte",
    "state": "Montana",
    "postal_code": "59701-1704",
    "website_url": "http://muddycreekbrewery.com",
    "phone": "4062993645",
    "created_at": "2018-07-24 01:33:42.982382",
    "updated_at": "2018-08-24 00:47:22.371869",
    "country": "United States",
    "longitude": "-112.535291",
    "latitude": "46.01201"
  },
  {
    "id": "4160",
    "name": "Old Station Brewing Co",
    "brewery_type": "micro",
    "street": "140 1st St",
    "city": "Havre",
    "state": "Montana",
    "postal_code": "59501-3502",
    "website_url": "",
    "phone": "4062650980",
    "created_at": "2018-07-24 01:33:43.024135",
    "updated_at": "2018-08-24 00:47:23.325149",
    "country": "United States",
    "longitude": "-109.680359338382",
    "latitude": "48.5536751239243"
  },
  {
    "id": "4161",
    "name": "Outlaw Brewing Co",
    "brewery_type": "micro",
    "street": "2876 N 27th Ave",
    "city": "Bozeman",
    "state": "Montana",
    "postal_code": "59718-7168",
    "website_url": "http://www.outlaw-brewing.com",
    "phone": "4063889182",
    "created_at": "2018-07-24 01:33:43.044285",
    "updated_at": "2018-08-24 00:47:23.77383",
    "country": "United States",
    "longitude": "-111.07251894026",
    "latitude": "45.70878295"
  },
  {
    "id": "4163",
    "name": "Philipsburg Brewing Co",
    "brewery_type": "micro",
    "street": "106 Brewery Road",
    "city": "Philipsburg",
    "state": "Montana",
    "postal_code": "59858",
    "website_url": "",
    "phone": "4068592739",
    "created_at": "2018-07-24 01:33:43.084763",
    "updated_at": "2018-08-24 00:47:24.199147",
    "country": "United States",
    "longitude": "-113.2871976",
    "latitude": "46.3299328"
  },
  {
    "id": "4164",
    "name": "Quarry Brewing",
    "brewery_type": "micro",
    "street": "124 W Broadway St",
    "city": "Butte",
    "state": "Montana",
    "postal_code": "59701-9224",
    "website_url": "http://www.wedigbeer.com",
    "phone": "4067230245",
    "created_at": "2018-07-24 01:33:43.097825",
    "updated_at": "2018-08-24 00:47:24.696604",
    "country": "United States",
    "longitude": "-112.539000932836",
    "latitude": "46.0133546634842"
  },
  {
    "id": "4166",
    "name": "Ruby Valley Brew",
    "brewery_type": "micro",
    "street": "111 S Main St",
    "city": "Sheridan",
    "state": "Montana",
    "postal_code": "59749-7742",
    "website_url": "http://www.rubyvalleybrew.com",
    "phone": "4068425977",
    "created_at": "2018-07-24 01:33:43.126061",
    "updated_at": "2018-08-24 00:47:25.606088",
    "country": "United States",
    "longitude": "-104.559298042118",
    "latitude": "48.7736375285348"
  },
  {
    "id": "4168",
    "name": "Smelter City Brewing",
    "brewery_type": "micro",
    "street": "101 E Commercial Ave",
    "city": "Anaconda",
    "state": "Montana",
    "postal_code": "59711-2289",
    "website_url": "http://www.smeltercitybrewing.com",
    "phone": "4065630344",
    "created_at": "2018-07-24 01:33:43.152951",
    "updated_at": "2018-08-24 00:47:26.044816",
    "country": "United States",
    "longitude": "-112.95216",
    "latitude": "46.130107"
  },
  {
    "id": "4170",
    "name": "SunRift Beer Company",
    "brewery_type": "micro",
    "street": "55 1st Ave WN",
    "city": "Kalispell",
    "state": "Montana",
    "postal_code": "59901",
    "website_url": "http://www.sunriftbeer.com",
    "phone": "4068712567",
    "created_at": "2018-07-24 01:33:43.179096",
    "updated_at": "2018-08-24 00:47:26.942552",
    "country": "United States",
    "longitude": "-114.3181197",
    "latitude": "48.2059559"
  },
  {
    "id": "4171",
    "name": "Tamarack Brewing Co",
    "brewery_type": "micro",
    "street": "105 Blacktail Rd # 2",
    "city": "Lakeside",
    "state": "Montana",
    "postal_code": "59922-9628",
    "website_url": "http://www.tamarackbrewing.com",
    "phone": "4068440244",
    "created_at": "2018-07-24 01:33:43.192459",
    "updated_at": "2018-08-24 00:47:27.380916",
    "country": "United States",
    "longitude": "-114.2253672",
    "latitude": "48.0161369"
  },
  {
    "id": "4174",
    "name": "Thirsty Street Brewing",
    "brewery_type": "brewpub",
    "street": "3008 1st Ave N",
    "city": "Billings",
    "state": "Montana",
    "postal_code": "59101-2134",
    "website_url": "http://www.thirstystreet.com",
    "phone": "4069693200",
    "created_at": "2018-07-24 01:33:43.22974",
    "updated_at": "2018-08-24 00:47:28.74616",
    "country": "United States",
    "longitude": "-108.508367554058",
    "latitude": "45.7807684579042"
  },
  {
    "id": "4175",
    "name": "Tilt Wurks Brewhouse & Casino",
    "brewery_type": "micro",
    "street": "420 Pacific Ave",
    "city": "Miles City",
    "state": "Montana",
    "postal_code": "59301-4000",
    "website_url": "http://www.tiltwurks.com",
    "phone": "4068748458",
    "created_at": "2018-07-24 01:33:43.242162",
    "updated_at": "2018-08-24 00:47:29.178011",
    "country": "United States",
    "longitude": "-105.850804936162",
    "latitude": "46.4020664093132"
  },
  {
    "id": "4176",
    "name": "Triple Dog Brewing Company",
    "brewery_type": "micro",
    "street": "675 1st St W",
    "city": "Havre",
    "state": "Montana",
    "postal_code": "59501-3415",
    "website_url": "",
    "phone": "4068798103",
    "created_at": "2018-07-24 01:33:43.254642",
    "updated_at": "2018-08-24 00:47:29.601925",
    "country": "United States",
    "longitude": "-109.694577034247",
    "latitude": "48.5550030273973"
  },
  {
    "id": "4177",
    "name": "Uberbrew",
    "brewery_type": "brewpub",
    "street": "2305 Montana Ave",
    "city": "Billings",
    "state": "Montana",
    "postal_code": "59101-2421",
    "website_url": "http://uberbrewmt.com",
    "phone": "4065346960",
    "created_at": "2018-07-24 01:33:43.26678",
    "updated_at": "2018-08-24 00:47:30.017036",
    "country": "United States",
    "longitude": "-108.499045606394",
    "latitude": "45.7841710578742"
  },
  {
    "id": "4180",
    "name": "Wildwood Brewing Co",
    "brewery_type": "micro",
    "street": "4018 US Highway 93 N",
    "city": "Stevensville",
    "state": "Montana",
    "postal_code": "59870-6443",
    "website_url": "http://www.wildwoodbrewing.com",
    "phone": "4065296919",
    "created_at": "2018-07-24 01:33:43.303415",
    "updated_at": "2018-08-11 21:38:14.141043",
    "country": "United States",
    "longitude": "",
    "latitude": ""
  },
  {
    "id": "4181",
    "name": "Yellowstone Valley Brewing Co.",
    "brewery_type": "micro",
    "street": "2123B 1st Ave N",
    "city": "Billings",
    "state": "Montana",
    "postal_code": "59101-2404",
    "website_url": "http://www.yellowstonevalleybrew.com",
    "phone": "4062450918",
    "created_at": "2018-07-24 01:33:43.316567",
    "updated_at": "2018-08-11 21:38:14.215529",
    "country": "United States",
    "longitude": "",
    "latitude": ""
  },
  {
    "id": "4096",
    "name": "Beaver Creek Brewery",
    "brewery_type": "micro",
    "street": "104 W Oregon Ave",
    "city": "Wibaux",
    "state": "Montana",
    "postal_code": "59353-8001",
    "website_url": "http://www.beavercreekbrewery.com",
    "phone": "4067952337",
    "created_at": "2018-07-24 01:33:42.127434",
    "updated_at": "2018-08-11 21:38:10.406387",
    "country": "United States",
    "longitude": "",
    "latitude": ""
  },
  {
    "id": "4148",
    "name": "Madison River Brewing Co",
    "brewery_type": "micro",
    "street": "20900 Frontage Rd Ste B",
    "city": "Belgrade",
    "state": "Montana",
    "postal_code": "59714-8558",
    "website_url": "http://www.madisonriverbrewing.com",
    "phone": "4063880322",
    "created_at": "2018-07-24 01:33:42.864291",
    "updated_at": "2018-08-11 21:38:12.556389",
    "country": "United States",
    "longitude": "",
    "latitude": ""
  },
  {
    "id": "4162",
    "name": "Philipsburg Brewing Co",
    "brewery_type": "micro",
    "street": "101 W Broadway",
    "city": "Philipsburg",
    "state": "Montana",
    "postal_code": "59858",
    "website_url": "http://www.philipsburgbrewingcompany.com",
    "phone": "4068592739",
    "created_at": "2018-07-24 01:33:43.059752",
    "updated_at": "2018-08-11 21:38:13.170853",
    "country": "United States",
    "longitude": "",
    "latitude": ""
  },
  {
    "id": "4100",
    "name": "Big Sky Brewing Co",
    "brewery_type": "regional",
    "street": "5417 Trumpeter Way",
    "city": "Missoula",
    "state": "Montana",
    "postal_code": "59808-8680",
    "website_url": "http://www.bigskybrew.com",
    "phone": "4065492777",
    "created_at": "2018-07-24 01:33:42.181166",
    "updated_at": "2018-08-24 00:47:00.320641",
    "country": "United States",
    "longitude": "-114.0730248",
    "latitude": "46.9224156"
  },
  {
    "id": "4120",
    "name": "Cut Bank Creek Brewery",
    "brewery_type": "micro",
    "street": "315 E Railroad St",
    "city": "Cut Bank",
    "state": "Montana",
    "postal_code": "59427-3021",
    "website_url": "http://www.cutbankcreekbrewery.com",
    "phone": "4062290298",
    "created_at": "2018-07-24 01:33:42.46969",
    "updated_at": "2018-08-24 00:47:07.202076",
    "country": "United States",
    "longitude": "-112.327076506344",
    "latitude": "48.634430638306"
  },
  {
    "id": "4136",
    "name": "Imagine Nation Brewing",
    "brewery_type": "micro",
    "street": "1151 W Broadway St",
    "city": "Missoula",
    "state": "Montana",
    "postal_code": "59802-3916",
    "website_url": "http://www.imaginenationbrewing.com",
    "phone": "4069261251",
    "created_at": "2018-07-24 01:33:42.713727",
    "updated_at": "2018-08-24 00:47:13.910658",
    "country": "United States",
    "longitude": "-114.0099097",
    "latitude": "46.8766353"
  },
  {
    "id": "4179",
    "name": "White Dog Brewing Company",
    "brewery_type": "micro",
    "street": "121 W Main St",
    "city": "Bozeman",
    "state": "Montana",
    "postal_code": "59715-4644",
    "website_url": "http://www.whitedogbrewing.com",
    "phone": "4065955574",
    "created_at": "2018-07-24 01:33:43.291112",
    "updated_at": "2018-08-24 00:47:30.486971",
    "country": "United States",
    "longitude": "-111.039389424987",
    "latitude": "45.67961135"
  }
]