[
  {
    "id": "4184",
    "name": "Benson Brewery",
    "brewery_type": "brewpub",
    "street": "6059 Maple St",
    "city": "Omaha",
    "state": "Nebraska",
    "postal_code": "68104-4050",
    "website_url": "http://www.bensonbrewery.com",
    "phone": "4029348668",
    "created_at": "2018-07-24 01:33:43.367541",
    "updated_at": "2018-08-24 00:47:32.331138",
    "country": "United States",
    "longitude": "-96.0063451111111",
    "latitude": "41.2848975555556"
  },
  {
    "id": "4192",
    "name": "Brickway Brewery and Distillery",
    "brewery_type": "micro",
    "street": "1116 Jackson St",
    "city": "Omaha",
    "state": "Nebraska",
    "postal_code": "68102-2825",
    "website_url": "http://www.drinkbrickway.com",
    "phone": "4029332613",
    "created_at": "2018-07-24 01:33:43.479284",
    "updated_at": "2018-08-24 00:47:35.050424",
    "country": "United States",
    "longitude": "-95.930905244898",
    "latitude": "41.2544908163265"
  },
  {
    "id": "4199",
    "name": "Farnam House Brewing Company",
    "brewery_type": "brewpub",
    "street": "3558 Farnam St",
    "city": "Omaha",
    "state": "Nebraska",
    "postal_code": "68131-3304",
    "website_url": "http://www.farnamhousebrewing.com",
    "phone": "4024016086",
    "created_at": "2018-07-24 01:33:43.56902",
    "updated_at": "2018-08-24 00:47:37.85362",
    "country": "United States",
    "longitude": "-95.9658017764832",
    "latitude": "41.2578153029739"
  },
  {
    "id": "4223",
    "name": "Pals Brewing Company",
    "brewery_type": "brewpub",
    "street": "4520 South Buffalo Bill Avenue",
    "city": "North Platte",
    "state": "Nebraska",
    "postal_code": "69101",
    "website_url": "http://www.palsbrewingcompany.com",
    "phone": "6088079332",
    "created_at": "2018-07-24 01:33:43.928182",
    "updated_at": "2018-08-24 00:47:47.154606",
    "country": "United States",
    "longitude": "-100.7916041",
    "latitude": "41.12294"
  },
  {
    "id": "4232",
    "name": "Thunderhead Brewing Co",
    "brewery_type": "brewpub",
    "street": "18 E 21st St",
    "city": "Kearney",
    "state": "Nebraska",
    "postal_code": "68847-5402",
    "website_url": "http://www.thunderheadbrewing.com",
    "phone": "3082371558",
    "created_at": "2018-07-24 01:33:44.064362",
    "updated_at": "2018-08-24 00:47:50.76176",
    "country": "United States",
    "longitude": "-99.080732",
    "latitude": "40.6966518333333"
  },
  {
    "id": "4235",
    "name": "White Elm Brewing Co",
    "brewery_type": "micro",
    "street": "720 Van Dorn St",
    "city": "Lincoln",
    "state": "Nebraska",
    "postal_code": "68502-3353",
    "website_url": "http://www.whiteelmbrewing.com",
    "phone": "4022616078",
    "created_at": "2018-07-24 01:33:44.106036",
    "updated_at": "2018-08-24 00:47:52.147503",
    "country": "United States",
    "longitude": "-96.7167126",
    "latitude": "40.7856925"
  },
  {
    "id": "4200",
    "name": "First Street Brewing",
    "brewery_type": "micro",
    "street": "119 N St Joseph Ave",
    "city": "Hastings",
    "state": "Nebraska",
    "postal_code": "68901-7553",
    "website_url": "http://www.firststreetbrewing.com",
    "phone": "4028342400",
    "created_at": "2018-07-24 01:33:43.58257",
    "updated_at": "2018-08-24 00:47:38.449822",
    "country": "United States",
    "longitude": "-98.3877197959184",
    "latitude": "40.5844988979592"
  },
  {
    "id": "4202",
    "name": "Gottberg Brew Pub",
    "brewery_type": "brewpub",
    "street": "2804 13th St",
    "city": "Columbus",
    "state": "Nebraska",
    "postal_code": "68601-4919",
    "website_url": "http://www.dustersrestaurant.com",
    "phone": "4025626488",
    "created_at": "2018-07-24 01:33:43.613728",
    "updated_at": "2018-08-24 00:47:38.942249",
    "country": "United States",
    "longitude": "-97.3621271020408",
    "latitude": "41.4294006122449"
  },
  {
    "id": "4203",
    "name": "Granite City Food & Brewery (#16)",
    "brewery_type": "brewpub",
    "street": "1001 N 102nd St",
    "city": "Omaha",
    "state": "Nebraska",
    "postal_code": "68114-2155",
    "website_url": "http://www.gcfb.net",
    "phone": "4023935000",
    "created_at": "2018-07-24 01:33:43.629656",
    "updated_at": "2018-08-24 00:47:39.392112",
    "country": "United States",
    "longitude": "-96.071539",
    "latitude": "41.268008"
  },
  {
    "id": "4201",
    "name": "Flyover Brewing Co",
    "brewery_type": "planning",
    "street": "",
    "city": "Scottsbluff",
    "state": "Nebraska",
    "postal_code": "69361-2458",
    "website_url": "http://www.flyoverbrewingco.com",
    "phone": "6163224564",
    "created_at": "2018-07-24 01:33:43.598774",
    "updated_at": "2018-08-11 21:38:15.145937",
    "country": "United States",
    "longitude": "",
    "latitude": ""
  },
  {
    "id": "4182",
    "name": "Backswing Brewing Co.",
    "brewery_type": "micro",
    "street": "500 W South St Ste 8",
    "city": "Lincoln",
    "state": "Nebraska",
    "postal_code": "68522-1744",
    "website_url": "http://www.backswingbrewing.com",
    "phone": "4025154263",
    "created_at": "2018-07-24 01:33:43.339941",
    "updated_at": "2018-08-11 21:38:14.2585",
    "country": "United States",
    "longitude": "",
    "latitude": ""
  },
  {
    "id": "4183",
    "name": "Barley Boys Brewery",
    "brewery_type": "planning",
    "street": "",
    "city": "Omaha",
    "state": "Nebraska",
    "postal_code": "68144-1922",
    "website_url": "http://www.barleyboysbrewery.com",
    "phone": "4025986096",
    "created_at": "2018-07-24 01:33:43.354014",
    "updated_at": "2018-08-11 21:38:14.31289",
    "country": "United States",
    "longitude": "",
    "latitude": ""
  },
  {
    "id": "4186",
    "name": "Boiler Brewing Company",
    "brewery_type": "micro",
    "street": "129 N 10th St Ste 8",
    "city": "Lincoln",
    "state": "Nebraska",
    "postal_code": "68508-3633",
    "website_url": "http://www.boilerbrewingcompany.com",
    "phone": "4022618775",
    "created_at": "2018-07-24 01:33:43.395472",
    "updated_at": "2018-08-11 21:38:14.448928",
    "country": "United States",
    "longitude": "",
    "latitude": ""
  },
  {
    "id": "4188",
    "name": "Bootleg Brewers - Sandhills Brewing Company",
    "brewery_type": "brewpub",
    "street": "45145 829th Rd",
    "city": "Taylor",
    "state": "Nebraska",
    "postal_code": "68879-8120",
    "website_url": "http://www.bootlegbrewers.com",
    "phone": "3089423440",
    "created_at": "2018-07-24 01:33:43.422969",
    "updated_at": "2018-08-11 21:38:14.542605",
    "country": "United States",
    "longitude": "",
    "latitude": ""
  },
  {
    "id": "4190",
    "name": "Brewery 719",
    "brewery_type": "planning",
    "street": "",
    "city": "Alliance",
    "state": "Nebraska",
    "postal_code": "69301-3945",
    "website_url": "http://www.brewery719.com",
    "phone": "",
    "created_at": "2018-07-24 01:33:43.45147",
    "updated_at": "2018-08-11 21:38:14.646743",
    "country": "United States",
    "longitude": "",
    "latitude": ""
  },
  {
    "id": "4191",
    "name": "Brewery In Planning - Omaha",
    "brewery_type": "planning",
    "street": "",
    "city": "Omaha",
    "state": "Nebraska",
    "postal_code": "68102",
    "website_url": "",
    "phone": "",
    "created_at": "2018-07-24 01:33:43.465836",
    "updated_at": "2018-08-11 21:38:14.685476",
    "country": "United States",
    "longitude": "",
    "latitude": ""
  },
  {
    "id": "4195",
    "name": "Cosmic Eye Brewing",
    "brewery_type": "planning",
    "street": "",
    "city": "Lincoln",
    "state": "Nebraska",
    "postal_code": "68505-2463",
    "website_url": "http://www.cosmiceye.beer",
    "phone": "4027308807",
    "created_at": "2018-07-24 01:33:43.519446",
    "updated_at": "2018-08-11 21:38:14.864736",
    "country": "United States",
    "longitude": "",
    "latitude": ""
  },
  {
    "id": "4206",
    "name": "Hanging Horseshoe Brewing Company",
    "brewery_type": "micro",
    "street": "73892 332 Ave",
    "city": "Imperial",
    "state": "Nebraska",
    "postal_code": "69033-",
    "website_url": "",
    "phone": "3088827772",
    "created_at": "2018-07-24 01:33:43.678292",
    "updated_at": "2018-08-11 21:38:15.335212",
    "country": "United States",
    "longitude": "",
    "latitude": ""
  },
  {
    "id": "4210",
    "name": "JGR Enterprises Inc",
    "brewery_type": "planning",
    "street": "",
    "city": "Omaha",
    "state": "Nebraska",
    "postal_code": "68135-6215",
    "website_url": "",
    "phone": "4028610174",
    "created_at": "2018-07-24 01:33:43.736354",
    "updated_at": "2018-08-11 21:38:15.512737",
    "country": "United States",
    "longitude": "",
    "latitude": ""
  },
  {
    "id": "4212",
    "name": "Jukes Ale Works LLC",
    "brewery_type": "planning",
    "street": "",
    "city": "Elkhorn",
    "state": "Nebraska",
    "postal_code": "68022",
    "website_url": "",
    "phone": "4023054905",
    "created_at": "2018-07-24 01:33:43.763396",
    "updated_at": "2018-08-11 21:38:15.579485",
    "country": "United States",
    "longitude": "",
    "latitude": ""
  },
  {
    "id": "4213",
    "name": "Kinkaider Brewing Co",
    "brewery_type": "micro",
    "street": "43860 Paulsen Rd",
    "city": "Broken Bow",
    "state": "Nebraska",
    "postal_code": "68822-7120",
    "website_url": "http://www.kinkaiderbrewing.com",
    "phone": "3088728348",
    "created_at": "2018-07-24 01:33:43.777049",
    "updated_at": "2018-08-11 21:38:15.630557",
    "country": "United States",
    "longitude": "",
    "latitude": ""
  },
  {
    "id": "4214",
    "name": "Kros Strain Brewing Company",
    "brewery_type": "micro",
    "street": "10411 Portal Rd, Ste 102",
    "city": "LaVista",
    "state": "Nebraska",
    "postal_code": "68128-5527",
    "website_url": "http://www.krosstrainbrewing.com",
    "phone": "4027797990",
    "created_at": "2018-07-24 01:33:43.791827",
    "updated_at": "2018-08-11 21:38:15.682229",
    "country": "United States",
    "longitude": "",
    "latitude": ""
  },
  {
    "id": "4216",
    "name": "Lazy Horse Brewing",
    "brewery_type": "brewpub",
    "street": "211 Road 20",
    "city": "Ohiowa",
    "state": "Nebraska",
    "postal_code": "68416-3005",
    "website_url": "http://lazyhorsebrewing.com",
    "phone": "4023145266",
    "created_at": "2018-07-24 01:33:43.819773",
    "updated_at": "2018-08-11 21:38:15.78587",
    "country": "United States",
    "longitude": "",
    "latitude": ""
  },
  {
    "id": "4217",
    "name": "Loop Brewing Co",
    "brewery_type": "brewpub",
    "street": "404 W A St",
    "city": "Mc Cook",
    "state": "Nebraska",
    "postal_code": "69001-3516",
    "website_url": "http://www.loopbrewingcompany.com",
    "phone": "3083455198",
    "created_at": "2018-07-24 01:33:43.833658",
    "updated_at": "2018-08-11 21:38:15.816276",
    "country": "United States",
    "longitude": "",
    "latitude": ""
  },
  {
    "id": "4219",
    "name": "Lucky Bucket Brewing Co",
    "brewery_type": "micro",
    "street": "11941 Centennial Rd Ste 1",
    "city": "La Vista",
    "state": "Nebraska",
    "postal_code": "68128-5623",
    "website_url": "http://www.luckybucketbrewing.com",
    "phone": "4027638868",
    "created_at": "2018-07-24 01:33:43.862813",
    "updated_at": "2018-08-11 21:38:15.881785",
    "country": "United States",
    "longitude": "",
    "latitude": ""
  },
  {
    "id": "4220",
    "name": "Midwest Hop Producers LLC",
    "brewery_type": "planning",
    "street": "",
    "city": "Plattsmouth",
    "state": "Nebraska",
    "postal_code": "68048-7233",
    "website_url": "http://www.midwesthopproducers.com",
    "phone": "4022960633",
    "created_at": "2018-07-24 01:33:43.876689",
    "updated_at": "2018-08-11 21:38:15.914973",
    "country": "United States",
    "longitude": "",
    "latitude": ""
  },
  {
    "id": "4226",
    "name": "Red Iron Brewing Company",
    "brewery_type": "planning",
    "street": "",
    "city": "Lincoln",
    "state": "Nebraska",
    "postal_code": "68502",
    "website_url": "http://www.RedIronBrewing.com",
    "phone": "4028126242",
    "created_at": "2018-07-24 01:33:43.972056",
    "updated_at": "2018-08-11 21:38:16.099559",
    "country": "United States",
    "longitude": "",
    "latitude": ""
  },
  {
    "id": "4227",
    "name": "SchillingBridge Winery & Microbrewery",
    "brewery_type": "brewpub",
    "street": "62193 710th Rd",
    "city": "Pawnee City",
    "state": "Nebraska",
    "postal_code": "68420-3584",
    "website_url": "http://www.schillingbridgewinery.com",
    "phone": "4028522400",
    "created_at": "2018-07-24 01:33:43.986872",
    "updated_at": "2018-08-11 21:38:16.130399",
    "country": "United States",
    "longitude": "",
    "latitude": ""
  },
  {
    "id": "4229",
    "name": "Scriptown Brewing Company",
    "brewery_type": "micro",
    "street": "3922 Farnam St Blackstone District",
    "city": "Omaha",
    "state": "Nebraska",
    "postal_code": "68131-3014",
    "website_url": "http://www.scriptownbrewing.com",
    "phone": "4029910506",
    "created_at": "2018-07-24 01:33:44.018396",
    "updated_at": "2018-08-11 21:38:16.198511",
    "country": "United States",
    "longitude": "",
    "latitude": ""
  },
  {
    "id": "4230",
    "name": "Soaring Wings Brewing",
    "brewery_type": "micro",
    "street": "17111 S 138th St",
    "city": "Springfield",
    "state": "Nebraska",
    "postal_code": "68059-4810",
    "website_url": "http://www.soaringwingswine.com",
    "phone": "4022532479",
    "created_at": "2018-07-24 01:33:44.033201",
    "updated_at": "2018-08-11 21:38:16.224964",
    "country": "United States",
    "longitude": "",
    "latitude": ""
  },
  {
    "id": "4185",
    "name": "Blue Blood Brewing Company",
    "brewery_type": "brewpub",
    "street": "925 Robbers Cave Rd",
    "city": "Lincoln",
    "state": "Nebraska",
    "postal_code": "68502",
    "website_url": "http://www.bluebloodbrewing.com",
    "phone": "4024772337",
    "created_at": "2018-07-24 01:33:43.382605",
    "updated_at": "2018-08-24 00:47:32.761758",
    "country": "United States",
    "longitude": "-96.707013755102",
    "latitude": "40.7799960204082"
  },
  {
    "id": "4187",
    "name": "Bolo Beer Co",
    "brewery_type": "micro",
    "street": "420 E 1st St",
    "city": "Valentine",
    "state": "Nebraska",
    "postal_code": "69201-1904",
    "website_url": "http://www.bolobeer.com",
    "phone": "",
    "created_at": "2018-07-24 01:33:43.409986",
    "updated_at": "2018-08-24 00:47:33.704648",
    "country": "United States",
    "longitude": "-100.545727666667",
    "latitude": "42.8720473333333"
  },
  {
    "id": "4189",
    "name": "Bottle Rocket Brewing Co",
    "brewery_type": "micro",
    "street": "230 S 5th St",
    "city": "Seward",
    "state": "Nebraska",
    "postal_code": "68434-2520",
    "website_url": "http://www.bottlerocketbrewing.com",
    "phone": "4023045673",
    "created_at": "2018-07-24 01:33:43.436028",
    "updated_at": "2018-08-24 00:47:34.591596",
    "country": "United States",
    "longitude": "-97.0977755131352",
    "latitude": "40.9062956397693"
  },
  {
    "id": "4193",
    "name": "Brush Creek Brewing Company",
    "brewery_type": "brewpub",
    "street": "102 N Main St",
    "city": "Atkinson",
    "state": "Nebraska",
    "postal_code": "68713-4946",
    "website_url": "",
    "phone": "4029252629",
    "created_at": "2018-07-24 01:33:43.492037",
    "updated_at": "2018-08-24 00:47:35.515868",
    "country": "United States",
    "longitude": "-98.9783672653061",
    "latitude": "42.5314150204082"
  },
  {
    "id": "4194",
    "name": "Code Beer Co.",
    "brewery_type": "micro",
    "street": "200 S Antelope Valley Pkwy",
    "city": "Lincoln",
    "state": "Nebraska",
    "postal_code": "68510-1016",
    "website_url": "http://www.codebeer.co",
    "phone": "4023185888",
    "created_at": "2018-07-24 01:33:43.506941",
    "updated_at": "2018-08-24 00:47:35.964144",
    "country": "United States",
    "longitude": "-96.6934442234685",
    "latitude": "40.8123075"
  },
  {
    "id": "4196",
    "name": "Divots Brewery",
    "brewery_type": "brewpub",
    "street": "4200 W Norfolk Ave",
    "city": "Norfolk",
    "state": "Nebraska",
    "postal_code": "68701-9202",
    "website_url": "http://www.divotsbrewery.com",
    "phone": "4028442985",
    "created_at": "2018-07-24 01:33:43.531377",
    "updated_at": "2018-08-24 00:47:36.484943",
    "country": "United States",
    "longitude": "-97.466386",
    "latitude": "42.032539"
  },
  {
    "id": "4197",
    "name": "Empyrean Brewing Co",
    "brewery_type": "micro",
    "street": "729 Q St",
    "city": "Lincoln",
    "state": "Nebraska",
    "postal_code": "68508-1536",
    "website_url": "http://www.empyreanbrewingco.com",
    "phone": "4024345970",
    "created_at": "2018-07-24 01:33:43.543394",
    "updated_at": "2018-08-24 00:47:36.916718",
    "country": "United States",
    "longitude": "-96.7105429",
    "latitude": "40.8155873"
  },
  {
    "id": "4204",
    "name": "Granite City Food & Brewery (#7)",
    "brewery_type": "brewpub",
    "street": "6200 O St",
    "city": "Lincoln",
    "state": "Nebraska",
    "postal_code": "68510-2240",
    "website_url": "http://www.gcfb.net",
    "phone": "4024661900",
    "created_at": "2018-07-24 01:33:43.646388",
    "updated_at": "2018-08-24 00:47:39.951156",
    "country": "United States",
    "longitude": "-96.6872327",
    "latitude": "40.8135885"
  },
  {
    "id": "4205",
    "name": "Green Flash Brewing Co",
    "brewery_type": "brewpub",
    "street": "1630 P St",
    "city": "Lincoln",
    "state": "Nebraska",
    "postal_code": "68508-1644",
    "website_url": "",
    "phone": "",
    "created_at": "2018-07-24 01:33:43.66285",
    "updated_at": "2018-08-24 00:47:40.436917",
    "country": "United States",
    "longitude": "-96.6976802244898",
    "latitude": "40.8148111632653"
  },
  {
    "id": "4207",
    "name": "Infusion Brewing Company",
    "brewery_type": "micro",
    "street": "6115 Maple St",
    "city": "Omaha",
    "state": "Nebraska",
    "postal_code": "68104-4043",
    "website_url": "http://www.infusionbrewing.com",
    "phone": "4029342064",
    "created_at": "2018-07-24 01:33:43.694908",
    "updated_at": "2018-08-24 00:47:41.327315",
    "country": "United States",
    "longitude": "-96.007724",
    "latitude": "41.284907"
  },
  {
    "id": "4209",
    "name": "Jaipur Restaurant and Brewpub",
    "brewery_type": "brewpub",
    "street": "10922 Elm St",
    "city": "Omaha",
    "state": "Nebraska",
    "postal_code": "68144-4822",
    "website_url": "http://www.jaipurbrewhouse.com",
    "phone": "4023927331",
    "created_at": "2018-07-24 01:33:43.72311",
    "updated_at": "2018-08-24 00:47:42.192535",
    "country": "United States",
    "longitude": "-96.0823939681767",
    "latitude": "41.2328376834949"
  },
  {
    "id": "4211",
    "name": "Johnnie Byrd Brewing Company",
    "brewery_type": "micro",
    "street": "121 N Pearl St",
    "city": "Wayne",
    "state": "Nebraska",
    "postal_code": "68787",
    "website_url": "http://www.johnniebyrd.beer",
    "phone": "4028331522",
    "created_at": "2018-07-24 01:33:43.750198",
    "updated_at": "2018-08-24 00:47:42.69019",
    "country": "United States",
    "longitude": "-97.0191502",
    "latitude": "42.2294276"
  },
  {
    "id": "4215",
    "name": "Lazlo's Brewery & Grill - Haymarket",
    "brewery_type": "brewpub",
    "street": "210 N 7th St",
    "city": "Lincoln",
    "state": "Nebraska",
    "postal_code": "68508-1301",
    "website_url": "",
    "phone": "4024345636",
    "created_at": "2018-07-24 01:33:43.805592",
    "updated_at": "2018-08-24 00:47:44.132613",
    "country": "United States",
    "longitude": "-96.7108844897959",
    "latitude": "40.8149737346939"
  },
  {
    "id": "4218",
    "name": "Lost Way Brewery",
    "brewery_type": "micro",
    "street": "614 3rd Ave",
    "city": "Holdrege",
    "state": "Nebraska",
    "postal_code": "68949-2701",
    "website_url": "http://www.lostwaybrewery.com",
    "phone": "3089950503",
    "created_at": "2018-07-24 01:33:43.848349",
    "updated_at": "2018-08-24 00:47:45.017675",
    "country": "United States",
    "longitude": "-99.3722823478261",
    "latitude": "40.4368516956522"
  },
  {
    "id": "4221",
    "name": "Nebraska Brewing Co - La Vista",
    "brewery_type": "micro",
    "street": "6950 S 108th St",
    "city": "La Vista",
    "state": "Nebraska",
    "postal_code": "68128-5701",
    "website_url": "",
    "phone": "4029340950",
    "created_at": "2018-07-24 01:33:43.892283",
    "updated_at": "2018-08-24 00:47:46.098515",
    "country": "United States",
    "longitude": "-96.0813295",
    "latitude": "41.1772046"
  },
  {
    "id": "4225",
    "name": "Prairie Pride Brewery",
    "brewery_type": "micro",
    "street": "115 E South Front St",
    "city": "Grand Island",
    "state": "Nebraska",
    "postal_code": "68801-5917",
    "website_url": "http://www.prairiepride.beer",
    "phone": "3088505375",
    "created_at": "2018-07-24 01:33:43.958056",
    "updated_at": "2018-08-24 00:47:48.021134",
    "country": "United States",
    "longitude": "-98.3402578571429",
    "latitude": "40.9267544285714"
  },
  {
    "id": "4228",
    "name": "Scratchtown Brewing Company",
    "brewery_type": "micro",
    "street": "141 S 16th St",
    "city": "Ord",
    "state": "Nebraska",
    "postal_code": "68862-1415",
    "website_url": "http://www.scratchtownbrewingcompany.com",
    "phone": "3087285050",
    "created_at": "2018-07-24 01:33:44.005199",
    "updated_at": "2018-08-24 00:47:48.852036",
    "country": "United States",
    "longitude": "-98.9294030925698",
    "latitude": "41.6025300572648"
  },
  {
    "id": "4231",
    "name": "Steeple Brewing Co",
    "brewery_type": "micro",
    "street": "717 W 1st St",
    "city": "Hastings",
    "state": "Nebraska",
    "postal_code": "68901",
    "website_url": "http://www.steeplebrewing.com",
    "phone": "4025194205",
    "created_at": "2018-07-24 01:33:44.049551",
    "updated_at": "2018-08-24 00:47:50.280908",
    "country": "United States",
    "longitude": "-98.3902497346939",
    "latitude": "40.5841823265306"
  },
  {
    "id": "4236",
    "name": "Zipline Brewing Co",
    "brewery_type": "micro",
    "street": "2100 Magnum Cir Ste 1",
    "city": "Lincoln",
    "state": "Nebraska",
    "postal_code": "68522-1027",
    "website_url": "http://www.ziplinebrewing.com",
    "phone": "4024751001",
    "created_at": "2018-07-24 01:33:44.119312",
    "updated_at": "2018-08-11 21:38:16.408089",
    "country": "United States",
    "longitude": "",
    "latitude": ""
  },
  {
    "id": "4233",
    "name": "Upstream Brewing Co (#1)",
    "brewery_type": "brewpub",
    "street": "514 S 11th St",
    "city": "Omaha",
    "state": "Nebraska",
    "postal_code": "68102-2808",
    "website_url": "http://www.upstreambrewing.com",
    "phone": "4023440200",
    "created_at": "2018-07-24 01:33:44.079485",
    "updated_at": "2018-08-24 00:47:51.19369",
    "country": "United States",
    "longitude": "-95.9308408",
    "latitude": "41.2547107"
  },
  {
    "id": "4234",
    "name": "Vis Major Brewing Co",
    "brewery_type": "brewpub",
    "street": "3501 Center St",
    "city": "Omaha",
    "state": "Nebraska",
    "postal_code": "68105-2423",
    "website_url": "http://www.vismajorbrewing.com",
    "phone": "4028844082",
    "created_at": "2018-07-24 01:33:44.092851",
    "updated_at": "2018-08-24 00:47:51.643057",
    "country": "United States",
    "longitude": "-95.964461",
    "latitude": "41.241419"
  },
  {
    "id": "4198",
    "name": "Fairfield Opera House Brewery",
    "brewery_type": "brewpub",
    "street": "415 N D St",
    "city": "Fairfield",
    "state": "Nebraska",
    "postal_code": "68938-2114",
    "website_url": "http://www.fairfieldoperahouse.com",
    "phone": "4027262447",
    "created_at": "2018-07-24 01:33:43.556382",
    "updated_at": "2018-08-24 00:47:37.367863",
    "country": "United States",
    "longitude": "-98.1058865714286",
    "latitude": "40.4306157142857"
  },
  {
    "id": "4222",
    "name": "Nebraska Brewing Co - Papillion",
    "brewery_type": "brewpub",
    "street": "7474 Towne Center Pkwy Ste 101 Shadow Lake Towne Center",
    "city": "Papillion",
    "state": "Nebraska",
    "postal_code": "68046-4805",
    "website_url": "http://www.nebraskabrewingco.com",
    "phone": "4029347100",
    "created_at": "2018-07-24 01:33:43.911116",
    "updated_at": "2018-08-11 21:38:15.986276",
    "country": "United States",
    "longitude": "",
    "latitude": ""
  },
  {
    "id": "4208",
    "name": "Infusion Brewing Company",
    "brewery_type": "micro",
    "street": "6271 S 118th St",
    "city": "Omaha",
    "state": "Nebraska",
    "postal_code": "68137-3574",
    "website_url": "http://www.infusionbrewing.com",
    "phone": "4029342064",
    "created_at": "2018-07-24 01:33:43.708677",
    "updated_at": "2018-08-24 00:47:41.766986",
    "country": "United States",
    "longitude": "-96.0980711",
    "latitude": "41.2077948"
  },
  {
    "id": "4184",
    "name": "Benson Brewery",
    "brewery_type": "brewpub",
    "street": "6059 Maple St",
    "city": "Omaha",
    "state": "Nebraska",
    "postal_code": "68104-4050",
    "website_url": "http://www.bensonbrewery.com",
    "phone": "4029348668",
    "created_at": "2018-07-24 01:33:43.367541",
    "updated_at": "2018-08-24 00:47:32.331138",
    "country": "United States",
    "longitude": "-96.0063451111111",
    "latitude": "41.2848975555556"
  },
  {
    "id": "4192",
    "name": "Brickway Brewery and Distillery",
    "brewery_type": "micro",
    "street": "1116 Jackson St",
    "city": "Omaha",
    "state": "Nebraska",
    "postal_code": "68102-2825",
    "website_url": "http://www.drinkbrickway.com",
    "phone": "4029332613",
    "created_at": "2018-07-24 01:33:43.479284",
    "updated_at": "2018-08-24 00:47:35.050424",
    "country": "United States",
    "longitude": "-95.930905244898",
    "latitude": "41.2544908163265"
  },
  {
    "id": "4199",
    "name": "Farnam House Brewing Company",
    "brewery_type": "brewpub",
    "street": "3558 Farnam St",
    "city": "Omaha",
    "state": "Nebraska",
    "postal_code": "68131-3304",
    "website_url": "http://www.farnamhousebrewing.com",
    "phone": "4024016086",
    "created_at": "2018-07-24 01:33:43.56902",
    "updated_at": "2018-08-24 00:47:37.85362",
    "country": "United States",
    "longitude": "-95.9658017764832",
    "latitude": "41.2578153029739"
  },
  {
    "id": "4223",
    "name": "Pals Brewing Company",
    "brewery_type": "brewpub",
    "street": "4520 South Buffalo Bill Avenue",
    "city": "North Platte",
    "state": "Nebraska",
    "postal_code": "69101",
    "website_url": "http://www.palsbrewingcompany.com",
    "phone": "6088079332",
    "created_at": "2018-07-24 01:33:43.928182",
    "updated_at": "2018-08-24 00:47:47.154606",
    "country": "United States",
    "longitude": "-100.7916041",
    "latitude": "41.12294"
  },
  {
    "id": "4232",
    "name": "Thunderhead Brewing Co",
    "brewery_type": "brewpub",
    "street": "18 E 21st St",
    "city": "Kearney",
    "state": "Nebraska",
    "postal_code": "68847-5402",
    "website_url": "http://www.thunderheadbrewing.com",
    "phone": "3082371558",
    "created_at": "2018-07-24 01:33:44.064362",
    "updated_at": "2018-08-24 00:47:50.76176",
    "country": "United States",
    "longitude": "-99.080732",
    "latitude": "40.6966518333333"
  },
  {
    "id": "4235",
    "name": "White Elm Brewing Co",
    "brewery_type": "micro",
    "street": "720 Van Dorn St",
    "city": "Lincoln",
    "state": "Nebraska",
    "postal_code": "68502-3353",
    "website_url": "http://www.whiteelmbrewing.com",
    "phone": "4022616078",
    "created_at": "2018-07-24 01:33:44.106036",
    "updated_at": "2018-08-24 00:47:52.147503",
    "country": "United States",
    "longitude": "-96.7167126",
    "latitude": "40.7856925"
  },
  {
    "id": "4200",
    "name": "First Street Brewing",
    "brewery_type": "micro",
    "street": "119 N St Joseph Ave",
    "city": "Hastings",
    "state": "Nebraska",
    "postal_code": "68901-7553",
    "website_url": "http://www.firststreetbrewing.com",
    "phone": "4028342400",
    "created_at": "2018-07-24 01:33:43.58257",
    "updated_at": "2018-08-24 00:47:38.449822",
    "country": "United States",
    "longitude": "-98.3877197959184",
    "latitude": "40.5844988979592"
  },
  {
    "id": "4202",
    "name": "Gottberg Brew Pub",
    "brewery_type": "brewpub",
    "street": "2804 13th St",
    "city": "Columbus",
    "state": "Nebraska",
    "postal_code": "68601-4919",
    "website_url": "http://www.dustersrestaurant.com",
    "phone": "4025626488",
    "created_at": "2018-07-24 01:33:43.613728",
    "updated_at": "2018-08-24 00:47:38.942249",
    "country": "United States",
    "longitude": "-97.3621271020408",
    "latitude": "41.4294006122449"
  },
  {
    "id": "4203",
    "name": "Granite City Food & Brewery (#16)",
    "brewery_type": "brewpub",
    "street": "1001 N 102nd St",
    "city": "Omaha",
    "state": "Nebraska",
    "postal_code": "68114-2155",
    "website_url": "http://www.gcfb.net",
    "phone": "4023935000",
    "created_at": "2018-07-24 01:33:43.629656",
    "updated_at": "2018-08-24 00:47:39.392112",
    "country": "United States",
    "longitude": "-96.071539",
    "latitude": "41.268008"
  },
  {
    "id": "4201",
    "name": "Flyover Brewing Co",
    "brewery_type": "planning",
    "street": "",
    "city": "Scottsbluff",
    "state": "Nebraska",
    "postal_code": "69361-2458",
    "website_url": "http://www.flyoverbrewingco.com",
    "phone": "6163224564",
    "created_at": "2018-07-24 01:33:43.598774",
    "updated_at": "2018-08-11 21:38:15.145937",
    "country": "United States",
    "longitude": "",
    "latitude": ""
  },
  {
    "id": "4182",
    "name": "Backswing Brewing Co.",
    "brewery_type": "micro",
    "street": "500 W South St Ste 8",
    "city": "Lincoln",
    "state": "Nebraska",
    "postal_code": "68522-1744",
    "website_url": "http://www.backswingbrewing.com",
    "phone": "4025154263",
    "created_at": "2018-07-24 01:33:43.339941",
    "updated_at": "2018-08-11 21:38:14.2585",
    "country": "United States",
    "longitude": "",
    "latitude": ""
  },
  {
    "id": "4183",
    "name": "Barley Boys Brewery",
    "brewery_type": "planning",
    "street": "",
    "city": "Omaha",
    "state": "Nebraska",
    "postal_code": "68144-1922",
    "website_url": "http://www.barleyboysbrewery.com",
    "phone": "4025986096",
    "created_at": "2018-07-24 01:33:43.354014",
    "updated_at": "2018-08-11 21:38:14.31289",
    "country": "United States",
    "longitude": "",
    "latitude": ""
  },
  {
    "id": "4186",
    "name": "Boiler Brewing Company",
    "brewery_type": "micro",
    "street": "129 N 10th St Ste 8",
    "city": "Lincoln",
    "state": "Nebraska",
    "postal_code": "68508-3633",
    "website_url": "http://www.boilerbrewingcompany.com",
    "phone": "4022618775",
    "created_at": "2018-07-24 01:33:43.395472",
    "updated_at": "2018-08-11 21:38:14.448928",
    "country": "United States",
    "longitude": "",
    "latitude": ""
  },
  {
    "id": "4188",
    "name": "Bootleg Brewers - Sandhills Brewing Company",
    "brewery_type": "brewpub",
    "street": "45145 829th Rd",
    "city": "Taylor",
    "state": "Nebraska",
    "postal_code": "68879-8120",
    "website_url": "http://www.bootlegbrewers.com",
    "phone": "3089423440",
    "created_at": "2018-07-24 01:33:43.422969",
    "updated_at": "2018-08-11 21:38:14.542605",
    "country": "United States",
    "longitude": "",
    "latitude": ""
  },
  {
    "id": "4190",
    "name": "Brewery 719",
    "brewery_type": "planning",
    "street": "",
    "city": "Alliance",
    "state": "Nebraska",
    "postal_code": "69301-3945",
    "website_url": "http://www.brewery719.com",
    "phone": "",
    "created_at": "2018-07-24 01:33:43.45147",
    "updated_at": "2018-08-11 21:38:14.646743",
    "country": "United States",
    "longitude": "",
    "latitude": ""
  },
  {
    "id": "4191",
    "name": "Brewery In Planning - Omaha",
    "brewery_type": "planning",
    "street": "",
    "city": "Omaha",
    "state": "Nebraska",
    "postal_code": "68102",
    "website_url": "",
    "phone": "",
    "created_at": "2018-07-24 01:33:43.465836",
    "updated_at": "2018-08-11 21:38:14.685476",
    "country": "United States",
    "longitude": "",
    "latitude": ""
  },
  {
    "id": "4195",
    "name": "Cosmic Eye Brewing",
    "brewery_type": "planning",
    "street": "",
    "city": "Lincoln",
    "state": "Nebraska",
    "postal_code": "68505-2463",
    "website_url": "http://www.cosmiceye.beer",
    "phone": "4027308807",
    "created_at": "2018-07-24 01:33:43.519446",
    "updated_at": "2018-08-11 21:38:14.864736",
    "country": "United States",
    "longitude": "",
    "latitude": ""
  },
  {
    "id": "4206",
    "name": "Hanging Horseshoe Brewing Company",
    "brewery_type": "micro",
    "street": "73892 332 Ave",
    "city": "Imperial",
    "state": "Nebraska",
    "postal_code": "69033-",
    "website_url": "",
    "phone": "3088827772",
    "created_at": "2018-07-24 01:33:43.678292",
    "updated_at": "2018-08-11 21:38:15.335212",
    "country": "United States",
    "longitude": "",
    "latitude": ""
  },
  {
    "id": "4210",
    "name": "JGR Enterprises Inc",
    "brewery_type": "planning",
    "street": "",
    "city": "Omaha",
    "state": "Nebraska",
    "postal_code": "68135-6215",
    "website_url": "",
    "phone": "4028610174",
    "created_at": "2018-07-24 01:33:43.736354",
    "updated_at": "2018-08-11 21:38:15.512737",
    "country": "United States",
    "longitude": "",
    "latitude": ""
  },
  {
    "id": "4212",
    "name": "Jukes Ale Works LLC",
    "brewery_type": "planning",
    "street": "",
    "city": "Elkhorn",
    "state": "Nebraska",
    "postal_code": "68022",
    "website_url": "",
    "phone": "4023054905",
    "created_at": "2018-07-24 01:33:43.763396",
    "updated_at": "2018-08-11 21:38:15.579485",
    "country": "United States",
    "longitude": "",
    "latitude": ""
  },
  {
    "id": "4213",
    "name": "Kinkaider Brewing Co",
    "brewery_type": "micro",
    "street": "43860 Paulsen Rd",
    "city": "Broken Bow",
    "state": "Nebraska",
    "postal_code": "68822-7120",
    "website_url": "http://www.kinkaiderbrewing.com",
    "phone": "3088728348",
    "created_at": "2018-07-24 01:33:43.777049",
    "updated_at": "2018-08-11 21:38:15.630557",
    "country": "United States",
    "longitude": "",
    "latitude": ""
  },
  {
    "id": "4214",
    "name": "Kros Strain Brewing Company",
    "brewery_type": "micro",
    "street": "10411 Portal Rd, Ste 102",
    "city": "LaVista",
    "state": "Nebraska",
    "postal_code": "68128-5527",
    "website_url": "http://www.krosstrainbrewing.com",
    "phone": "4027797990",
    "created_at": "2018-07-24 01:33:43.791827",
    "updated_at": "2018-08-11 21:38:15.682229",
    "country": "United States",
    "longitude": "",
    "latitude": ""
  },
  {
    "id": "4216",
    "name": "Lazy Horse Brewing",
    "brewery_type": "brewpub",
    "street": "211 Road 20",
    "city": "Ohiowa",
    "state": "Nebraska",
    "postal_code": "68416-3005",
    "website_url": "http://lazyhorsebrewing.com",
    "phone": "4023145266",
    "created_at": "2018-07-24 01:33:43.819773",
    "updated_at": "2018-08-11 21:38:15.78587",
    "country": "United States",
    "longitude": "",
    "latitude": ""
  },
  {
    "id": "4217",
    "name": "Loop Brewing Co",
    "brewery_type": "brewpub",
    "street": "404 W A St",
    "city": "Mc Cook",
    "state": "Nebraska",
    "postal_code": "69001-3516",
    "website_url": "http://www.loopbrewingcompany.com",
    "phone": "3083455198",
    "created_at": "2018-07-24 01:33:43.833658",
    "updated_at": "2018-08-11 21:38:15.816276",
    "country": "United States",
    "longitude": "",
    "latitude": ""
  },
  {
    "id": "4219",
    "name": "Lucky Bucket Brewing Co",
    "brewery_type": "micro",
    "street": "11941 Centennial Rd Ste 1",
    "city": "La Vista",
    "state": "Nebraska",
    "postal_code": "68128-5623",
    "website_url": "http://www.luckybucketbrewing.com",
    "phone": "4027638868",
    "created_at": "2018-07-24 01:33:43.862813",
    "updated_at": "2018-08-11 21:38:15.881785",
    "country": "United States",
    "longitude": "",
    "latitude": ""
  },
  {
    "id": "4220",
    "name": "Midwest Hop Producers LLC",
    "brewery_type": "planning",
    "street": "",
    "city": "Plattsmouth",
    "state": "Nebraska",
    "postal_code": "68048-7233",
    "website_url": "http://www.midwesthopproducers.com",
    "phone": "4022960633",
    "created_at": "2018-07-24 01:33:43.876689",
    "updated_at": "2018-08-11 21:38:15.914973",
    "country": "United States",
    "longitude": "",
    "latitude": ""
  },
  {
    "id": "4226",
    "name": "Red Iron Brewing Company",
    "brewery_type": "planning",
    "street": "",
    "city": "Lincoln",
    "state": "Nebraska",
    "postal_code": "68502",
    "website_url": "http://www.RedIronBrewing.com",
    "phone": "4028126242",
    "created_at": "2018-07-24 01:33:43.972056",
    "updated_at": "2018-08-11 21:38:16.099559",
    "country": "United States",
    "longitude": "",
    "latitude": ""
  },
  {
    "id": "4227",
    "name": "SchillingBridge Winery & Microbrewery",
    "brewery_type": "brewpub",
    "street": "62193 710th Rd",
    "city": "Pawnee City",
    "state": "Nebraska",
    "postal_code": "68420-3584",
    "website_url": "http://www.schillingbridgewinery.com",
    "phone": "4028522400",
    "created_at": "2018-07-24 01:33:43.986872",
    "updated_at": "2018-08-11 21:38:16.130399",
    "country": "United States",
    "longitude": "",
    "latitude": ""
  },
  {
    "id": "4229",
    "name": "Scriptown Brewing Company",
    "brewery_type": "micro",
    "street": "3922 Farnam St Blackstone District",
    "city": "Omaha",
    "state": "Nebraska",
    "postal_code": "68131-3014",
    "website_url": "http://www.scriptownbrewing.com",
    "phone": "4029910506",
    "created_at": "2018-07-24 01:33:44.018396",
    "updated_at": "2018-08-11 21:38:16.198511",
    "country": "United States",
    "longitude": "",
    "latitude": ""
  },
  {
    "id": "4230",
    "name": "Soaring Wings Brewing",
    "brewery_type": "micro",
    "street": "17111 S 138th St",
    "city": "Springfield",
    "state": "Nebraska",
    "postal_code": "68059-4810",
    "website_url": "http://www.soaringwingswine.com",
    "phone": "4022532479",
    "created_at": "2018-07-24 01:33:44.033201",
    "updated_at": "2018-08-11 21:38:16.224964",
    "country": "United States",
    "longitude": "",
    "latitude": ""
  },
  {
    "id": "4185",
    "name": "Blue Blood Brewing Company",
    "brewery_type": "brewpub",
    "street": "925 Robbers Cave Rd",
    "city": "Lincoln",
    "state": "Nebraska",
    "postal_code": "68502",
    "website_url": "http://www.bluebloodbrewing.com",
    "phone": "4024772337",
    "created_at": "2018-07-24 01:33:43.382605",
    "updated_at": "2018-08-24 00:47:32.761758",
    "country": "United States",
    "longitude": "-96.707013755102",
    "latitude": "40.7799960204082"
  },
  {
    "id": "4187",
    "name": "Bolo Beer Co",
    "brewery_type": "micro",
    "street": "420 E 1st St",
    "city": "Valentine",
    "state": "Nebraska",
    "postal_code": "69201-1904",
    "website_url": "http://www.bolobeer.com",
    "phone": "",
    "created_at": "2018-07-24 01:33:43.409986",
    "updated_at": "2018-08-24 00:47:33.704648",
    "country": "United States",
    "longitude": "-100.545727666667",
    "latitude": "42.8720473333333"
  },
  {
    "id": "4189",
    "name": "Bottle Rocket Brewing Co",
    "brewery_type": "micro",
    "street": "230 S 5th St",
    "city": "Seward",
    "state": "Nebraska",
    "postal_code": "68434-2520",
    "website_url": "http://www.bottlerocketbrewing.com",
    "phone": "4023045673",
    "created_at": "2018-07-24 01:33:43.436028",
    "updated_at": "2018-08-24 00:47:34.591596",
    "country": "United States",
    "longitude": "-97.0977755131352",
    "latitude": "40.9062956397693"
  },
  {
    "id": "4193",
    "name": "Brush Creek Brewing Company",
    "brewery_type": "brewpub",
    "street": "102 N Main St",
    "city": "Atkinson",
    "state": "Nebraska",
    "postal_code": "68713-4946",
    "website_url": "",
    "phone": "4029252629",
    "created_at": "2018-07-24 01:33:43.492037",
    "updated_at": "2018-08-24 00:47:35.515868",
    "country": "United States",
    "longitude": "-98.9783672653061",
    "latitude": "42.5314150204082"
  },
  {
    "id": "4194",
    "name": "Code Beer Co.",
    "brewery_type": "micro",
    "street": "200 S Antelope Valley Pkwy",
    "city": "Lincoln",
    "state": "Nebraska",
    "postal_code": "68510-1016",
    "website_url": "http://www.codebeer.co",
    "phone": "4023185888",
    "created_at": "2018-07-24 01:33:43.506941",
    "updated_at": "2018-08-24 00:47:35.964144",
    "country": "United States",
    "longitude": "-96.6934442234685",
    "latitude": "40.8123075"
  },
  {
    "id": "4196",
    "name": "Divots Brewery",
    "brewery_type": "brewpub",
    "street": "4200 W Norfolk Ave",
    "city": "Norfolk",
    "state": "Nebraska",
    "postal_code": "68701-9202",
    "website_url": "http://www.divotsbrewery.com",
    "phone": "4028442985",
    "created_at": "2018-07-24 01:33:43.531377",
    "updated_at": "2018-08-24 00:47:36.484943",
    "country": "United States",
    "longitude": "-97.466386",
    "latitude": "42.032539"
  },
  {
    "id": "4197",
    "name": "Empyrean Brewing Co",
    "brewery_type": "micro",
    "street": "729 Q St",
    "city": "Lincoln",
    "state": "Nebraska",
    "postal_code": "68508-1536",
    "website_url": "http://www.empyreanbrewingco.com",
    "phone": "4024345970",
    "created_at": "2018-07-24 01:33:43.543394",
    "updated_at": "2018-08-24 00:47:36.916718",
    "country": "United States",
    "longitude": "-96.7105429",
    "latitude": "40.8155873"
  },
  {
    "id": "4204",
    "name": "Granite City Food & Brewery (#7)",
    "brewery_type": "brewpub",
    "street": "6200 O St",
    "city": "Lincoln",
    "state": "Nebraska",
    "postal_code": "68510-2240",
    "website_url": "http://www.gcfb.net",
    "phone": "4024661900",
    "created_at": "2018-07-24 01:33:43.646388",
    "updated_at": "2018-08-24 00:47:39.951156",
    "country": "United States",
    "longitude": "-96.6872327",
    "latitude": "40.8135885"
  },
  {
    "id": "4205",
    "name": "Green Flash Brewing Co",
    "brewery_type": "brewpub",
    "street": "1630 P St",
    "city": "Lincoln",
    "state": "Nebraska",
    "postal_code": "68508-1644",
    "website_url": "",
    "phone": "",
    "created_at": "2018-07-24 01:33:43.66285",
    "updated_at": "2018-08-24 00:47:40.436917",
    "country": "United States",
    "longitude": "-96.6976802244898",
    "latitude": "40.8148111632653"
  },
  {
    "id": "4207",
    "name": "Infusion Brewing Company",
    "brewery_type": "micro",
    "street": "6115 Maple St",
    "city": "Omaha",
    "state": "Nebraska",
    "postal_code": "68104-4043",
    "website_url": "http://www.infusionbrewing.com",
    "phone": "4029342064",
    "created_at": "2018-07-24 01:33:43.694908",
    "updated_at": "2018-08-24 00:47:41.327315",
    "country": "United States",
    "longitude": "-96.007724",
    "latitude": "41.284907"
  },
  {
    "id": "4209",
    "name": "Jaipur Restaurant and Brewpub",
    "brewery_type": "brewpub",
    "street": "10922 Elm St",
    "city": "Omaha",
    "state": "Nebraska",
    "postal_code": "68144-4822",
    "website_url": "http://www.jaipurbrewhouse.com",
    "phone": "4023927331",
    "created_at": "2018-07-24 01:33:43.72311",
    "updated_at": "2018-08-24 00:47:42.192535",
    "country": "United States",
    "longitude": "-96.0823939681767",
    "latitude": "41.2328376834949"
  },
  {
    "id": "4211",
    "name": "Johnnie Byrd Brewing Company",
    "brewery_type": "micro",
    "street": "121 N Pearl St",
    "city": "Wayne",
    "state": "Nebraska",
    "postal_code": "68787",
    "website_url": "http://www.johnniebyrd.beer",
    "phone": "4028331522",
    "created_at": "2018-07-24 01:33:43.750198",
    "updated_at": "2018-08-24 00:47:42.69019",
    "country": "United States",
    "longitude": "-97.0191502",
    "latitude": "42.2294276"
  },
  {
    "id": "4215",
    "name": "Lazlo's Brewery & Grill - Haymarket",
    "brewery_type": "brewpub",
    "street": "210 N 7th St",
    "city": "Lincoln",
    "state": "Nebraska",
    "postal_code": "68508-1301",
    "website_url": "",
    "phone": "4024345636",
    "created_at": "2018-07-24 01:33:43.805592",
    "updated_at": "2018-08-24 00:47:44.132613",
    "country": "United States",
    "longitude": "-96.7108844897959",
    "latitude": "40.8149737346939"
  },
  {
    "id": "4218",
    "name": "Lost Way Brewery",
    "brewery_type": "micro",
    "street": "614 3rd Ave",
    "city": "Holdrege",
    "state": "Nebraska",
    "postal_code": "68949-2701",
    "website_url": "http://www.lostwaybrewery.com",
    "phone": "3089950503",
    "created_at": "2018-07-24 01:33:43.848349",
    "updated_at": "2018-08-24 00:47:45.017675",
    "country": "United States",
    "longitude": "-99.3722823478261",
    "latitude": "40.4368516956522"
  },
  {
    "id": "4221",
    "name": "Nebraska Brewing Co - La Vista",
    "brewery_type": "micro",
    "street": "6950 S 108th St",
    "city": "La Vista",
    "state": "Nebraska",
    "postal_code": "68128-5701",
    "website_url": "",
    "phone": "4029340950",
    "created_at": "2018-07-24 01:33:43.892283",
    "updated_at": "2018-08-24 00:47:46.098515",
    "country": "United States",
    "longitude": "-96.0813295",
    "latitude": "41.1772046"
  },
  {
    "id": "4225",
    "name": "Prairie Pride Brewery",
    "brewery_type": "micro",
    "street": "115 E South Front St",
    "city": "Grand Island",
    "state": "Nebraska",
    "postal_code": "68801-5917",
    "website_url": "http://www.prairiepride.beer",
    "phone": "3088505375",
    "created_at": "2018-07-24 01:33:43.958056",
    "updated_at": "2018-08-24 00:47:48.021134",
    "country": "United States",
    "longitude": "-98.3402578571429",
    "latitude": "40.9267544285714"
  },
  {
    "id": "4228",
    "name": "Scratchtown Brewing Company",
    "brewery_type": "micro",
    "street": "141 S 16th St",
    "city": "Ord",
    "state": "Nebraska",
    "postal_code": "68862-1415",
    "website_url": "http://www.scratchtownbrewingcompany.com",
    "phone": "3087285050",
    "created_at": "2018-07-24 01:33:44.005199",
    "updated_at": "2018-08-24 00:47:48.852036",
    "country": "United States",
    "longitude": "-98.9294030925698",
    "latitude": "41.6025300572648"
  },
  {
    "id": "4231",
    "name": "Steeple Brewing Co",
    "brewery_type": "micro",
    "street": "717 W 1st St",
    "city": "Hastings",
    "state": "Nebraska",
    "postal_code": "68901",
    "website_url": "http://www.steeplebrewing.com",
    "phone": "4025194205",
    "created_at": "2018-07-24 01:33:44.049551",
    "updated_at": "2018-08-24 00:47:50.280908",
    "country": "United States",
    "longitude": "-98.3902497346939",
    "latitude": "40.5841823265306"
  },
  {
    "id": "4236",
    "name": "Zipline Brewing Co",
    "brewery_type": "micro",
    "street": "2100 Magnum Cir Ste 1",
    "city": "Lincoln",
    "state": "Nebraska",
    "postal_code": "68522-1027",
    "website_url": "http://www.ziplinebrewing.com",
    "phone": "4024751001",
    "created_at": "2018-07-24 01:33:44.119312",
    "updated_at": "2018-08-11 21:38:16.408089",
    "country": "United States",
    "longitude": "",
    "latitude": ""
  },
  {
    "id": "4233",
    "name": "Upstream Brewing Co (#1)",
    "brewery_type": "brewpub",
    "street": "514 S 11th St",
    "city": "Omaha",
    "state": "Nebraska",
    "postal_code": "68102-2808",
    "website_url": "http://www.upstreambrewing.com",
    "phone": "4023440200",
    "created_at": "2018-07-24 01:33:44.079485",
    "updated_at": "2018-08-24 00:47:51.19369",
    "country": "United States",
    "longitude": "-95.9308408",
    "latitude": "41.2547107"
  },
  {
    "id": "4234",
    "name": "Vis Major Brewing Co",
    "brewery_type": "brewpub",
    "street": "3501 Center St",
    "city": "Omaha",
    "state": "Nebraska",
    "postal_code": "68105-2423",
    "website_url": "http://www.vismajorbrewing.com",
    "phone": "4028844082",
    "created_at": "2018-07-24 01:33:44.092851",
    "updated_at": "2018-08-24 00:47:51.643057",
    "country": "United States",
    "longitude": "-95.964461",
    "latitude": "41.241419"
  },
  {
    "id": "4198",
    "name": "Fairfield Opera House Brewery",
    "brewery_type": "brewpub",
    "street": "415 N D St",
    "city": "Fairfield",
    "state": "Nebraska",
    "postal_code": "68938-2114",
    "website_url": "http://www.fairfieldoperahouse.com",
    "phone": "4027262447",
    "created_at": "2018-07-24 01:33:43.556382",
    "updated_at": "2018-08-24 00:47:37.367863",
    "country": "United States",
    "longitude": "-98.1058865714286",
    "latitude": "40.4306157142857"
  },
  {
    "id": "4222",
    "name": "Nebraska Brewing Co - Papillion",
    "brewery_type": "brewpub",
    "street": "7474 Towne Center Pkwy Ste 101 Shadow Lake Towne Center",
    "city": "Papillion",
    "state": "Nebraska",
    "postal_code": "68046-4805",
    "website_url": "http://www.nebraskabrewingco.com",
    "phone": "4029347100",
    "created_at": "2018-07-24 01:33:43.911116",
    "updated_at": "2018-08-11 21:38:15.986276",
    "country": "United States",
    "longitude": "",
    "latitude": ""
  },
  {
    "id": "4208",
    "name": "Infusion Brewing Company",
    "brewery_type": "micro",
    "street": "6271 S 118th St",
    "city": "Omaha",
    "state": "Nebraska",
    "postal_code": "68137-3574",
    "website_url": "http://www.infusionbrewing.com",
    "phone": "4029342064",
    "created_at": "2018-07-24 01:33:43.708677",
    "updated_at": "2018-08-24 00:47:41.766986",
    "country": "United States",
    "longitude": "-96.0980711",
    "latitude": "41.2077948"
  }
]