[
  {
    "id": "4239",
    "name": "Alibi Ale Works",
    "brewery_type": "micro",
    "street": "204 E Enterprise St",
    "city": "Incline Village",
    "state": "Nevada",
    "postal_code": "89451-9456",
    "website_url": "http://www.alibialeworks.com",
    "phone": "7752987001",
    "created_at": "2018-07-24 01:33:44.168158",
    "updated_at": "2018-08-24 00:47:54.027809",
    "country": "United States",
    "longitude": "-119.953711697581",
    "latitude": "39.2481932808664"
  },
  {
    "id": "4269",
    "name": "Pigeon Head Brewery",
    "brewery_type": "micro",
    "street": "840 E 5th St",
    "city": "Reno",
    "state": "Nevada",
    "postal_code": "89512-3508",
    "website_url": "http://www.pigeonheadbrewery.com",
    "phone": "7752766766",
    "created_at": "2018-07-24 01:33:44.57082",
    "updated_at": "2018-08-24 15:35:41.541706",
    "country": "United States",
    "longitude": "-119.802684979592",
    "latitude": "39.5333757755102"
  },
  {
    "id": "4283",
    "name": "The Fox Brewpub",
    "brewery_type": "brewpub",
    "street": "310 S Carson St",
    "city": "Carson City",
    "state": "Nevada",
    "postal_code": "89701-4754",
    "website_url": "http://www.foxbrewpub.com",
    "phone": "7758831369",
    "created_at": "2018-07-24 01:33:44.766809",
    "updated_at": "2018-08-24 15:35:47.985865",
    "country": "United States",
    "longitude": "-119.7708155",
    "latitude": "39.1269616"
  },
  {
    "id": "4284",
    "name": "Tonopah Brewing Co",
    "brewery_type": "brewpub",
    "street": "315 S Main St",
    "city": "Tonopah",
    "state": "Nevada",
    "postal_code": "89049",
    "website_url": "http://www.tonopahbrewing.com",
    "phone": "7754822000",
    "created_at": "2018-07-24 01:33:44.780527",
    "updated_at": "2018-08-24 15:35:48.724249",
    "country": "United States",
    "longitude": "-117.231982349599",
    "latitude": "38.070350236911"
  },
  {
    "id": "4250",
    "name": "Brewery In Planning - Las Vegas",
    "brewery_type": "planning",
    "street": "",
    "city": "Las Vegas",
    "state": "Nevada",
    "postal_code": "89144-4473",
    "website_url": "",
    "phone": "",
    "created_at": "2018-07-24 01:33:44.317288",
    "updated_at": "2018-08-11 21:38:16.910392",
    "country": "United States",
    "longitude": "",
    "latitude": ""
  },
  {
    "id": "4243",
    "name": "Barley's Casino and Brewing Co",
    "brewery_type": "brewpub",
    "street": "4500 E Sunset Rd Ste 30",
    "city": "Henderson",
    "state": "Nevada",
    "postal_code": "89014-2253",
    "website_url": "http://www.wildfire.sclv.com/barleys",
    "phone": "7024582739",
    "created_at": "2018-07-24 01:33:44.221355",
    "updated_at": "2018-08-11 21:38:16.639723",
    "country": "United States",
    "longitude": "",
    "latitude": ""
  },
  {
    "id": "4244",
    "name": "Battle BornÂ® Beer",
    "brewery_type": "contract",
    "street": "100 N Arlington Ave Ste 100",
    "city": "Reno",
    "state": "Nevada",
    "postal_code": "89501-1233",
    "website_url": "http://battleborn.beer",
    "phone": "8183173128",
    "created_at": "2018-07-24 01:33:44.234828",
    "updated_at": "2018-08-11 21:38:16.697119",
    "country": "United States",
    "longitude": "",
    "latitude": ""
  },
  {
    "id": "4245",
    "name": "Big Dog's Brewing Co",
    "brewery_type": "brewpub",
    "street": "4547 N Rancho Dr Ste A",
    "city": "Las Vegas",
    "state": "Nevada",
    "postal_code": "89130-3432",
    "website_url": "http://www.bigdogsbrews.com",
    "phone": "7023683715",
    "created_at": "2018-07-24 01:33:44.248075",
    "updated_at": "2018-08-11 21:38:16.73823",
    "country": "United States",
    "longitude": "",
    "latitude": ""
  },
  {
    "id": "4251",
    "name": "Brewery in Planning - Las Vegas, NV",
    "brewery_type": "planning",
    "street": "",
    "city": "Las Vegas",
    "state": "Nevada",
    "postal_code": "89144",
    "website_url": "",
    "phone": "7023083440",
    "created_at": "2018-07-24 01:33:44.33484",
    "updated_at": "2018-08-11 21:38:16.939609",
    "country": "United States",
    "longitude": "",
    "latitude": ""
  },
  {
    "id": "4253",
    "name": "CraftHaus Brewery",
    "brewery_type": "micro",
    "street": "7350 Eastgate Rd Ste 110",
    "city": "Henderson",
    "state": "Nevada",
    "postal_code": "89011-4071",
    "website_url": "http://www.crafthausbrewery.com",
    "phone": "7024159184",
    "created_at": "2018-07-24 01:33:44.361508",
    "updated_at": "2018-08-11 21:38:16.99728",
    "country": "United States",
    "longitude": "",
    "latitude": ""
  },
  {
    "id": "4254",
    "name": "Ellis Island Casino and Brewery",
    "brewery_type": "brewpub",
    "street": "4178 Koval Ln",
    "city": "Las Vegas",
    "state": "Nevada",
    "postal_code": "89109-4568",
    "website_url": "",
    "phone": "",
    "created_at": "2018-07-24 01:33:44.375143",
    "updated_at": "2018-08-11 21:38:17.037505",
    "country": "United States",
    "longitude": "",
    "latitude": ""
  },
  {
    "id": "4258",
    "name": "Great Basin Brewing Co - Production Facility",
    "brewery_type": "micro",
    "street": "1155 S Rock Blvd Ste 490",
    "city": "Reno",
    "state": "Nevada",
    "postal_code": "89502-7174",
    "website_url": "http://www.greatbasinbrewingco.com",
    "phone": "7753557711",
    "created_at": "2018-07-24 01:33:44.427097",
    "updated_at": "2018-08-11 21:38:17.170075",
    "country": "United States",
    "longitude": "",
    "latitude": ""
  },
  {
    "id": "4259",
    "name": "Hop Nuts Brewing",
    "brewery_type": "micro",
    "street": "1120 S Main St Ste 150",
    "city": "Las Vegas",
    "state": "Nevada",
    "postal_code": "89104-1080",
    "website_url": "http://www.hopnutsbrewing.com",
    "phone": "7028165371",
    "created_at": "2018-07-24 01:33:44.439673",
    "updated_at": "2018-08-11 21:38:17.19907",
    "country": "United States",
    "longitude": "",
    "latitude": ""
  },
  {
    "id": "4261",
    "name": "Immortal Brewing Company",
    "brewery_type": "planning",
    "street": "",
    "city": "Las Vegas",
    "state": "Nevada",
    "postal_code": "89183-5893",
    "website_url": "http://www.immortalbrewco.com",
    "phone": "",
    "created_at": "2018-07-24 01:33:44.464928",
    "updated_at": "2018-08-11 21:38:17.252614",
    "country": "United States",
    "longitude": "",
    "latitude": ""
  },
  {
    "id": "4264",
    "name": "Little Vixen Brewing",
    "brewery_type": "planning",
    "street": "",
    "city": "Las Vegas",
    "state": "Nevada",
    "postal_code": "89138-6120",
    "website_url": "",
    "phone": "7759975936",
    "created_at": "2018-07-24 01:33:44.502775",
    "updated_at": "2018-08-11 21:38:17.346431",
    "country": "United States",
    "longitude": "",
    "latitude": ""
  },
  {
    "id": "4267",
    "name": "Nevadan Brewing Company",
    "brewery_type": "planning",
    "street": "",
    "city": "Las Vegas",
    "state": "Nevada",
    "postal_code": "89139-5939",
    "website_url": "http://nevadanbrewing.com",
    "phone": "7028455768",
    "created_at": "2018-07-24 01:33:44.541083",
    "updated_at": "2018-08-11 21:38:17.442493",
    "country": "United States",
    "longitude": "",
    "latitude": ""
  },
  {
    "id": "4272",
    "name": "Reno Brewery",
    "brewery_type": "planning",
    "street": "",
    "city": "Reno",
    "state": "Nevada",
    "postal_code": "89502-1807",
    "website_url": "http://www.renobrewery.com",
    "phone": "7756360014",
    "created_at": "2018-07-24 01:33:44.611994",
    "updated_at": "2018-08-11 21:38:17.605437",
    "country": "United States",
    "longitude": "",
    "latitude": ""
  },
  {
    "id": "4274",
    "name": "Ruby Mountain Brewing Co",
    "brewery_type": "micro",
    "street": "HC 60 Box 100",
    "city": "Wells",
    "state": "Nevada",
    "postal_code": "89835-9802",
    "website_url": "http://www.rubymountainbrewing.com",
    "phone": "7757522337",
    "created_at": "2018-07-24 01:33:44.641947",
    "updated_at": "2018-08-11 21:38:17.710634",
    "country": "United States",
    "longitude": "",
    "latitude": ""
  },
  {
    "id": "4275",
    "name": "Shoe Tree Brewing Co.",
    "brewery_type": "micro",
    "street": "1496 Old Hot Springs Rd",
    "city": "Carson City",
    "state": "Nevada",
    "postal_code": "89706-0627",
    "website_url": "http://www.shoetreebrewing.com",
    "phone": "7752220108",
    "created_at": "2018-07-24 01:33:44.656572",
    "updated_at": "2018-08-11 21:38:17.761227",
    "country": "United States",
    "longitude": "",
    "latitude": ""
  },
  {
    "id": "4277",
    "name": "Sin City Beer Co",
    "brewery_type": "contract",
    "street": "3663 Las Vegas Blvd S Ste 504 Miracle Mile Shops",
    "city": "Las Vegas",
    "state": "Nevada",
    "postal_code": "89109-1951",
    "website_url": "http://www.sincitybeer.com",
    "phone": "7028094939",
    "created_at": "2018-07-24 01:33:44.687994",
    "updated_at": "2018-08-11 21:38:17.8619",
    "country": "United States",
    "longitude": "",
    "latitude": ""
  },
  {
    "id": "4278",
    "name": "StoneyHead Brewing LLC",
    "brewery_type": "micro",
    "street": "5301 Longley Ln Ste 84C",
    "city": "Reno",
    "state": "Nevada",
    "postal_code": "89511-1873",
    "website_url": "http://www.stoneyheadbrewing.com",
    "phone": "7758292337",
    "created_at": "2018-07-24 01:33:44.701292",
    "updated_at": "2018-08-11 21:38:17.889518",
    "country": "United States",
    "longitude": "",
    "latitude": ""
  },
  {
    "id": "4279",
    "name": "Tenaya Creek Brewery",
    "brewery_type": "micro",
    "street": "831 W Bonanza Rd",
    "city": "Las Vegas",
    "state": "Nevada",
    "postal_code": "89106-3526",
    "website_url": "http://www.tenayacreek.com",
    "phone": "7023627335",
    "created_at": "2018-07-24 01:33:44.713964",
    "updated_at": "2018-08-11 21:38:17.943338",
    "country": "United States",
    "longitude": "",
    "latitude": ""
  },
  {
    "id": "4281",
    "name": "The Brewer's Cabinet",
    "brewery_type": "micro",
    "street": "475 S Arlington Ave Ste 1C",
    "city": "Reno",
    "state": "Nevada",
    "postal_code": "89501-2099",
    "website_url": "http://www.thebrewerscabinet.com",
    "phone": "7753487481",
    "created_at": "2018-07-24 01:33:44.739194",
    "updated_at": "2018-08-11 21:38:18.019305",
    "country": "United States",
    "longitude": "",
    "latitude": ""
  },
  {
    "id": "4237",
    "name": "10 Torr Distilling and Brewing",
    "brewery_type": "micro",
    "street": "490 Mill St",
    "city": "Reno",
    "state": "Nevada",
    "postal_code": "89502",
    "website_url": "http://www.10torr.com",
    "phone": "7755307014",
    "created_at": "2018-07-24 01:33:44.1409",
    "updated_at": "2018-08-24 00:47:53.12511",
    "country": "United States",
    "longitude": "-119.7732015",
    "latitude": "39.5171702"
  },
  {
    "id": "4246",
    "name": "BJs Restaurant & Brewery - Reno",
    "brewery_type": "brewpub",
    "street": "13999 S Virginia St",
    "city": "Reno",
    "state": "Nevada",
    "postal_code": "89511-8917",
    "website_url": "http://www.bjsbrewhouse.com",
    "phone": "7758537575",
    "created_at": "2018-07-24 01:33:44.263114",
    "updated_at": "2018-08-24 00:47:56.910854",
    "country": "United States",
    "longitude": "-119.8122668",
    "latitude": "39.5244083"
  },
  {
    "id": "4247",
    "name": "Boulder Dam Brewing Company",
    "brewery_type": "brewpub",
    "street": "453 Nevada Way",
    "city": "Boulder City",
    "state": "Nevada",
    "postal_code": "89005-2424",
    "website_url": "",
    "phone": "",
    "created_at": "2018-07-24 01:33:44.276386",
    "updated_at": "2018-08-24 00:47:57.381042",
    "country": "United States",
    "longitude": "-114.836937030699",
    "latitude": "35.9784209444158"
  },
  {
    "id": "4248",
    "name": "Brasserie Saint James",
    "brewery_type": "brewpub",
    "street": "901 S Center St",
    "city": "Reno",
    "state": "Nevada",
    "postal_code": "89501-2307",
    "website_url": "http://www.brasseriesaintjames.com",
    "phone": "7753488888",
    "created_at": "2018-07-24 01:33:44.289158",
    "updated_at": "2018-08-24 15:35:33.45044",
    "country": "United States",
    "longitude": "-119.807453074339",
    "latitude": "39.51655075"
  },
  {
    "id": "4255",
    "name": "Gordon Biersch Brewery Restaurant - Las Vegas",
    "brewery_type": "brewpub",
    "street": "3987 Paradise Rd",
    "city": "Las Vegas",
    "state": "Nevada",
    "postal_code": "89169-4607",
    "website_url": "http://www.craftworksrestaurants.com",
    "phone": "7023125247",
    "created_at": "2018-07-24 01:33:44.388648",
    "updated_at": "2018-08-24 15:35:35.44252",
    "country": "United States",
    "longitude": "-115.1545679",
    "latitude": "36.1442243"
  },
  {
    "id": "4256",
    "name": "Great Basin Brewing Co",
    "brewery_type": "brewpub",
    "street": "846 Victorian Ave",
    "city": "Sparks",
    "state": "Nevada",
    "postal_code": "89431-5275",
    "website_url": "http://www.greatbasinbrewingco.com",
    "phone": "7753557711",
    "created_at": "2018-07-24 01:33:44.401277",
    "updated_at": "2018-08-24 15:35:35.991461",
    "country": "United States",
    "longitude": "-119.775003",
    "latitude": "39.53533"
  },
  {
    "id": "4257",
    "name": "Great Basin Brewing Co",
    "brewery_type": "brewpub",
    "street": "5525 S Virginia St",
    "city": "Reno",
    "state": "Nevada",
    "postal_code": "89502-6085",
    "website_url": "http://www.greatbasinbrewingco.com",
    "phone": "7752847711",
    "created_at": "2018-07-24 01:33:44.413781",
    "updated_at": "2018-08-24 15:35:36.507884",
    "country": "United States",
    "longitude": "-119.789957",
    "latitude": "39.4762338"
  },
  {
    "id": "4260",
    "name": "IMBIB Custom Brews",
    "brewery_type": "micro",
    "street": "785 E 2nd St",
    "city": "Reno",
    "state": "Nevada",
    "postal_code": "89502-1018",
    "website_url": "http://www.imbib.beer",
    "phone": "7753033385",
    "created_at": "2018-07-24 01:33:44.452301",
    "updated_at": "2018-08-24 15:35:38.067016",
    "country": "United States",
    "longitude": "-119.80104028511",
    "latitude": "39.5274479155691"
  },
  {
    "id": "4262",
    "name": "Joseph James Brewing Co, Inc",
    "brewery_type": "micro",
    "street": "155 N Gibson Rd",
    "city": "Henderson",
    "state": "Nevada",
    "postal_code": "89014-6713",
    "website_url": "http://www.jjbrewco.com",
    "phone": "7024542739",
    "created_at": "2018-07-24 01:33:44.477724",
    "updated_at": "2018-08-24 15:35:38.652627",
    "country": "United States",
    "longitude": "-115.029408638421",
    "latitude": "36.0414687495589"
  },
  {
    "id": "4263",
    "name": "Lead Dog Brewing",
    "brewery_type": "micro",
    "street": "415 E 4th St",
    "city": "Reno",
    "state": "Nevada",
    "postal_code": "89512-3315",
    "website_url": "http://www.leaddogbrewing.com",
    "phone": "7753915110",
    "created_at": "2018-07-24 01:33:44.490207",
    "updated_at": "2018-08-24 15:35:39.175377",
    "country": "United States",
    "longitude": "-119.80844505",
    "latitude": "39.5316052"
  },
  {
    "id": "4265",
    "name": "Lovelady Brewing Company",
    "brewery_type": "micro",
    "street": "20 S Water St",
    "city": "Henderson",
    "state": "Nevada",
    "postal_code": "89015-7223",
    "website_url": "http://www.loveladybrewing.com",
    "phone": "7028578469",
    "created_at": "2018-07-24 01:33:44.515082",
    "updated_at": "2018-08-24 15:35:39.829264",
    "country": "United States",
    "longitude": "-114.98789744107",
    "latitude": "36.0380555773015"
  },
  {
    "id": "4266",
    "name": "Matties",
    "brewery_type": "bar",
    "street": "2535 Mountain City Hwy",
    "city": "Elko",
    "state": "Nevada",
    "postal_code": "89801-4496",
    "website_url": "http://www.mattiesbar-n-grill.com/",
    "phone": "7757535100",
    "created_at": "2018-07-24 01:33:44.528081",
    "updated_at": "2018-08-24 15:35:40.305889",
    "country": "United States",
    "longitude": "-115.793393",
    "latitude": "40.836405"
  },
  {
    "id": "4268",
    "name": "Occidental Brewing",
    "brewery_type": "brewpub",
    "street": "865 S Rock Blvd",
    "city": "Sparks",
    "state": "Nevada",
    "postal_code": "89431",
    "website_url": "",
    "phone": "7753984200",
    "created_at": "2018-07-24 01:33:44.554295",
    "updated_at": "2018-08-24 15:35:40.828032",
    "country": "United States",
    "longitude": "-119.760016123714",
    "latitude": "39.5011485423624"
  },
  {
    "id": "4270",
    "name": "Pints Brewery and Sports Bar",
    "brewery_type": "brewpub",
    "street": "2100 S Casino Dr",
    "city": "Laughlin",
    "state": "Nevada",
    "postal_code": "89029",
    "website_url": "http://www.coloradobelle.com",
    "phone": "7022984000",
    "created_at": "2018-07-24 01:33:44.584151",
    "updated_at": "2018-08-24 15:35:42.098516",
    "country": "United States",
    "longitude": "-114.574559",
    "latitude": "35.157448"
  },
  {
    "id": "4271",
    "name": "PT's Brewing Co.",
    "brewery_type": "micro",
    "street": "3101 N Tenaya Way",
    "city": "Las Vegas",
    "state": "Nevada",
    "postal_code": "89128-0437",
    "website_url": "",
    "phone": "",
    "created_at": "2018-07-24 01:33:44.598181",
    "updated_at": "2018-08-24 15:35:42.6789",
    "country": "United States",
    "longitude": "-115.2509527",
    "latitude": "36.1739188"
  },
  {
    "id": "4276",
    "name": "Silver Peak Restaurant and Brewery",
    "brewery_type": "brewpub",
    "street": "124 Wonder St",
    "city": "Reno",
    "state": "Nevada",
    "postal_code": "89502-2424",
    "website_url": "http://www.silverpeakbrewery.com",
    "phone": "7753241864",
    "created_at": "2018-07-24 01:33:44.668752",
    "updated_at": "2018-08-24 15:35:44.175229",
    "country": "United States",
    "longitude": "-119.806043346939",
    "latitude": "39.5139574897959"
  },
  {
    "id": "4280",
    "name": "The Brew Brothers/Eldorado Hotel and Casino",
    "brewery_type": "brewpub",
    "street": "345 N Virginia St",
    "city": "Reno",
    "state": "Nevada",
    "postal_code": "89501-1136",
    "website_url": "http://www.eldoradoresorts.com",
    "phone": "7757865700",
    "created_at": "2018-07-24 01:33:44.726693",
    "updated_at": "2018-08-24 15:35:46.142598",
    "country": "United States",
    "longitude": "-119.8164176",
    "latitude": "39.5367577"
  },
  {
    "id": "4282",
    "name": "The Depot Craft Brewery Distillery",
    "brewery_type": "brewpub",
    "street": "325 E 4th St",
    "city": "Reno",
    "state": "Nevada",
    "postal_code": "89512-3313",
    "website_url": "http://www.thedepotreno.com",
    "phone": "7757374330",
    "created_at": "2018-07-24 01:33:44.75346",
    "updated_at": "2018-08-24 15:35:47.286565",
    "country": "United States",
    "longitude": "-119.809561023407",
    "latitude": "39.53112425"
  },
  {
    "id": "4285",
    "name": "Triple 7 Restaurant & Brewery at Main St Station",
    "brewery_type": "brewpub",
    "street": "200 N Main St Main Street Station Casino",
    "city": "Las Vegas",
    "state": "Nevada",
    "postal_code": "89101-2910",
    "website_url": "http://www.mainstreetcasino.com",
    "phone": "7023871896",
    "created_at": "2018-07-24 01:33:44.794296",
    "updated_at": "2018-08-11 21:38:18.202462",
    "country": "United States",
    "longitude": "",
    "latitude": ""
  },
  {
    "id": "4286",
    "name": "Two Bald Guys Beverage Co",
    "brewery_type": "contract",
    "street": "18090 Hazelnut Dr",
    "city": "Reno",
    "state": "Nevada",
    "postal_code": "89508-6898",
    "website_url": "http://www.drinktwobaldguys.com",
    "phone": "",
    "created_at": "2018-07-24 01:33:44.8068",
    "updated_at": "2018-08-11 21:38:18.2872",
    "country": "United States",
    "longitude": "",
    "latitude": ""
  },
  {
    "id": "4287",
    "name": "Under the Rose Brewing Company",
    "brewery_type": "micro",
    "street": "559 E 4th St",
    "city": "Reno",
    "state": "Nevada",
    "postal_code": "89512-3317",
    "website_url": "",
    "phone": "7756576619",
    "created_at": "2018-07-24 01:33:44.81949",
    "updated_at": "2018-08-24 15:35:50.874589",
    "country": "United States",
    "longitude": "-119.8063947",
    "latitude": "39.5315258"
  },
  {
    "id": "4288",
    "name": "Under the Rose Brewing Company MidTown Location",
    "brewery_type": "brewpub",
    "street": "1041 S Virginia St",
    "city": "Reno",
    "state": "Nevada",
    "postal_code": "89502",
    "website_url": "",
    "phone": "",
    "created_at": "2018-07-24 01:33:44.83237",
    "updated_at": "2018-08-24 15:35:51.41105",
    "country": "United States",
    "longitude": "-119.807260444444",
    "latitude": "39.5138747777778"
  },
  {
    "id": "4289",
    "name": "Virginia City Brewery & Taphouse",
    "brewery_type": "brewpub",
    "street": "62 North C Street",
    "city": "Virginia City",
    "state": "Nevada",
    "postal_code": "89440",
    "website_url": "http://www.virginiacitybreweryandtaphouse.com",
    "phone": "7758477064",
    "created_at": "2018-07-24 01:33:44.84832",
    "updated_at": "2018-08-24 15:35:51.972994",
    "country": "United States",
    "longitude": "-119.648264",
    "latitude": "39.314358"
  },
  {
    "id": "4238",
    "name": "Able Baker Brewing",
    "brewery_type": "micro",
    "street": "1051 Mary Crest Rd #K",
    "city": "Henderson",
    "state": "Nevada",
    "postal_code": "89104",
    "website_url": "http://www.ablebakerbrewing.com",
    "phone": "7025817742",
    "created_at": "2018-07-24 01:33:44.153989",
    "updated_at": "2018-08-11 21:38:16.466071",
    "country": "United States",
    "longitude": "",
    "latitude": ""
  },
  {
    "id": "4240",
    "name": "Astronomy Aleworks",
    "brewery_type": "planning",
    "street": "",
    "city": "Henderson",
    "state": "Nevada",
    "postal_code": "89011",
    "website_url": "http://astronomyaleworks.com",
    "phone": "7023754968",
    "created_at": "2018-07-24 01:33:44.1808",
    "updated_at": "2018-08-11 21:38:16.53872",
    "country": "United States",
    "longitude": "",
    "latitude": ""
  },
  {
    "id": "4241",
    "name": "Bad Beat Brewing",
    "brewery_type": "micro",
    "street": "7380 Eastgate Rd Ste 110",
    "city": "Henderson",
    "state": "Nevada",
    "postal_code": "89011-4012",
    "website_url": "http://www.badbeatbrewing.com",
    "phone": "7024634199",
    "created_at": "2018-07-24 01:33:44.193501",
    "updated_at": "2018-08-11 21:38:16.567514",
    "country": "United States",
    "longitude": "",
    "latitude": ""
  },
  {
    "id": "4242",
    "name": "Banger Brewing Co",
    "brewery_type": "micro",
    "street": "450 Fremont St Ste 135",
    "city": "Las Vegas",
    "state": "Nevada",
    "postal_code": "89101-5649",
    "website_url": "http://www.bangerbrewing.com",
    "phone": "7024562739",
    "created_at": "2018-07-24 01:33:44.207532",
    "updated_at": "2018-08-11 21:38:16.60598",
    "country": "United States",
    "longitude": "",
    "latitude": ""
  },
  {
    "id": "4249",
    "name": "Brasserie Saint James - The Saint Barrelhouse",
    "brewery_type": "micro",
    "street": "761 S. Virginia St",
    "city": "Reno",
    "state": "Nevada",
    "postal_code": "89501-2307",
    "website_url": "",
    "phone": "7753488888",
    "created_at": "2018-07-24 01:33:44.302924",
    "updated_at": "2018-08-24 15:35:33.946534",
    "country": "United States",
    "longitude": "-119.8090037",
    "latitude": "39.5173316"
  },
  {
    "id": "4252",
    "name": "Chicago Brewing Co - NV",
    "brewery_type": "brewpub",
    "street": "2201 S Fort Apache Rd",
    "city": "Las Vegas",
    "state": "Nevada",
    "postal_code": "89117-5704",
    "website_url": "http://www.chicagobrewingcolv.com",
    "phone": "7022543333",
    "created_at": "2018-07-24 01:33:44.348287",
    "updated_at": "2018-08-24 15:35:34.449266",
    "country": "United States",
    "longitude": "-115.2983835",
    "latitude": "36.1475868"
  },
  {
    "id": "4273",
    "name": "Revision Brewing Company",
    "brewery_type": "micro",
    "street": "380 S Rock Blvd",
    "city": "Sparks",
    "state": "Nevada",
    "postal_code": "89431-5545",
    "website_url": "http://www.revisionbrewing.com",
    "phone": "7753312739",
    "created_at": "2018-07-24 01:33:44.625266",
    "updated_at": "2018-08-24 15:35:43.138298",
    "country": "United States",
    "longitude": "-119.762654",
    "latitude": "39.511243"
  },
  {
    "id": "4239",
    "name": "Alibi Ale Works",
    "brewery_type": "micro",
    "street": "204 E Enterprise St",
    "city": "Incline Village",
    "state": "Nevada",
    "postal_code": "89451-9456",
    "website_url": "http://www.alibialeworks.com",
    "phone": "7752987001",
    "created_at": "2018-07-24 01:33:44.168158",
    "updated_at": "2018-08-24 00:47:54.027809",
    "country": "United States",
    "longitude": "-119.953711697581",
    "latitude": "39.2481932808664"
  },
  {
    "id": "4269",
    "name": "Pigeon Head Brewery",
    "brewery_type": "micro",
    "street": "840 E 5th St",
    "city": "Reno",
    "state": "Nevada",
    "postal_code": "89512-3508",
    "website_url": "http://www.pigeonheadbrewery.com",
    "phone": "7752766766",
    "created_at": "2018-07-24 01:33:44.57082",
    "updated_at": "2018-08-24 15:35:41.541706",
    "country": "United States",
    "longitude": "-119.802684979592",
    "latitude": "39.5333757755102"
  },
  {
    "id": "4283",
    "name": "The Fox Brewpub",
    "brewery_type": "brewpub",
    "street": "310 S Carson St",
    "city": "Carson City",
    "state": "Nevada",
    "postal_code": "89701-4754",
    "website_url": "http://www.foxbrewpub.com",
    "phone": "7758831369",
    "created_at": "2018-07-24 01:33:44.766809",
    "updated_at": "2018-08-24 15:35:47.985865",
    "country": "United States",
    "longitude": "-119.7708155",
    "latitude": "39.1269616"
  },
  {
    "id": "4284",
    "name": "Tonopah Brewing Co",
    "brewery_type": "brewpub",
    "street": "315 S Main St",
    "city": "Tonopah",
    "state": "Nevada",
    "postal_code": "89049",
    "website_url": "http://www.tonopahbrewing.com",
    "phone": "7754822000",
    "created_at": "2018-07-24 01:33:44.780527",
    "updated_at": "2018-08-24 15:35:48.724249",
    "country": "United States",
    "longitude": "-117.231982349599",
    "latitude": "38.070350236911"
  },
  {
    "id": "4250",
    "name": "Brewery In Planning - Las Vegas",
    "brewery_type": "planning",
    "street": "",
    "city": "Las Vegas",
    "state": "Nevada",
    "postal_code": "89144-4473",
    "website_url": "",
    "phone": "",
    "created_at": "2018-07-24 01:33:44.317288",
    "updated_at": "2018-08-11 21:38:16.910392",
    "country": "United States",
    "longitude": "",
    "latitude": ""
  },
  {
    "id": "4243",
    "name": "Barley's Casino and Brewing Co",
    "brewery_type": "brewpub",
    "street": "4500 E Sunset Rd Ste 30",
    "city": "Henderson",
    "state": "Nevada",
    "postal_code": "89014-2253",
    "website_url": "http://www.wildfire.sclv.com/barleys",
    "phone": "7024582739",
    "created_at": "2018-07-24 01:33:44.221355",
    "updated_at": "2018-08-11 21:38:16.639723",
    "country": "United States",
    "longitude": "",
    "latitude": ""
  },
  {
    "id": "4244",
    "name": "Battle BornÂ® Beer",
    "brewery_type": "contract",
    "street": "100 N Arlington Ave Ste 100",
    "city": "Reno",
    "state": "Nevada",
    "postal_code": "89501-1233",
    "website_url": "http://battleborn.beer",
    "phone": "8183173128",
    "created_at": "2018-07-24 01:33:44.234828",
    "updated_at": "2018-08-11 21:38:16.697119",
    "country": "United States",
    "longitude": "",
    "latitude": ""
  },
  {
    "id": "4245",
    "name": "Big Dog's Brewing Co",
    "brewery_type": "brewpub",
    "street": "4547 N Rancho Dr Ste A",
    "city": "Las Vegas",
    "state": "Nevada",
    "postal_code": "89130-3432",
    "website_url": "http://www.bigdogsbrews.com",
    "phone": "7023683715",
    "created_at": "2018-07-24 01:33:44.248075",
    "updated_at": "2018-08-11 21:38:16.73823",
    "country": "United States",
    "longitude": "",
    "latitude": ""
  },
  {
    "id": "4251",
    "name": "Brewery in Planning - Las Vegas, NV",
    "brewery_type": "planning",
    "street": "",
    "city": "Las Vegas",
    "state": "Nevada",
    "postal_code": "89144",
    "website_url": "",
    "phone": "7023083440",
    "created_at": "2018-07-24 01:33:44.33484",
    "updated_at": "2018-08-11 21:38:16.939609",
    "country": "United States",
    "longitude": "",
    "latitude": ""
  },
  {
    "id": "4253",
    "name": "CraftHaus Brewery",
    "brewery_type": "micro",
    "street": "7350 Eastgate Rd Ste 110",
    "city": "Henderson",
    "state": "Nevada",
    "postal_code": "89011-4071",
    "website_url": "http://www.crafthausbrewery.com",
    "phone": "7024159184",
    "created_at": "2018-07-24 01:33:44.361508",
    "updated_at": "2018-08-11 21:38:16.99728",
    "country": "United States",
    "longitude": "",
    "latitude": ""
  },
  {
    "id": "4254",
    "name": "Ellis Island Casino and Brewery",
    "brewery_type": "brewpub",
    "street": "4178 Koval Ln",
    "city": "Las Vegas",
    "state": "Nevada",
    "postal_code": "89109-4568",
    "website_url": "",
    "phone": "",
    "created_at": "2018-07-24 01:33:44.375143",
    "updated_at": "2018-08-11 21:38:17.037505",
    "country": "United States",
    "longitude": "",
    "latitude": ""
  },
  {
    "id": "4258",
    "name": "Great Basin Brewing Co - Production Facility",
    "brewery_type": "micro",
    "street": "1155 S Rock Blvd Ste 490",
    "city": "Reno",
    "state": "Nevada",
    "postal_code": "89502-7174",
    "website_url": "http://www.greatbasinbrewingco.com",
    "phone": "7753557711",
    "created_at": "2018-07-24 01:33:44.427097",
    "updated_at": "2018-08-11 21:38:17.170075",
    "country": "United States",
    "longitude": "",
    "latitude": ""
  },
  {
    "id": "4259",
    "name": "Hop Nuts Brewing",
    "brewery_type": "micro",
    "street": "1120 S Main St Ste 150",
    "city": "Las Vegas",
    "state": "Nevada",
    "postal_code": "89104-1080",
    "website_url": "http://www.hopnutsbrewing.com",
    "phone": "7028165371",
    "created_at": "2018-07-24 01:33:44.439673",
    "updated_at": "2018-08-11 21:38:17.19907",
    "country": "United States",
    "longitude": "",
    "latitude": ""
  },
  {
    "id": "4261",
    "name": "Immortal Brewing Company",
    "brewery_type": "planning",
    "street": "",
    "city": "Las Vegas",
    "state": "Nevada",
    "postal_code": "89183-5893",
    "website_url": "http://www.immortalbrewco.com",
    "phone": "",
    "created_at": "2018-07-24 01:33:44.464928",
    "updated_at": "2018-08-11 21:38:17.252614",
    "country": "United States",
    "longitude": "",
    "latitude": ""
  },
  {
    "id": "4264",
    "name": "Little Vixen Brewing",
    "brewery_type": "planning",
    "street": "",
    "city": "Las Vegas",
    "state": "Nevada",
    "postal_code": "89138-6120",
    "website_url": "",
    "phone": "7759975936",
    "created_at": "2018-07-24 01:33:44.502775",
    "updated_at": "2018-08-11 21:38:17.346431",
    "country": "United States",
    "longitude": "",
    "latitude": ""
  },
  {
    "id": "4267",
    "name": "Nevadan Brewing Company",
    "brewery_type": "planning",
    "street": "",
    "city": "Las Vegas",
    "state": "Nevada",
    "postal_code": "89139-5939",
    "website_url": "http://nevadanbrewing.com",
    "phone": "7028455768",
    "created_at": "2018-07-24 01:33:44.541083",
    "updated_at": "2018-08-11 21:38:17.442493",
    "country": "United States",
    "longitude": "",
    "latitude": ""
  },
  {
    "id": "4272",
    "name": "Reno Brewery",
    "brewery_type": "planning",
    "street": "",
    "city": "Reno",
    "state": "Nevada",
    "postal_code": "89502-1807",
    "website_url": "http://www.renobrewery.com",
    "phone": "7756360014",
    "created_at": "2018-07-24 01:33:44.611994",
    "updated_at": "2018-08-11 21:38:17.605437",
    "country": "United States",
    "longitude": "",
    "latitude": ""
  },
  {
    "id": "4274",
    "name": "Ruby Mountain Brewing Co",
    "brewery_type": "micro",
    "street": "HC 60 Box 100",
    "city": "Wells",
    "state": "Nevada",
    "postal_code": "89835-9802",
    "website_url": "http://www.rubymountainbrewing.com",
    "phone": "7757522337",
    "created_at": "2018-07-24 01:33:44.641947",
    "updated_at": "2018-08-11 21:38:17.710634",
    "country": "United States",
    "longitude": "",
    "latitude": ""
  },
  {
    "id": "4275",
    "name": "Shoe Tree Brewing Co.",
    "brewery_type": "micro",
    "street": "1496 Old Hot Springs Rd",
    "city": "Carson City",
    "state": "Nevada",
    "postal_code": "89706-0627",
    "website_url": "http://www.shoetreebrewing.com",
    "phone": "7752220108",
    "created_at": "2018-07-24 01:33:44.656572",
    "updated_at": "2018-08-11 21:38:17.761227",
    "country": "United States",
    "longitude": "",
    "latitude": ""
  },
  {
    "id": "4277",
    "name": "Sin City Beer Co",
    "brewery_type": "contract",
    "street": "3663 Las Vegas Blvd S Ste 504 Miracle Mile Shops",
    "city": "Las Vegas",
    "state": "Nevada",
    "postal_code": "89109-1951",
    "website_url": "http://www.sincitybeer.com",
    "phone": "7028094939",
    "created_at": "2018-07-24 01:33:44.687994",
    "updated_at": "2018-08-11 21:38:17.8619",
    "country": "United States",
    "longitude": "",
    "latitude": ""
  },
  {
    "id": "4278",
    "name": "StoneyHead Brewing LLC",
    "brewery_type": "micro",
    "street": "5301 Longley Ln Ste 84C",
    "city": "Reno",
    "state": "Nevada",
    "postal_code": "89511-1873",
    "website_url": "http://www.stoneyheadbrewing.com",
    "phone": "7758292337",
    "created_at": "2018-07-24 01:33:44.701292",
    "updated_at": "2018-08-11 21:38:17.889518",
    "country": "United States",
    "longitude": "",
    "latitude": ""
  },
  {
    "id": "4279",
    "name": "Tenaya Creek Brewery",
    "brewery_type": "micro",
    "street": "831 W Bonanza Rd",
    "city": "Las Vegas",
    "state": "Nevada",
    "postal_code": "89106-3526",
    "website_url": "http://www.tenayacreek.com",
    "phone": "7023627335",
    "created_at": "2018-07-24 01:33:44.713964",
    "updated_at": "2018-08-11 21:38:17.943338",
    "country": "United States",
    "longitude": "",
    "latitude": ""
  },
  {
    "id": "4281",
    "name": "The Brewer's Cabinet",
    "brewery_type": "micro",
    "street": "475 S Arlington Ave Ste 1C",
    "city": "Reno",
    "state": "Nevada",
    "postal_code": "89501-2099",
    "website_url": "http://www.thebrewerscabinet.com",
    "phone": "7753487481",
    "created_at": "2018-07-24 01:33:44.739194",
    "updated_at": "2018-08-11 21:38:18.019305",
    "country": "United States",
    "longitude": "",
    "latitude": ""
  },
  {
    "id": "4237",
    "name": "10 Torr Distilling and Brewing",
    "brewery_type": "micro",
    "street": "490 Mill St",
    "city": "Reno",
    "state": "Nevada",
    "postal_code": "89502",
    "website_url": "http://www.10torr.com",
    "phone": "7755307014",
    "created_at": "2018-07-24 01:33:44.1409",
    "updated_at": "2018-08-24 00:47:53.12511",
    "country": "United States",
    "longitude": "-119.7732015",
    "latitude": "39.5171702"
  },
  {
    "id": "4246",
    "name": "BJs Restaurant & Brewery - Reno",
    "brewery_type": "brewpub",
    "street": "13999 S Virginia St",
    "city": "Reno",
    "state": "Nevada",
    "postal_code": "89511-8917",
    "website_url": "http://www.bjsbrewhouse.com",
    "phone": "7758537575",
    "created_at": "2018-07-24 01:33:44.263114",
    "updated_at": "2018-08-24 00:47:56.910854",
    "country": "United States",
    "longitude": "-119.8122668",
    "latitude": "39.5244083"
  },
  {
    "id": "4247",
    "name": "Boulder Dam Brewing Company",
    "brewery_type": "brewpub",
    "street": "453 Nevada Way",
    "city": "Boulder City",
    "state": "Nevada",
    "postal_code": "89005-2424",
    "website_url": "",
    "phone": "",
    "created_at": "2018-07-24 01:33:44.276386",
    "updated_at": "2018-08-24 00:47:57.381042",
    "country": "United States",
    "longitude": "-114.836937030699",
    "latitude": "35.9784209444158"
  },
  {
    "id": "4248",
    "name": "Brasserie Saint James",
    "brewery_type": "brewpub",
    "street": "901 S Center St",
    "city": "Reno",
    "state": "Nevada",
    "postal_code": "89501-2307",
    "website_url": "http://www.brasseriesaintjames.com",
    "phone": "7753488888",
    "created_at": "2018-07-24 01:33:44.289158",
    "updated_at": "2018-08-24 15:35:33.45044",
    "country": "United States",
    "longitude": "-119.807453074339",
    "latitude": "39.51655075"
  },
  {
    "id": "4255",
    "name": "Gordon Biersch Brewery Restaurant - Las Vegas",
    "brewery_type": "brewpub",
    "street": "3987 Paradise Rd",
    "city": "Las Vegas",
    "state": "Nevada",
    "postal_code": "89169-4607",
    "website_url": "http://www.craftworksrestaurants.com",
    "phone": "7023125247",
    "created_at": "2018-07-24 01:33:44.388648",
    "updated_at": "2018-08-24 15:35:35.44252",
    "country": "United States",
    "longitude": "-115.1545679",
    "latitude": "36.1442243"
  },
  {
    "id": "4256",
    "name": "Great Basin Brewing Co",
    "brewery_type": "brewpub",
    "street": "846 Victorian Ave",
    "city": "Sparks",
    "state": "Nevada",
    "postal_code": "89431-5275",
    "website_url": "http://www.greatbasinbrewingco.com",
    "phone": "7753557711",
    "created_at": "2018-07-24 01:33:44.401277",
    "updated_at": "2018-08-24 15:35:35.991461",
    "country": "United States",
    "longitude": "-119.775003",
    "latitude": "39.53533"
  },
  {
    "id": "4257",
    "name": "Great Basin Brewing Co",
    "brewery_type": "brewpub",
    "street": "5525 S Virginia St",
    "city": "Reno",
    "state": "Nevada",
    "postal_code": "89502-6085",
    "website_url": "http://www.greatbasinbrewingco.com",
    "phone": "7752847711",
    "created_at": "2018-07-24 01:33:44.413781",
    "updated_at": "2018-08-24 15:35:36.507884",
    "country": "United States",
    "longitude": "-119.789957",
    "latitude": "39.4762338"
  },
  {
    "id": "4260",
    "name": "IMBIB Custom Brews",
    "brewery_type": "micro",
    "street": "785 E 2nd St",
    "city": "Reno",
    "state": "Nevada",
    "postal_code": "89502-1018",
    "website_url": "http://www.imbib.beer",
    "phone": "7753033385",
    "created_at": "2018-07-24 01:33:44.452301",
    "updated_at": "2018-08-24 15:35:38.067016",
    "country": "United States",
    "longitude": "-119.80104028511",
    "latitude": "39.5274479155691"
  },
  {
    "id": "4262",
    "name": "Joseph James Brewing Co, Inc",
    "brewery_type": "micro",
    "street": "155 N Gibson Rd",
    "city": "Henderson",
    "state": "Nevada",
    "postal_code": "89014-6713",
    "website_url": "http://www.jjbrewco.com",
    "phone": "7024542739",
    "created_at": "2018-07-24 01:33:44.477724",
    "updated_at": "2018-08-24 15:35:38.652627",
    "country": "United States",
    "longitude": "-115.029408638421",
    "latitude": "36.0414687495589"
  },
  {
    "id": "4263",
    "name": "Lead Dog Brewing",
    "brewery_type": "micro",
    "street": "415 E 4th St",
    "city": "Reno",
    "state": "Nevada",
    "postal_code": "89512-3315",
    "website_url": "http://www.leaddogbrewing.com",
    "phone": "7753915110",
    "created_at": "2018-07-24 01:33:44.490207",
    "updated_at": "2018-08-24 15:35:39.175377",
    "country": "United States",
    "longitude": "-119.80844505",
    "latitude": "39.5316052"
  },
  {
    "id": "4265",
    "name": "Lovelady Brewing Company",
    "brewery_type": "micro",
    "street": "20 S Water St",
    "city": "Henderson",
    "state": "Nevada",
    "postal_code": "89015-7223",
    "website_url": "http://www.loveladybrewing.com",
    "phone": "7028578469",
    "created_at": "2018-07-24 01:33:44.515082",
    "updated_at": "2018-08-24 15:35:39.829264",
    "country": "United States",
    "longitude": "-114.98789744107",
    "latitude": "36.0380555773015"
  },
  {
    "id": "4266",
    "name": "Matties",
    "brewery_type": "bar",
    "street": "2535 Mountain City Hwy",
    "city": "Elko",
    "state": "Nevada",
    "postal_code": "89801-4496",
    "website_url": "http://www.mattiesbar-n-grill.com/",
    "phone": "7757535100",
    "created_at": "2018-07-24 01:33:44.528081",
    "updated_at": "2018-08-24 15:35:40.305889",
    "country": "United States",
    "longitude": "-115.793393",
    "latitude": "40.836405"
  },
  {
    "id": "4268",
    "name": "Occidental Brewing",
    "brewery_type": "brewpub",
    "street": "865 S Rock Blvd",
    "city": "Sparks",
    "state": "Nevada",
    "postal_code": "89431",
    "website_url": "",
    "phone": "7753984200",
    "created_at": "2018-07-24 01:33:44.554295",
    "updated_at": "2018-08-24 15:35:40.828032",
    "country": "United States",
    "longitude": "-119.760016123714",
    "latitude": "39.5011485423624"
  },
  {
    "id": "4270",
    "name": "Pints Brewery and Sports Bar",
    "brewery_type": "brewpub",
    "street": "2100 S Casino Dr",
    "city": "Laughlin",
    "state": "Nevada",
    "postal_code": "89029",
    "website_url": "http://www.coloradobelle.com",
    "phone": "7022984000",
    "created_at": "2018-07-24 01:33:44.584151",
    "updated_at": "2018-08-24 15:35:42.098516",
    "country": "United States",
    "longitude": "-114.574559",
    "latitude": "35.157448"
  },
  {
    "id": "4271",
    "name": "PT's Brewing Co.",
    "brewery_type": "micro",
    "street": "3101 N Tenaya Way",
    "city": "Las Vegas",
    "state": "Nevada",
    "postal_code": "89128-0437",
    "website_url": "",
    "phone": "",
    "created_at": "2018-07-24 01:33:44.598181",
    "updated_at": "2018-08-24 15:35:42.6789",
    "country": "United States",
    "longitude": "-115.2509527",
    "latitude": "36.1739188"
  },
  {
    "id": "4276",
    "name": "Silver Peak Restaurant and Brewery",
    "brewery_type": "brewpub",
    "street": "124 Wonder St",
    "city": "Reno",
    "state": "Nevada",
    "postal_code": "89502-2424",
    "website_url": "http://www.silverpeakbrewery.com",
    "phone": "7753241864",
    "created_at": "2018-07-24 01:33:44.668752",
    "updated_at": "2018-08-24 15:35:44.175229",
    "country": "United States",
    "longitude": "-119.806043346939",
    "latitude": "39.5139574897959"
  },
  {
    "id": "4280",
    "name": "The Brew Brothers/Eldorado Hotel and Casino",
    "brewery_type": "brewpub",
    "street": "345 N Virginia St",
    "city": "Reno",
    "state": "Nevada",
    "postal_code": "89501-1136",
    "website_url": "http://www.eldoradoresorts.com",
    "phone": "7757865700",
    "created_at": "2018-07-24 01:33:44.726693",
    "updated_at": "2018-08-24 15:35:46.142598",
    "country": "United States",
    "longitude": "-119.8164176",
    "latitude": "39.5367577"
  },
  {
    "id": "4282",
    "name": "The Depot Craft Brewery Distillery",
    "brewery_type": "brewpub",
    "street": "325 E 4th St",
    "city": "Reno",
    "state": "Nevada",
    "postal_code": "89512-3313",
    "website_url": "http://www.thedepotreno.com",
    "phone": "7757374330",
    "created_at": "2018-07-24 01:33:44.75346",
    "updated_at": "2018-08-24 15:35:47.286565",
    "country": "United States",
    "longitude": "-119.809561023407",
    "latitude": "39.53112425"
  },
  {
    "id": "4285",
    "name": "Triple 7 Restaurant & Brewery at Main St Station",
    "brewery_type": "brewpub",
    "street": "200 N Main St Main Street Station Casino",
    "city": "Las Vegas",
    "state": "Nevada",
    "postal_code": "89101-2910",
    "website_url": "http://www.mainstreetcasino.com",
    "phone": "7023871896",
    "created_at": "2018-07-24 01:33:44.794296",
    "updated_at": "2018-08-11 21:38:18.202462",
    "country": "United States",
    "longitude": "",
    "latitude": ""
  },
  {
    "id": "4286",
    "name": "Two Bald Guys Beverage Co",
    "brewery_type": "contract",
    "street": "18090 Hazelnut Dr",
    "city": "Reno",
    "state": "Nevada",
    "postal_code": "89508-6898",
    "website_url": "http://www.drinktwobaldguys.com",
    "phone": "",
    "created_at": "2018-07-24 01:33:44.8068",
    "updated_at": "2018-08-11 21:38:18.2872",
    "country": "United States",
    "longitude": "",
    "latitude": ""
  },
  {
    "id": "4287",
    "name": "Under the Rose Brewing Company",
    "brewery_type": "micro",
    "street": "559 E 4th St",
    "city": "Reno",
    "state": "Nevada",
    "postal_code": "89512-3317",
    "website_url": "",
    "phone": "7756576619",
    "created_at": "2018-07-24 01:33:44.81949",
    "updated_at": "2018-08-24 15:35:50.874589",
    "country": "United States",
    "longitude": "-119.8063947",
    "latitude": "39.5315258"
  },
  {
    "id": "4288",
    "name": "Under the Rose Brewing Company MidTown Location",
    "brewery_type": "brewpub",
    "street": "1041 S Virginia St",
    "city": "Reno",
    "state": "Nevada",
    "postal_code": "89502",
    "website_url": "",
    "phone": "",
    "created_at": "2018-07-24 01:33:44.83237",
    "updated_at": "2018-08-24 15:35:51.41105",
    "country": "United States",
    "longitude": "-119.807260444444",
    "latitude": "39.5138747777778"
  },
  {
    "id": "4289",
    "name": "Virginia City Brewery & Taphouse",
    "brewery_type": "brewpub",
    "street": "62 North C Street",
    "city": "Virginia City",
    "state": "Nevada",
    "postal_code": "89440",
    "website_url": "http://www.virginiacitybreweryandtaphouse.com",
    "phone": "7758477064",
    "created_at": "2018-07-24 01:33:44.84832",
    "updated_at": "2018-08-24 15:35:51.972994",
    "country": "United States",
    "longitude": "-119.648264",
    "latitude": "39.314358"
  },
  {
    "id": "4238",
    "name": "Able Baker Brewing",
    "brewery_type": "micro",
    "street": "1051 Mary Crest Rd #K",
    "city": "Henderson",
    "state": "Nevada",
    "postal_code": "89104",
    "website_url": "http://www.ablebakerbrewing.com",
    "phone": "7025817742",
    "created_at": "2018-07-24 01:33:44.153989",
    "updated_at": "2018-08-11 21:38:16.466071",
    "country": "United States",
    "longitude": "",
    "latitude": ""
  },
  {
    "id": "4240",
    "name": "Astronomy Aleworks",
    "brewery_type": "planning",
    "street": "",
    "city": "Henderson",
    "state": "Nevada",
    "postal_code": "89011",
    "website_url": "http://astronomyaleworks.com",
    "phone": "7023754968",
    "created_at": "2018-07-24 01:33:44.1808",
    "updated_at": "2018-08-11 21:38:16.53872",
    "country": "United States",
    "longitude": "",
    "latitude": ""
  },
  {
    "id": "4241",
    "name": "Bad Beat Brewing",
    "brewery_type": "micro",
    "street": "7380 Eastgate Rd Ste 110",
    "city": "Henderson",
    "state": "Nevada",
    "postal_code": "89011-4012",
    "website_url": "http://www.badbeatbrewing.com",
    "phone": "7024634199",
    "created_at": "2018-07-24 01:33:44.193501",
    "updated_at": "2018-08-11 21:38:16.567514",
    "country": "United States",
    "longitude": "",
    "latitude": ""
  },
  {
    "id": "4242",
    "name": "Banger Brewing Co",
    "brewery_type": "micro",
    "street": "450 Fremont St Ste 135",
    "city": "Las Vegas",
    "state": "Nevada",
    "postal_code": "89101-5649",
    "website_url": "http://www.bangerbrewing.com",
    "phone": "7024562739",
    "created_at": "2018-07-24 01:33:44.207532",
    "updated_at": "2018-08-11 21:38:16.60598",
    "country": "United States",
    "longitude": "",
    "latitude": ""
  },
  {
    "id": "4249",
    "name": "Brasserie Saint James - The Saint Barrelhouse",
    "brewery_type": "micro",
    "street": "761 S. Virginia St",
    "city": "Reno",
    "state": "Nevada",
    "postal_code": "89501-2307",
    "website_url": "",
    "phone": "7753488888",
    "created_at": "2018-07-24 01:33:44.302924",
    "updated_at": "2018-08-24 15:35:33.946534",
    "country": "United States",
    "longitude": "-119.8090037",
    "latitude": "39.5173316"
  },
  {
    "id": "4252",
    "name": "Chicago Brewing Co - NV",
    "brewery_type": "brewpub",
    "street": "2201 S Fort Apache Rd",
    "city": "Las Vegas",
    "state": "Nevada",
    "postal_code": "89117-5704",
    "website_url": "http://www.chicagobrewingcolv.com",
    "phone": "7022543333",
    "created_at": "2018-07-24 01:33:44.348287",
    "updated_at": "2018-08-24 15:35:34.449266",
    "country": "United States",
    "longitude": "-115.2983835",
    "latitude": "36.1475868"
  },
  {
    "id": "4273",
    "name": "Revision Brewing Company",
    "brewery_type": "micro",
    "street": "380 S Rock Blvd",
    "city": "Sparks",
    "state": "Nevada",
    "postal_code": "89431-5545",
    "website_url": "http://www.revisionbrewing.com",
    "phone": "7753312739",
    "created_at": "2018-07-24 01:33:44.625266",
    "updated_at": "2018-08-24 15:35:43.138298",
    "country": "United States",
    "longitude": "-119.762654",
    "latitude": "39.511243"
  }
]