[
  {
    "id": "4301",
    "name": "Big Water Brewery",
    "brewery_type": "micro",
    "street": "24 Robie Rd",
    "city": "Salisbury",
    "state": "New Hampshire",
    "postal_code": "03268-5423",
    "website_url": "http://www.bigwaterbrewery.net",
    "phone": "6036486068",
    "created_at": "2018-07-24 01:33:45.142888",
    "updated_at": "2018-08-24 15:35:58.480466",
    "country": "United States",
    "longitude": "-71.717004",
    "latitude": "43.409129"
  },
  {
    "id": "4328",
    "name": "Martha's Exchange Restaurant and Brewery",
    "brewery_type": "brewpub",
    "street": "185 Main St",
    "city": "Nashua",
    "state": "New Hampshire",
    "postal_code": "03060-2701",
    "website_url": "http://www.marthas-exchange.com",
    "phone": "6038838781",
    "created_at": "2018-07-24 01:33:45.493307",
    "updated_at": "2018-08-24 15:36:10.851893",
    "country": "United States",
    "longitude": "-71.4654818146987",
    "latitude": "42.7604446"
  },
  {
    "id": "4329",
    "name": "Millyard Brewing",
    "brewery_type": "micro",
    "street": "25 E Otterson St",
    "city": "Nashua",
    "state": "New Hampshire",
    "postal_code": "03060-3941",
    "website_url": "http://www.millyardbrewery.com",
    "phone": "6035055079",
    "created_at": "2018-07-24 01:33:45.505828",
    "updated_at": "2018-08-24 15:36:11.493369",
    "country": "United States",
    "longitude": "-71.4598818883104",
    "latitude": "42.7544214"
  },
  {
    "id": "4348",
    "name": "Stark Brewing Company",
    "brewery_type": "brewpub",
    "street": "500 North Commercial St",
    "city": "Manchester",
    "state": "New Hampshire",
    "postal_code": "03101-1151",
    "website_url": "http://www.starkbrewingcompany.com",
    "phone": "6036254444",
    "created_at": "2018-07-24 01:33:45.759945",
    "updated_at": "2018-08-24 15:36:19.710305",
    "country": "United States",
    "longitude": "-71.4676557",
    "latitude": "42.9945554"
  },
  {
    "id": "4300",
    "name": "Belgian Mare Brewery",
    "brewery_type": "micro",
    "street": "207 Gilsum Mine Rd",
    "city": "Alstead",
    "state": "New Hampshire",
    "postal_code": "03602-3915",
    "website_url": "http://www.belgianmare.com",
    "phone": "6038357801",
    "created_at": "2018-07-24 01:33:45.128751",
    "updated_at": "2018-08-24 15:35:57.985783",
    "country": "United States",
    "longitude": "-72.2854221324114",
    "latitude": "43.109848380754"
  },
  {
    "id": "4290",
    "name": "603 Brewery",
    "brewery_type": "micro",
    "street": "12 Liberty Dr Unit 7",
    "city": "Londonderry",
    "state": "New Hampshire",
    "postal_code": "03053-2286",
    "website_url": "http://www.603brewery.com",
    "phone": "6036307745",
    "created_at": "2018-07-24 01:33:44.872956",
    "updated_at": "2018-08-11 21:38:18.490273",
    "country": "United States",
    "longitude": "",
    "latitude": ""
  },
  {
    "id": "4303",
    "name": "Border Brewery/Border Brew Supply",
    "brewery_type": "micro",
    "street": "224 N Broadway Ste D14",
    "city": "Salem",
    "state": "New Hampshire",
    "postal_code": "03079-2145",
    "website_url": "http://www.borderbrewsupply.com",
    "phone": "6032169134",
    "created_at": "2018-07-24 01:33:45.167957",
    "updated_at": "2018-08-11 21:38:18.998543",
    "country": "United States",
    "longitude": "",
    "latitude": ""
  },
  {
    "id": "4304",
    "name": "Brewery in Planning - Portsmouth, NH",
    "brewery_type": "planning",
    "street": "",
    "city": "Portsmouth",
    "state": "New Hampshire",
    "postal_code": "03801",
    "website_url": "http://backhillbeer.com",
    "phone": "",
    "created_at": "2018-07-24 01:33:45.180371",
    "updated_at": "2018-08-11 21:38:19.049402",
    "country": "United States",
    "longitude": "",
    "latitude": ""
  },
  {
    "id": "4309",
    "name": "Deciduous Brewing Company",
    "brewery_type": "micro",
    "street": "12 Weaver St",
    "city": "Newmarket",
    "state": "New Hampshire",
    "postal_code": "03857-2307",
    "website_url": "",
    "phone": "6032925809",
    "created_at": "2018-07-24 01:33:45.247136",
    "updated_at": "2018-08-11 21:38:19.247379",
    "country": "United States",
    "longitude": "",
    "latitude": ""
  },
  {
    "id": "4311",
    "name": "Elm City Brewing Company",
    "brewery_type": "brewpub",
    "street": "222 West St Ste 46",
    "city": "Keene",
    "state": "New Hampshire",
    "postal_code": "03431-2459",
    "website_url": "http://www.elmcitybrewing.com",
    "phone": "6033553335",
    "created_at": "2018-07-24 01:33:45.272301",
    "updated_at": "2018-08-11 21:38:19.342487",
    "country": "United States",
    "longitude": "",
    "latitude": ""
  },
  {
    "id": "4312",
    "name": "Flying Goose Brewpub",
    "brewery_type": "brewpub",
    "street": "40 Andover Rd",
    "city": "New London",
    "state": "New Hampshire",
    "postal_code": "03257-5901",
    "website_url": "http://www.flyinggoose.com",
    "phone": "6035266899",
    "created_at": "2018-07-24 01:33:45.286924",
    "updated_at": "2018-08-11 21:38:19.390289",
    "country": "United States",
    "longitude": "",
    "latitude": ""
  },
  {
    "id": "4313",
    "name": "Frogg Brewing",
    "brewery_type": "planning",
    "street": "",
    "city": "Marlborough",
    "state": "New Hampshire",
    "postal_code": "03455-0252",
    "website_url": "",
    "phone": "6039033774",
    "created_at": "2018-07-24 01:33:45.300119",
    "updated_at": "2018-08-11 21:38:19.437609",
    "country": "United States",
    "longitude": "",
    "latitude": ""
  },
  {
    "id": "4314",
    "name": "From the Barrel Brewing Company",
    "brewery_type": "micro",
    "street": "15 Londonderry Rd Unit 9",
    "city": "Londonderry",
    "state": "New Hampshire",
    "postal_code": "03053-3388",
    "website_url": "http://www.drinkfromthebarrel.com",
    "phone": "6033281896",
    "created_at": "2018-07-24 01:33:45.312653",
    "updated_at": "2018-08-11 21:38:19.487277",
    "country": "United States",
    "longitude": "",
    "latitude": ""
  },
  {
    "id": "4317",
    "name": "Great North Aleworks",
    "brewery_type": "micro",
    "street": "1050 Holt Ave Unit 14",
    "city": "Manchester",
    "state": "New Hampshire",
    "postal_code": "03109-5615",
    "website_url": "http://greatnorthaleworks.com",
    "phone": "6034988152",
    "created_at": "2018-07-24 01:33:45.352122",
    "updated_at": "2018-08-11 21:38:19.597651",
    "country": "United States",
    "longitude": "",
    "latitude": ""
  },
  {
    "id": "4319",
    "name": "Green Gecko Brewing Co - St. Croix USVI",
    "brewery_type": "planning",
    "street": "",
    "city": "North Conway",
    "state": "New Hampshire",
    "postal_code": "03860-3190",
    "website_url": "",
    "phone": "6038606608",
    "created_at": "2018-07-24 01:33:45.378306",
    "updated_at": "2018-08-11 21:38:19.657011",
    "country": "United States",
    "longitude": "",
    "latitude": ""
  },
  {
    "id": "4321",
    "name": "Hobbs Tavern & Brewing Co.",
    "brewery_type": "brewpub",
    "street": "2415 NH Route 16",
    "city": "West Ossipee",
    "state": "New Hampshire",
    "postal_code": "03890",
    "website_url": "http://www.hobbstavern.com",
    "phone": "6035392000",
    "created_at": "2018-07-24 01:33:45.403912",
    "updated_at": "2018-08-11 21:38:19.714814",
    "country": "United States",
    "longitude": "",
    "latitude": ""
  },
  {
    "id": "4322",
    "name": "Kelsen Brewing Company",
    "brewery_type": "brewpub",
    "street": "80 N High St Unit 3",
    "city": "Derry",
    "state": "New Hampshire",
    "postal_code": "03038-2272",
    "website_url": "http://www.kelsenbrewing.com",
    "phone": "6039653078",
    "created_at": "2018-07-24 01:33:45.41674",
    "updated_at": "2018-08-11 21:38:19.761422",
    "country": "United States",
    "longitude": "",
    "latitude": ""
  },
  {
    "id": "4324",
    "name": "Laughinghouse Brewing",
    "brewery_type": "planning",
    "street": "",
    "city": "Nashua",
    "state": "New Hampshire",
    "postal_code": "03060-5143",
    "website_url": "",
    "phone": "",
    "created_at": "2018-07-24 01:33:45.441922",
    "updated_at": "2018-08-11 21:38:19.838539",
    "country": "United States",
    "longitude": "",
    "latitude": ""
  },
  {
    "id": "4325",
    "name": "Liars Bench Beer Company",
    "brewery_type": "brewpub",
    "street": "459 Islington St Ste 4",
    "city": "Portsmouth",
    "state": "New Hampshire",
    "postal_code": "03801-4291",
    "website_url": "http://liarsbenchbeer.com",
    "phone": "6032949156",
    "created_at": "2018-07-24 01:33:45.454689",
    "updated_at": "2018-08-11 21:38:19.870802",
    "country": "United States",
    "longitude": "",
    "latitude": ""
  },
  {
    "id": "4326",
    "name": "Lithermans Limited Brewery",
    "brewery_type": "micro",
    "street": "126 Hall St Ste B",
    "city": "Concord",
    "state": "New Hampshire",
    "postal_code": "03301-3447",
    "website_url": "http://www.lithermans.beer",
    "phone": "6038189102",
    "created_at": "2018-07-24 01:33:45.467542",
    "updated_at": "2018-08-11 21:38:19.904286",
    "country": "United States",
    "longitude": "",
    "latitude": ""
  },
  {
    "id": "4327",
    "name": "Loaded Question Brewing Co",
    "brewery_type": "micro",
    "street": "909 Islington St Ste 12",
    "city": "Portsmouth",
    "state": "New Hampshire",
    "postal_code": "03801",
    "website_url": "http://www.loadedquestionbrewing.com",
    "phone": "",
    "created_at": "2018-07-24 01:33:45.48045",
    "updated_at": "2018-08-11 21:38:19.936869",
    "country": "United States",
    "longitude": "",
    "latitude": ""
  },
  {
    "id": "4291",
    "name": "7th Settlement Brewery",
    "brewery_type": "brewpub",
    "street": "47 Washington St",
    "city": "Dover",
    "state": "New Hampshire",
    "postal_code": "03820-3877",
    "website_url": "http://www.7thsettlement.com",
    "phone": "6033731001",
    "created_at": "2018-07-24 01:33:44.88778",
    "updated_at": "2018-08-24 15:35:53.022305",
    "country": "United States",
    "longitude": "-70.872837902544",
    "latitude": "43.1953787"
  },
  {
    "id": "4292",
    "name": "Able Ebenezer Brewing Company",
    "brewery_type": "micro",
    "street": "31 Columbia Cir",
    "city": "Merrimack",
    "state": "New Hampshire",
    "postal_code": "03054-4161",
    "website_url": "http://www.ableebenezer.com",
    "phone": "8442232253",
    "created_at": "2018-07-24 01:33:44.902623",
    "updated_at": "2018-08-24 15:35:53.537874",
    "country": "United States",
    "longitude": "-71.493705",
    "latitude": "42.851742"
  },
  {
    "id": "4293",
    "name": "Aigean Ales",
    "brewery_type": "micro",
    "street": "250 Commercial St Ste 2001",
    "city": "Manchester",
    "state": "New Hampshire",
    "postal_code": "03101-1165",
    "website_url": "",
    "phone": "6035188550",
    "created_at": "2018-07-24 01:33:44.915758",
    "updated_at": "2018-08-24 15:35:54.026066",
    "country": "United States",
    "longitude": "-71.4689918739142",
    "latitude": "42.9899594"
  },
  {
    "id": "4295",
    "name": "Appalachian Mountain Brewery - Portsmouth",
    "brewery_type": "micro",
    "street": "1 Redhook Way",
    "city": "Portsmouth",
    "state": "New Hampshire",
    "postal_code": "03801-6853",
    "website_url": "",
    "phone": "8282631111",
    "created_at": "2018-07-24 01:33:44.941205",
    "updated_at": "2018-08-24 15:35:55.030392",
    "country": "United States",
    "longitude": "-70.8044602",
    "latitude": "43.087884"
  },
  {
    "id": "4296",
    "name": "Ashuelot Brewing Company",
    "brewery_type": "micro",
    "street": "101 Old County Rd",
    "city": "Richmond",
    "state": "New Hampshire",
    "postal_code": "03470-4918",
    "website_url": "",
    "phone": "",
    "created_at": "2018-07-24 01:33:44.953499",
    "updated_at": "2018-08-24 15:35:55.642159",
    "country": "United States",
    "longitude": "-72.232368157997",
    "latitude": "42.7594623197317"
  },
  {
    "id": "4297",
    "name": "Backyard Brewery",
    "brewery_type": "brewpub",
    "street": "1211 S Mammoth Rd",
    "city": "Manchester",
    "state": "New Hampshire",
    "postal_code": "03109-5101",
    "website_url": "http://www.backyardbrewerynh.com",
    "phone": "6036233545",
    "created_at": "2018-07-24 01:33:44.9665",
    "updated_at": "2018-08-24 15:35:56.179232",
    "country": "United States",
    "longitude": "-71.413459802397",
    "latitude": "42.93534925"
  },
  {
    "id": "4298",
    "name": "Bad Lab Beer Co.",
    "brewery_type": "brewpub",
    "street": "460 High St",
    "city": "Somersworth",
    "state": "New Hampshire",
    "postal_code": "03878-1012",
    "website_url": "http://www.badlabbeer.com",
    "phone": "6033192436",
    "created_at": "2018-07-24 01:33:44.979008",
    "updated_at": "2018-08-24 15:35:56.722302",
    "country": "United States",
    "longitude": "-70.8835377678124",
    "latitude": "43.2265143234066"
  },
  {
    "id": "4302",
    "name": "Blasty Bough Brewing Company",
    "brewery_type": "micro",
    "street": "3 Griffin Rd",
    "city": "Epsom",
    "state": "New Hampshire",
    "postal_code": "03234-4816",
    "website_url": "http://www.blastybough.com",
    "phone": "6037384717",
    "created_at": "2018-07-24 01:33:45.155605",
    "updated_at": "2018-08-24 15:35:59.083501",
    "country": "United States",
    "longitude": "-71.2932628990987",
    "latitude": "43.2038250218184"
  },
  {
    "id": "4305",
    "name": "Burnt Timber Brewing",
    "brewery_type": "brewpub",
    "street": "96 Lehner St",
    "city": "Wolfeboro",
    "state": "New Hampshire",
    "postal_code": "03894",
    "website_url": "http://www.burnttimbertavern.com",
    "phone": "6036303605",
    "created_at": "2018-07-24 01:33:45.19397",
    "updated_at": "2018-08-24 15:36:00.043144",
    "country": "United States",
    "longitude": "-71.2096892439711",
    "latitude": "43.5863231590006"
  },
  {
    "id": "4307",
    "name": "Canterbury Aleworks",
    "brewery_type": "micro",
    "street": "305 Baptist Hill Rd",
    "city": "Canterbury",
    "state": "New Hampshire",
    "postal_code": "03224-2509",
    "website_url": "http://www.canterburyaleworks.com",
    "phone": "6034914539",
    "created_at": "2018-07-24 01:33:45.220011",
    "updated_at": "2018-08-24 15:36:01.210078",
    "country": "United States",
    "longitude": "-71.514843455688",
    "latitude": "43.3857757303691"
  },
  {
    "id": "4308",
    "name": "Concord Craft Brewery",
    "brewery_type": "micro",
    "street": "117 Storrs St",
    "city": "Concord",
    "state": "New Hampshire",
    "postal_code": "03301-4839",
    "website_url": "http://www.concordcraftbrewing.com",
    "phone": "6038567625",
    "created_at": "2018-07-24 01:33:45.234655",
    "updated_at": "2018-08-24 15:36:01.786454",
    "country": "United States",
    "longitude": "-71.534205",
    "latitude": "43.204108"
  },
  {
    "id": "4310",
    "name": "Earth Eagle Brewing",
    "brewery_type": "brewpub",
    "street": "165 High Street",
    "city": "Portsmouth",
    "state": "New Hampshire",
    "postal_code": "03801",
    "website_url": "http://www.eartheaglebrewings.com",
    "phone": "",
    "created_at": "2018-07-24 01:33:45.259781",
    "updated_at": "2018-08-24 15:36:02.917136",
    "country": "United States",
    "longitude": "-70.7595719631718",
    "latitude": "43.0792548"
  },
  {
    "id": "4315",
    "name": "Garrison City Beerworks",
    "brewery_type": "micro",
    "street": "455 Central Ave",
    "city": "Dover",
    "state": "New Hampshire",
    "postal_code": "03820-3406",
    "website_url": "http://www.GarrisonCityBeerworks.com",
    "phone": "6033434231",
    "created_at": "2018-07-24 01:33:45.325063",
    "updated_at": "2018-08-24 15:36:05.122743",
    "country": "United States",
    "longitude": "-70.8739150714286",
    "latitude": "43.1975976071429"
  },
  {
    "id": "4316",
    "name": "Granite Roots Brewing",
    "brewery_type": "micro",
    "street": "244 N Main St",
    "city": "Troy",
    "state": "New Hampshire",
    "postal_code": "03465-",
    "website_url": "http://www.graniterootsbrewing.com",
    "phone": "6032423435",
    "created_at": "2018-07-24 01:33:45.337239",
    "updated_at": "2018-08-24 15:36:05.634162",
    "country": "United States",
    "longitude": "-72.1897314449854",
    "latitude": "42.8440135755583"
  },
  {
    "id": "4320",
    "name": "Henniker Brewing Company, LLC",
    "brewery_type": "micro",
    "street": "129 Centervale Rd",
    "city": "Henniker",
    "state": "New Hampshire",
    "postal_code": "03242-3280",
    "website_url": "http://www.hennikerbrewing.com",
    "phone": "6034283579",
    "created_at": "2018-07-24 01:33:45.391218",
    "updated_at": "2018-08-24 15:36:07.062387",
    "country": "United States",
    "longitude": "-71.7824433004271",
    "latitude": "43.1788086226335"
  },
  {
    "id": "4323",
    "name": "Kettlehead Brewing Company",
    "brewery_type": "brewpub",
    "street": "407 W Main St",
    "city": "Tilton",
    "state": "New Hampshire",
    "postal_code": "03276-5012",
    "website_url": "http://www.kettleheadbrewing.com",
    "phone": "6033258266",
    "created_at": "2018-07-24 01:33:45.429441",
    "updated_at": "2018-08-24 15:36:08.66987",
    "country": "United States",
    "longitude": "-71.6001389788579",
    "latitude": "43.4421988112605"
  },
  {
    "id": "4331",
    "name": "Monadnock Brewing Company LLC",
    "brewery_type": "planning",
    "street": "",
    "city": "Langdon",
    "state": "New Hampshire",
    "postal_code": "03602-8604",
    "website_url": "http://www.monadnockbrewing.com",
    "phone": "6033136317",
    "created_at": "2018-07-24 01:33:45.530844",
    "updated_at": "2018-08-11 21:38:20.311712",
    "country": "United States",
    "longitude": "",
    "latitude": ""
  },
  {
    "id": "4332",
    "name": "Moonlight Meadery/Hidden Moon Brewing",
    "brewery_type": "contract",
    "street": "23 Londonderry Rd Unit 17",
    "city": "Londonderry",
    "state": "New Hampshire",
    "postal_code": "03053-3314",
    "website_url": "http://www.moonlightmeadery.com",
    "phone": "6032162162",
    "created_at": "2018-07-24 01:33:45.544162",
    "updated_at": "2018-08-11 21:38:20.345032",
    "country": "United States",
    "longitude": "",
    "latitude": ""
  },
  {
    "id": "4333",
    "name": "Northwoods Brewing Co",
    "brewery_type": "planning",
    "street": "",
    "city": "Northwood",
    "state": "New Hampshire",
    "postal_code": "03261",
    "website_url": "",
    "phone": "2073516983",
    "created_at": "2018-07-24 01:33:45.556773",
    "updated_at": "2018-08-11 21:38:20.375229",
    "country": "United States",
    "longitude": "",
    "latitude": ""
  },
  {
    "id": "4335",
    "name": "One Love Brewery",
    "brewery_type": "brewpub",
    "street": "25 S Mountain Rd",
    "city": "Lincoln",
    "state": "New Hampshire",
    "postal_code": "03251-4268",
    "website_url": "http://www.onelovebrewery.com",
    "phone": "6037457290",
    "created_at": "2018-07-24 01:33:45.582589",
    "updated_at": "2018-08-11 21:38:20.44699",
    "country": "United States",
    "longitude": "",
    "latitude": ""
  },
  {
    "id": "4336",
    "name": "Out.Haus Ales",
    "brewery_type": "micro",
    "street": "442 1st Nh Tpke Unit 2",
    "city": "Northwood",
    "state": "New Hampshire",
    "postal_code": "03261-3445",
    "website_url": "http://www.outhausales.com",
    "phone": "6035482151",
    "created_at": "2018-07-24 01:33:45.595316",
    "updated_at": "2018-08-11 21:38:20.476601",
    "country": "United States",
    "longitude": "",
    "latitude": ""
  },
  {
    "id": "4337",
    "name": "Outland Brewing Company",
    "brewery_type": "planning",
    "street": "",
    "city": "Salem",
    "state": "New Hampshire",
    "postal_code": "03079-1867",
    "website_url": "",
    "phone": "",
    "created_at": "2018-07-24 01:33:45.607694",
    "updated_at": "2018-08-11 21:38:20.507465",
    "country": "United States",
    "longitude": "",
    "latitude": ""
  },
  {
    "id": "4338",
    "name": "Pipe Dream Brewing",
    "brewery_type": "brewpub",
    "street": "49 Harvey Rd Unit 4",
    "city": "Londonderry",
    "state": "New Hampshire",
    "postal_code": "03053-7442",
    "website_url": "http://www.pipedreambrewingnh.com",
    "phone": "6034040751",
    "created_at": "2018-07-24 01:33:45.619942",
    "updated_at": "2018-08-11 21:38:20.540892",
    "country": "United States",
    "longitude": "",
    "latitude": ""
  },
  {
    "id": "4340",
    "name": "Post and Beam Brewing",
    "brewery_type": "planning",
    "street": "",
    "city": "Peterborough",
    "state": "New Hampshire",
    "postal_code": "03458-1452",
    "website_url": "http://www.postandbeambrewery.com",
    "phone": "",
    "created_at": "2018-07-24 01:33:45.648071",
    "updated_at": "2018-08-11 21:38:20.730239",
    "country": "United States",
    "longitude": "",
    "latitude": ""
  },
  {
    "id": "4351",
    "name": "TaleSpinner Craft Brewery",
    "brewery_type": "planning",
    "street": "",
    "city": "Nashua",
    "state": "New Hampshire",
    "postal_code": "03062-1033",
    "website_url": "http://www.talespinnerbrew.com",
    "phone": "6032339636",
    "created_at": "2018-07-24 01:33:45.802257",
    "updated_at": "2018-08-11 21:38:21.218001",
    "country": "United States",
    "longitude": "",
    "latitude": ""
  },
  {
    "id": "4352",
    "name": "The Brewers of Nye Hill Farm",
    "brewery_type": "micro",
    "street": "250 Middletown Rd",
    "city": "Keene",
    "state": "New Hampshire",
    "postal_code": "03431-8705",
    "website_url": "",
    "phone": "",
    "created_at": "2018-07-24 01:33:45.816209",
    "updated_at": "2018-08-11 21:38:21.250141",
    "country": "United States",
    "longitude": "",
    "latitude": ""
  },
  {
    "id": "4357",
    "name": "Throwback Brewery",
    "brewery_type": "brewpub",
    "street": "7 Hobbs Rd",
    "city": "North Hampton",
    "state": "New Hampshire",
    "postal_code": "03862-2120",
    "website_url": "http://www.throwbackbrewery.com",
    "phone": "6034980123",
    "created_at": "2018-07-24 01:33:45.889077",
    "updated_at": "2018-08-11 21:38:21.420695",
    "country": "United States",
    "longitude": "",
    "latitude": ""
  },
  {
    "id": "4358",
    "name": "To Share Brewing Company",
    "brewery_type": "planning",
    "street": "",
    "city": "Manchester",
    "state": "New Hampshire",
    "postal_code": "03104",
    "website_url": "http://www.tosharebrewing.com",
    "phone": "3012376579",
    "created_at": "2018-07-24 01:33:45.905465",
    "updated_at": "2018-08-11 21:38:21.44713",
    "country": "United States",
    "longitude": "",
    "latitude": ""
  },
  {
    "id": "4334",
    "name": "Oddball Brewing",
    "brewery_type": "micro",
    "street": "6 Glass St",
    "city": "Suncook",
    "state": "New Hampshire",
    "postal_code": "03275-1512",
    "website_url": "http://www.oddballbrewingnh.com",
    "phone": "6032105654",
    "created_at": "2018-07-24 01:33:45.569547",
    "updated_at": "2018-08-24 15:36:13.08616",
    "country": "United States",
    "longitude": "-71.45239635",
    "latitude": "43.1308185"
  },
  {
    "id": "4339",
    "name": "Polyculture Brewing Company",
    "brewery_type": "micro",
    "street": "3 Camel Hump Rd",
    "city": "Croydon",
    "state": "New Hampshire",
    "postal_code": "03773",
    "website_url": "http://www.polyculturebrewing.com",
    "phone": "7735471994",
    "created_at": "2018-07-24 01:33:45.634724",
    "updated_at": "2018-08-24 15:36:15.249431",
    "country": "United States",
    "longitude": "-72.1868538853752",
    "latitude": "43.4105468943407"
  },
  {
    "id": "4341",
    "name": "Redhook - Cataqua Public House",
    "brewery_type": "regional",
    "street": "35 Corporate Dr",
    "city": "Portsmouth",
    "state": "New Hampshire",
    "postal_code": "03801-",
    "website_url": "http://www.redhook.com",
    "phone": "6034308600",
    "created_at": "2018-07-24 01:33:45.662075",
    "updated_at": "2018-08-24 15:36:15.823651",
    "country": "United States",
    "longitude": "-70.8023326882494",
    "latitude": "43.0858295074873"
  },
  {
    "id": "4342",
    "name": "Rek-Lis Brewing Company",
    "brewery_type": "micro",
    "street": "2085 Main Street",
    "city": "Bethlehem",
    "state": "New Hampshire",
    "postal_code": "03574",
    "website_url": "http://tbd",
    "phone": "6033701932",
    "created_at": "2018-07-24 01:33:45.676924",
    "updated_at": "2018-08-24 15:36:16.384822",
    "country": "United States",
    "longitude": "-71.687376",
    "latitude": "44.28042825"
  },
  {
    "id": "4344",
    "name": "Schilling Beer Co",
    "brewery_type": "brewpub",
    "street": "18 Mill St",
    "city": "Littleton",
    "state": "New Hampshire",
    "postal_code": "03561-4000",
    "website_url": "http://www.schillingbeer.com",
    "phone": "6034444800",
    "created_at": "2018-07-24 01:33:45.706103",
    "updated_at": "2018-08-24 15:36:17.502376",
    "country": "United States",
    "longitude": "-71.77281065",
    "latitude": "44.30592045"
  },
  {
    "id": "4345",
    "name": "Sea Dog Brewing Co",
    "brewery_type": "brewpub",
    "street": "1976 White Mountain Hwy #9",
    "city": "Conway",
    "state": "New Hampshire",
    "postal_code": "03860",
    "website_url": "",
    "phone": "6033560590",
    "created_at": "2018-07-24 01:33:45.719845",
    "updated_at": "2018-08-24 15:36:18.065845",
    "country": "United States",
    "longitude": "-71.1217669",
    "latitude": "44.0333227"
  },
  {
    "id": "4346",
    "name": "Smuttynose Brewing Co",
    "brewery_type": "regional",
    "street": "105 Towle Farm Rd",
    "city": "Hampton",
    "state": "New Hampshire",
    "postal_code": "03842-1806",
    "website_url": "http://www.smuttynose.com",
    "phone": "6034364026",
    "created_at": "2018-07-24 01:33:45.733754",
    "updated_at": "2018-08-24 15:36:18.631337",
    "country": "United States",
    "longitude": "-70.8535415455623",
    "latitude": "42.94551535"
  },
  {
    "id": "4347",
    "name": "Squam Brewing Co",
    "brewery_type": "micro",
    "street": "118 Perch Pond Rd",
    "city": "Holderness",
    "state": "New Hampshire",
    "postal_code": "03245-5234",
    "website_url": "http://www.squambrewing.com",
    "phone": "6032369705",
    "created_at": "2018-07-24 01:33:45.747084",
    "updated_at": "2018-08-24 15:36:19.166251",
    "country": "United States",
    "longitude": "-71.589971",
    "latitude": "43.78514"
  },
  {
    "id": "4350",
    "name": "Sublime Brewing Company",
    "brewery_type": "micro",
    "street": "5 Route 25",
    "city": "Plymouth",
    "state": "New Hampshire",
    "postal_code": "03264-3141",
    "website_url": "",
    "phone": "6032366850",
    "created_at": "2018-07-24 01:33:45.786821",
    "updated_at": "2018-08-24 15:36:20.699105",
    "country": "United States",
    "longitude": "-71.776669",
    "latitude": "43.781015"
  },
  {
    "id": "4353",
    "name": "The Lone Wolfe Brewing Co.",
    "brewery_type": "brewpub",
    "street": "36 Mill St",
    "city": "Wolfeboro",
    "state": "New Hampshire",
    "postal_code": "03894-4485",
    "website_url": "http://www.thelonewolfe.com",
    "phone": "6035151273",
    "created_at": "2018-07-24 01:33:45.830988",
    "updated_at": "2018-08-24 15:36:21.749969",
    "country": "United States",
    "longitude": "-71.2150330458599",
    "latitude": "43.5857241507431"
  },
  {
    "id": "4354",
    "name": "The Neighborhood Beer Co.",
    "brewery_type": "micro",
    "street": "156 Epping Rd",
    "city": "Exeter",
    "state": "New Hampshire",
    "postal_code": "03833-4521",
    "website_url": "http://nhbeerco.com",
    "phone": "6035126228",
    "created_at": "2018-07-24 01:33:45.844516",
    "updated_at": "2018-08-24 15:36:22.241887",
    "country": "United States",
    "longitude": "-70.9743191810049",
    "latitude": "42.9988000871583"
  },
  {
    "id": "4355",
    "name": "The Outlaw Brewing Company",
    "brewery_type": "micro",
    "street": "215 Scotland Rd",
    "city": "Winchester",
    "state": "New Hampshire",
    "postal_code": "03470-3006",
    "website_url": "http://Www.theoutlawbrewingcompany.com",
    "phone": "4136279700",
    "created_at": "2018-07-24 01:33:45.85884",
    "updated_at": "2018-08-24 15:36:22.878098",
    "country": "United States",
    "longitude": "-72.3562004469969",
    "latitude": "42.7501251872036"
  },
  {
    "id": "4356",
    "name": "The Portsmouth Brewery",
    "brewery_type": "brewpub",
    "street": "56 Market St",
    "city": "Portsmouth",
    "state": "New Hampshire",
    "postal_code": "03801-3750",
    "website_url": "http://www.portsmouthbrewery.com",
    "phone": "6034311115",
    "created_at": "2018-07-24 01:33:45.873116",
    "updated_at": "2018-08-24 15:36:23.446046",
    "country": "United States",
    "longitude": "-70.7576875",
    "latitude": "43.0780072"
  },
  {
    "id": "4360",
    "name": "White Birch Brewing",
    "brewery_type": "micro",
    "street": "1339 Hooksett Rd",
    "city": "Hooksett",
    "state": "New Hampshire",
    "postal_code": "03106-1847",
    "website_url": "http://www.whitebirchbrewing.com",
    "phone": "6032448593",
    "created_at": "2018-07-24 01:33:45.934798",
    "updated_at": "2018-08-24 15:36:24.778587",
    "country": "United States",
    "longitude": "-71.4411445689989",
    "latitude": "43.057125336169"
  },
  {
    "id": "4361",
    "name": "Woodman's Brewery",
    "brewery_type": "micro",
    "street": "195 Peaked Hill Rd",
    "city": "Bristol",
    "state": "New Hampshire",
    "postal_code": "03222-3331",
    "website_url": "http://www.facebook.com/woodmansbrewery",
    "phone": "6037443669",
    "created_at": "2018-07-24 01:33:45.947593",
    "updated_at": "2018-08-24 15:36:25.320041",
    "country": "United States",
    "longitude": "-71.7095581521551",
    "latitude": "43.6071164460837"
  },
  {
    "id": "4362",
    "name": "Woodstock Inn Brewery",
    "brewery_type": "micro",
    "street": "135 Main St",
    "city": "North Woodstock",
    "state": "New Hampshire",
    "postal_code": "03262",
    "website_url": "http://www.woodstockinnnh.com",
    "phone": "6037453951",
    "created_at": "2018-07-24 01:33:45.960531",
    "updated_at": "2018-08-24 15:36:25.878367",
    "country": "United States",
    "longitude": "-71.6865275",
    "latitude": "44.0316675"
  },
  {
    "id": "4318",
    "name": "Great Rhythm Brewing Co.",
    "brewery_type": "micro",
    "street": "105 Bartlett St Ste 6",
    "city": "Portsmouth",
    "state": "New Hampshire",
    "postal_code": "03801-7608",
    "website_url": "http://www.greatrhythmbrewing.com",
    "phone": "6034309640",
    "created_at": "2018-07-24 01:33:45.365177",
    "updated_at": "2018-08-11 21:38:19.626843",
    "country": "United States",
    "longitude": "",
    "latitude": ""
  },
  {
    "id": "4343",
    "name": "Rockingham Brewing Company",
    "brewery_type": "brewpub",
    "street": "1 Corporate Park Dr Unit 1",
    "city": "Derry",
    "state": "New Hampshire",
    "postal_code": "03038-2276",
    "website_url": "http://www.rockinghambrewing.com",
    "phone": "6032162324",
    "created_at": "2018-07-24 01:33:45.690229",
    "updated_at": "2018-08-11 21:38:20.906496",
    "country": "United States",
    "longitude": "",
    "latitude": ""
  },
  {
    "id": "4349",
    "name": "Stoneface Brewing Co",
    "brewery_type": "micro",
    "street": "436 Shattuck Way Ste 6",
    "city": "Newington",
    "state": "New Hampshire",
    "postal_code": "03801-7838",
    "website_url": "http://www.stonefacebrewing.com",
    "phone": "",
    "created_at": "2018-07-24 01:33:45.77327",
    "updated_at": "2018-08-11 21:38:21.149782",
    "country": "United States",
    "longitude": "",
    "latitude": ""
  },
  {
    "id": "4294",
    "name": "Anheuser-Busch Inc â Merrimack",
    "brewery_type": "large",
    "street": "221 Daniel Webster Hwy",
    "city": "Merrimack",
    "state": "New Hampshire",
    "postal_code": "03054-4807",
    "website_url": "",
    "phone": "6038896631",
    "created_at": "2018-07-24 01:33:44.928591",
    "updated_at": "2018-08-24 15:35:54.532324",
    "country": "United States",
    "longitude": "-71.485981616456",
    "latitude": "42.8253635"
  },
  {
    "id": "4299",
    "name": "Beara Brewing Co.",
    "brewery_type": "micro",
    "street": "2800 Lafayette Rd",
    "city": "Portsmouth",
    "state": "New Hampshire",
    "postal_code": "03801-5915",
    "website_url": "http://www.bearairishbrew.com",
    "phone": "3475780585",
    "created_at": "2018-07-24 01:33:44.991732",
    "updated_at": "2018-08-24 15:35:57.2949",
    "country": "United States",
    "longitude": "-70.790732",
    "latitude": "43.027935"
  },
  {
    "id": "4306",
    "name": "Candia Road Brewing / Nepenthe Ale House",
    "brewery_type": "micro",
    "street": "840 Candia Rd",
    "city": "Manchester",
    "state": "New Hampshire",
    "postal_code": "03109-5201",
    "website_url": "http://www.candiaroad.com",
    "phone": "6039358123",
    "created_at": "2018-07-24 01:33:45.206793",
    "updated_at": "2018-08-24 15:36:00.586513",
    "country": "United States",
    "longitude": "-71.4130109581101",
    "latitude": "42.9849563"
  },
  {
    "id": "4330",
    "name": "Moat Mountain Smoke House and Brewing Co",
    "brewery_type": "brewpub",
    "street": "3378 White Mountain Highway",
    "city": "North Conway",
    "state": "New Hampshire",
    "postal_code": "03860-1518",
    "website_url": "http://www.moatmountain.com",
    "phone": "6033566381",
    "created_at": "2018-07-24 01:33:45.518103",
    "updated_at": "2018-08-24 15:36:12.050148",
    "country": "United States",
    "longitude": "-71.1435853482066",
    "latitude": "44.06850015"
  },
  {
    "id": "4359",
    "name": "Tuckerman Brewing Co",
    "brewery_type": "micro",
    "street": "66 Hobbs St",
    "city": "Conway",
    "state": "New Hampshire",
    "postal_code": "03818-1058",
    "website_url": "http://www.tuckermanbrewing.com",
    "phone": "6034475400",
    "created_at": "2018-07-24 01:33:45.92036",
    "updated_at": "2018-08-24 15:36:24.07096",
    "country": "United States",
    "longitude": "-71.1298319553328",
    "latitude": "43.9758285775739"
  },
  {
    "id": "4301",
    "name": "Big Water Brewery",
    "brewery_type": "micro",
    "street": "24 Robie Rd",
    "city": "Salisbury",
    "state": "New Hampshire",
    "postal_code": "03268-5423",
    "website_url": "http://www.bigwaterbrewery.net",
    "phone": "6036486068",
    "created_at": "2018-07-24 01:33:45.142888",
    "updated_at": "2018-08-24 15:35:58.480466",
    "country": "United States",
    "longitude": "-71.717004",
    "latitude": "43.409129"
  },
  {
    "id": "4328",
    "name": "Martha's Exchange Restaurant and Brewery",
    "brewery_type": "brewpub",
    "street": "185 Main St",
    "city": "Nashua",
    "state": "New Hampshire",
    "postal_code": "03060-2701",
    "website_url": "http://www.marthas-exchange.com",
    "phone": "6038838781",
    "created_at": "2018-07-24 01:33:45.493307",
    "updated_at": "2018-08-24 15:36:10.851893",
    "country": "United States",
    "longitude": "-71.4654818146987",
    "latitude": "42.7604446"
  },
  {
    "id": "4329",
    "name": "Millyard Brewing",
    "brewery_type": "micro",
    "street": "25 E Otterson St",
    "city": "Nashua",
    "state": "New Hampshire",
    "postal_code": "03060-3941",
    "website_url": "http://www.millyardbrewery.com",
    "phone": "6035055079",
    "created_at": "2018-07-24 01:33:45.505828",
    "updated_at": "2018-08-24 15:36:11.493369",
    "country": "United States",
    "longitude": "-71.4598818883104",
    "latitude": "42.7544214"
  },
  {
    "id": "4348",
    "name": "Stark Brewing Company",
    "brewery_type": "brewpub",
    "street": "500 North Commercial St",
    "city": "Manchester",
    "state": "New Hampshire",
    "postal_code": "03101-1151",
    "website_url": "http://www.starkbrewingcompany.com",
    "phone": "6036254444",
    "created_at": "2018-07-24 01:33:45.759945",
    "updated_at": "2018-08-24 15:36:19.710305",
    "country": "United States",
    "longitude": "-71.4676557",
    "latitude": "42.9945554"
  },
  {
    "id": "4300",
    "name": "Belgian Mare Brewery",
    "brewery_type": "micro",
    "street": "207 Gilsum Mine Rd",
    "city": "Alstead",
    "state": "New Hampshire",
    "postal_code": "03602-3915",
    "website_url": "http://www.belgianmare.com",
    "phone": "6038357801",
    "created_at": "2018-07-24 01:33:45.128751",
    "updated_at": "2018-08-24 15:35:57.985783",
    "country": "United States",
    "longitude": "-72.2854221324114",
    "latitude": "43.109848380754"
  },
  {
    "id": "4290",
    "name": "603 Brewery",
    "brewery_type": "micro",
    "street": "12 Liberty Dr Unit 7",
    "city": "Londonderry",
    "state": "New Hampshire",
    "postal_code": "03053-2286",
    "website_url": "http://www.603brewery.com",
    "phone": "6036307745",
    "created_at": "2018-07-24 01:33:44.872956",
    "updated_at": "2018-08-11 21:38:18.490273",
    "country": "United States",
    "longitude": "",
    "latitude": ""
  },
  {
    "id": "4303",
    "name": "Border Brewery/Border Brew Supply",
    "brewery_type": "micro",
    "street": "224 N Broadway Ste D14",
    "city": "Salem",
    "state": "New Hampshire",
    "postal_code": "03079-2145",
    "website_url": "http://www.borderbrewsupply.com",
    "phone": "6032169134",
    "created_at": "2018-07-24 01:33:45.167957",
    "updated_at": "2018-08-11 21:38:18.998543",
    "country": "United States",
    "longitude": "",
    "latitude": ""
  },
  {
    "id": "4304",
    "name": "Brewery in Planning - Portsmouth, NH",
    "brewery_type": "planning",
    "street": "",
    "city": "Portsmouth",
    "state": "New Hampshire",
    "postal_code": "03801",
    "website_url": "http://backhillbeer.com",
    "phone": "",
    "created_at": "2018-07-24 01:33:45.180371",
    "updated_at": "2018-08-11 21:38:19.049402",
    "country": "United States",
    "longitude": "",
    "latitude": ""
  },
  {
    "id": "4309",
    "name": "Deciduous Brewing Company",
    "brewery_type": "micro",
    "street": "12 Weaver St",
    "city": "Newmarket",
    "state": "New Hampshire",
    "postal_code": "03857-2307",
    "website_url": "",
    "phone": "6032925809",
    "created_at": "2018-07-24 01:33:45.247136",
    "updated_at": "2018-08-11 21:38:19.247379",
    "country": "United States",
    "longitude": "",
    "latitude": ""
  },
  {
    "id": "4311",
    "name": "Elm City Brewing Company",
    "brewery_type": "brewpub",
    "street": "222 West St Ste 46",
    "city": "Keene",
    "state": "New Hampshire",
    "postal_code": "03431-2459",
    "website_url": "http://www.elmcitybrewing.com",
    "phone": "6033553335",
    "created_at": "2018-07-24 01:33:45.272301",
    "updated_at": "2018-08-11 21:38:19.342487",
    "country": "United States",
    "longitude": "",
    "latitude": ""
  },
  {
    "id": "4312",
    "name": "Flying Goose Brewpub",
    "brewery_type": "brewpub",
    "street": "40 Andover Rd",
    "city": "New London",
    "state": "New Hampshire",
    "postal_code": "03257-5901",
    "website_url": "http://www.flyinggoose.com",
    "phone": "6035266899",
    "created_at": "2018-07-24 01:33:45.286924",
    "updated_at": "2018-08-11 21:38:19.390289",
    "country": "United States",
    "longitude": "",
    "latitude": ""
  },
  {
    "id": "4313",
    "name": "Frogg Brewing",
    "brewery_type": "planning",
    "street": "",
    "city": "Marlborough",
    "state": "New Hampshire",
    "postal_code": "03455-0252",
    "website_url": "",
    "phone": "6039033774",
    "created_at": "2018-07-24 01:33:45.300119",
    "updated_at": "2018-08-11 21:38:19.437609",
    "country": "United States",
    "longitude": "",
    "latitude": ""
  },
  {
    "id": "4314",
    "name": "From the Barrel Brewing Company",
    "brewery_type": "micro",
    "street": "15 Londonderry Rd Unit 9",
    "city": "Londonderry",
    "state": "New Hampshire",
    "postal_code": "03053-3388",
    "website_url": "http://www.drinkfromthebarrel.com",
    "phone": "6033281896",
    "created_at": "2018-07-24 01:33:45.312653",
    "updated_at": "2018-08-11 21:38:19.487277",
    "country": "United States",
    "longitude": "",
    "latitude": ""
  },
  {
    "id": "4317",
    "name": "Great North Aleworks",
    "brewery_type": "micro",
    "street": "1050 Holt Ave Unit 14",
    "city": "Manchester",
    "state": "New Hampshire",
    "postal_code": "03109-5615",
    "website_url": "http://greatnorthaleworks.com",
    "phone": "6034988152",
    "created_at": "2018-07-24 01:33:45.352122",
    "updated_at": "2018-08-11 21:38:19.597651",
    "country": "United States",
    "longitude": "",
    "latitude": ""
  },
  {
    "id": "4319",
    "name": "Green Gecko Brewing Co - St. Croix USVI",
    "brewery_type": "planning",
    "street": "",
    "city": "North Conway",
    "state": "New Hampshire",
    "postal_code": "03860-3190",
    "website_url": "",
    "phone": "6038606608",
    "created_at": "2018-07-24 01:33:45.378306",
    "updated_at": "2018-08-11 21:38:19.657011",
    "country": "United States",
    "longitude": "",
    "latitude": ""
  },
  {
    "id": "4321",
    "name": "Hobbs Tavern & Brewing Co.",
    "brewery_type": "brewpub",
    "street": "2415 NH Route 16",
    "city": "West Ossipee",
    "state": "New Hampshire",
    "postal_code": "03890",
    "website_url": "http://www.hobbstavern.com",
    "phone": "6035392000",
    "created_at": "2018-07-24 01:33:45.403912",
    "updated_at": "2018-08-11 21:38:19.714814",
    "country": "United States",
    "longitude": "",
    "latitude": ""
  },
  {
    "id": "4322",
    "name": "Kelsen Brewing Company",
    "brewery_type": "brewpub",
    "street": "80 N High St Unit 3",
    "city": "Derry",
    "state": "New Hampshire",
    "postal_code": "03038-2272",
    "website_url": "http://www.kelsenbrewing.com",
    "phone": "6039653078",
    "created_at": "2018-07-24 01:33:45.41674",
    "updated_at": "2018-08-11 21:38:19.761422",
    "country": "United States",
    "longitude": "",
    "latitude": ""
  },
  {
    "id": "4324",
    "name": "Laughinghouse Brewing",
    "brewery_type": "planning",
    "street": "",
    "city": "Nashua",
    "state": "New Hampshire",
    "postal_code": "03060-5143",
    "website_url": "",
    "phone": "",
    "created_at": "2018-07-24 01:33:45.441922",
    "updated_at": "2018-08-11 21:38:19.838539",
    "country": "United States",
    "longitude": "",
    "latitude": ""
  },
  {
    "id": "4325",
    "name": "Liars Bench Beer Company",
    "brewery_type": "brewpub",
    "street": "459 Islington St Ste 4",
    "city": "Portsmouth",
    "state": "New Hampshire",
    "postal_code": "03801-4291",
    "website_url": "http://liarsbenchbeer.com",
    "phone": "6032949156",
    "created_at": "2018-07-24 01:33:45.454689",
    "updated_at": "2018-08-11 21:38:19.870802",
    "country": "United States",
    "longitude": "",
    "latitude": ""
  },
  {
    "id": "4326",
    "name": "Lithermans Limited Brewery",
    "brewery_type": "micro",
    "street": "126 Hall St Ste B",
    "city": "Concord",
    "state": "New Hampshire",
    "postal_code": "03301-3447",
    "website_url": "http://www.lithermans.beer",
    "phone": "6038189102",
    "created_at": "2018-07-24 01:33:45.467542",
    "updated_at": "2018-08-11 21:38:19.904286",
    "country": "United States",
    "longitude": "",
    "latitude": ""
  },
  {
    "id": "4327",
    "name": "Loaded Question Brewing Co",
    "brewery_type": "micro",
    "street": "909 Islington St Ste 12",
    "city": "Portsmouth",
    "state": "New Hampshire",
    "postal_code": "03801",
    "website_url": "http://www.loadedquestionbrewing.com",
    "phone": "",
    "created_at": "2018-07-24 01:33:45.48045",
    "updated_at": "2018-08-11 21:38:19.936869",
    "country": "United States",
    "longitude": "",
    "latitude": ""
  },
  {
    "id": "4291",
    "name": "7th Settlement Brewery",
    "brewery_type": "brewpub",
    "street": "47 Washington St",
    "city": "Dover",
    "state": "New Hampshire",
    "postal_code": "03820-3877",
    "website_url": "http://www.7thsettlement.com",
    "phone": "6033731001",
    "created_at": "2018-07-24 01:33:44.88778",
    "updated_at": "2018-08-24 15:35:53.022305",
    "country": "United States",
    "longitude": "-70.872837902544",
    "latitude": "43.1953787"
  },
  {
    "id": "4292",
    "name": "Able Ebenezer Brewing Company",
    "brewery_type": "micro",
    "street": "31 Columbia Cir",
    "city": "Merrimack",
    "state": "New Hampshire",
    "postal_code": "03054-4161",
    "website_url": "http://www.ableebenezer.com",
    "phone": "8442232253",
    "created_at": "2018-07-24 01:33:44.902623",
    "updated_at": "2018-08-24 15:35:53.537874",
    "country": "United States",
    "longitude": "-71.493705",
    "latitude": "42.851742"
  },
  {
    "id": "4293",
    "name": "Aigean Ales",
    "brewery_type": "micro",
    "street": "250 Commercial St Ste 2001",
    "city": "Manchester",
    "state": "New Hampshire",
    "postal_code": "03101-1165",
    "website_url": "",
    "phone": "6035188550",
    "created_at": "2018-07-24 01:33:44.915758",
    "updated_at": "2018-08-24 15:35:54.026066",
    "country": "United States",
    "longitude": "-71.4689918739142",
    "latitude": "42.9899594"
  },
  {
    "id": "4295",
    "name": "Appalachian Mountain Brewery - Portsmouth",
    "brewery_type": "micro",
    "street": "1 Redhook Way",
    "city": "Portsmouth",
    "state": "New Hampshire",
    "postal_code": "03801-6853",
    "website_url": "",
    "phone": "8282631111",
    "created_at": "2018-07-24 01:33:44.941205",
    "updated_at": "2018-08-24 15:35:55.030392",
    "country": "United States",
    "longitude": "-70.8044602",
    "latitude": "43.087884"
  },
  {
    "id": "4296",
    "name": "Ashuelot Brewing Company",
    "brewery_type": "micro",
    "street": "101 Old County Rd",
    "city": "Richmond",
    "state": "New Hampshire",
    "postal_code": "03470-4918",
    "website_url": "",
    "phone": "",
    "created_at": "2018-07-24 01:33:44.953499",
    "updated_at": "2018-08-24 15:35:55.642159",
    "country": "United States",
    "longitude": "-72.232368157997",
    "latitude": "42.7594623197317"
  },
  {
    "id": "4297",
    "name": "Backyard Brewery",
    "brewery_type": "brewpub",
    "street": "1211 S Mammoth Rd",
    "city": "Manchester",
    "state": "New Hampshire",
    "postal_code": "03109-5101",
    "website_url": "http://www.backyardbrewerynh.com",
    "phone": "6036233545",
    "created_at": "2018-07-24 01:33:44.9665",
    "updated_at": "2018-08-24 15:35:56.179232",
    "country": "United States",
    "longitude": "-71.413459802397",
    "latitude": "42.93534925"
  },
  {
    "id": "4298",
    "name": "Bad Lab Beer Co.",
    "brewery_type": "brewpub",
    "street": "460 High St",
    "city": "Somersworth",
    "state": "New Hampshire",
    "postal_code": "03878-1012",
    "website_url": "http://www.badlabbeer.com",
    "phone": "6033192436",
    "created_at": "2018-07-24 01:33:44.979008",
    "updated_at": "2018-08-24 15:35:56.722302",
    "country": "United States",
    "longitude": "-70.8835377678124",
    "latitude": "43.2265143234066"
  },
  {
    "id": "4302",
    "name": "Blasty Bough Brewing Company",
    "brewery_type": "micro",
    "street": "3 Griffin Rd",
    "city": "Epsom",
    "state": "New Hampshire",
    "postal_code": "03234-4816",
    "website_url": "http://www.blastybough.com",
    "phone": "6037384717",
    "created_at": "2018-07-24 01:33:45.155605",
    "updated_at": "2018-08-24 15:35:59.083501",
    "country": "United States",
    "longitude": "-71.2932628990987",
    "latitude": "43.2038250218184"
  },
  {
    "id": "4305",
    "name": "Burnt Timber Brewing",
    "brewery_type": "brewpub",
    "street": "96 Lehner St",
    "city": "Wolfeboro",
    "state": "New Hampshire",
    "postal_code": "03894",
    "website_url": "http://www.burnttimbertavern.com",
    "phone": "6036303605",
    "created_at": "2018-07-24 01:33:45.19397",
    "updated_at": "2018-08-24 15:36:00.043144",
    "country": "United States",
    "longitude": "-71.2096892439711",
    "latitude": "43.5863231590006"
  },
  {
    "id": "4307",
    "name": "Canterbury Aleworks",
    "brewery_type": "micro",
    "street": "305 Baptist Hill Rd",
    "city": "Canterbury",
    "state": "New Hampshire",
    "postal_code": "03224-2509",
    "website_url": "http://www.canterburyaleworks.com",
    "phone": "6034914539",
    "created_at": "2018-07-24 01:33:45.220011",
    "updated_at": "2018-08-24 15:36:01.210078",
    "country": "United States",
    "longitude": "-71.514843455688",
    "latitude": "43.3857757303691"
  },
  {
    "id": "4308",
    "name": "Concord Craft Brewery",
    "brewery_type": "micro",
    "street": "117 Storrs St",
    "city": "Concord",
    "state": "New Hampshire",
    "postal_code": "03301-4839",
    "website_url": "http://www.concordcraftbrewing.com",
    "phone": "6038567625",
    "created_at": "2018-07-24 01:33:45.234655",
    "updated_at": "2018-08-24 15:36:01.786454",
    "country": "United States",
    "longitude": "-71.534205",
    "latitude": "43.204108"
  },
  {
    "id": "4310",
    "name": "Earth Eagle Brewing",
    "brewery_type": "brewpub",
    "street": "165 High Street",
    "city": "Portsmouth",
    "state": "New Hampshire",
    "postal_code": "03801",
    "website_url": "http://www.eartheaglebrewings.com",
    "phone": "",
    "created_at": "2018-07-24 01:33:45.259781",
    "updated_at": "2018-08-24 15:36:02.917136",
    "country": "United States",
    "longitude": "-70.7595719631718",
    "latitude": "43.0792548"
  },
  {
    "id": "4315",
    "name": "Garrison City Beerworks",
    "brewery_type": "micro",
    "street": "455 Central Ave",
    "city": "Dover",
    "state": "New Hampshire",
    "postal_code": "03820-3406",
    "website_url": "http://www.GarrisonCityBeerworks.com",
    "phone": "6033434231",
    "created_at": "2018-07-24 01:33:45.325063",
    "updated_at": "2018-08-24 15:36:05.122743",
    "country": "United States",
    "longitude": "-70.8739150714286",
    "latitude": "43.1975976071429"
  },
  {
    "id": "4316",
    "name": "Granite Roots Brewing",
    "brewery_type": "micro",
    "street": "244 N Main St",
    "city": "Troy",
    "state": "New Hampshire",
    "postal_code": "03465-",
    "website_url": "http://www.graniterootsbrewing.com",
    "phone": "6032423435",
    "created_at": "2018-07-24 01:33:45.337239",
    "updated_at": "2018-08-24 15:36:05.634162",
    "country": "United States",
    "longitude": "-72.1897314449854",
    "latitude": "42.8440135755583"
  },
  {
    "id": "4320",
    "name": "Henniker Brewing Company, LLC",
    "brewery_type": "micro",
    "street": "129 Centervale Rd",
    "city": "Henniker",
    "state": "New Hampshire",
    "postal_code": "03242-3280",
    "website_url": "http://www.hennikerbrewing.com",
    "phone": "6034283579",
    "created_at": "2018-07-24 01:33:45.391218",
    "updated_at": "2018-08-24 15:36:07.062387",
    "country": "United States",
    "longitude": "-71.7824433004271",
    "latitude": "43.1788086226335"
  },
  {
    "id": "4323",
    "name": "Kettlehead Brewing Company",
    "brewery_type": "brewpub",
    "street": "407 W Main St",
    "city": "Tilton",
    "state": "New Hampshire",
    "postal_code": "03276-5012",
    "website_url": "http://www.kettleheadbrewing.com",
    "phone": "6033258266",
    "created_at": "2018-07-24 01:33:45.429441",
    "updated_at": "2018-08-24 15:36:08.66987",
    "country": "United States",
    "longitude": "-71.6001389788579",
    "latitude": "43.4421988112605"
  },
  {
    "id": "4331",
    "name": "Monadnock Brewing Company LLC",
    "brewery_type": "planning",
    "street": "",
    "city": "Langdon",
    "state": "New Hampshire",
    "postal_code": "03602-8604",
    "website_url": "http://www.monadnockbrewing.com",
    "phone": "6033136317",
    "created_at": "2018-07-24 01:33:45.530844",
    "updated_at": "2018-08-11 21:38:20.311712",
    "country": "United States",
    "longitude": "",
    "latitude": ""
  },
  {
    "id": "4332",
    "name": "Moonlight Meadery/Hidden Moon Brewing",
    "brewery_type": "contract",
    "street": "23 Londonderry Rd Unit 17",
    "city": "Londonderry",
    "state": "New Hampshire",
    "postal_code": "03053-3314",
    "website_url": "http://www.moonlightmeadery.com",
    "phone": "6032162162",
    "created_at": "2018-07-24 01:33:45.544162",
    "updated_at": "2018-08-11 21:38:20.345032",
    "country": "United States",
    "longitude": "",
    "latitude": ""
  },
  {
    "id": "4333",
    "name": "Northwoods Brewing Co",
    "brewery_type": "planning",
    "street": "",
    "city": "Northwood",
    "state": "New Hampshire",
    "postal_code": "03261",
    "website_url": "",
    "phone": "2073516983",
    "created_at": "2018-07-24 01:33:45.556773",
    "updated_at": "2018-08-11 21:38:20.375229",
    "country": "United States",
    "longitude": "",
    "latitude": ""
  },
  {
    "id": "4335",
    "name": "One Love Brewery",
    "brewery_type": "brewpub",
    "street": "25 S Mountain Rd",
    "city": "Lincoln",
    "state": "New Hampshire",
    "postal_code": "03251-4268",
    "website_url": "http://www.onelovebrewery.com",
    "phone": "6037457290",
    "created_at": "2018-07-24 01:33:45.582589",
    "updated_at": "2018-08-11 21:38:20.44699",
    "country": "United States",
    "longitude": "",
    "latitude": ""
  },
  {
    "id": "4336",
    "name": "Out.Haus Ales",
    "brewery_type": "micro",
    "street": "442 1st Nh Tpke Unit 2",
    "city": "Northwood",
    "state": "New Hampshire",
    "postal_code": "03261-3445",
    "website_url": "http://www.outhausales.com",
    "phone": "6035482151",
    "created_at": "2018-07-24 01:33:45.595316",
    "updated_at": "2018-08-11 21:38:20.476601",
    "country": "United States",
    "longitude": "",
    "latitude": ""
  },
  {
    "id": "4337",
    "name": "Outland Brewing Company",
    "brewery_type": "planning",
    "street": "",
    "city": "Salem",
    "state": "New Hampshire",
    "postal_code": "03079-1867",
    "website_url": "",
    "phone": "",
    "created_at": "2018-07-24 01:33:45.607694",
    "updated_at": "2018-08-11 21:38:20.507465",
    "country": "United States",
    "longitude": "",
    "latitude": ""
  },
  {
    "id": "4338",
    "name": "Pipe Dream Brewing",
    "brewery_type": "brewpub",
    "street": "49 Harvey Rd Unit 4",
    "city": "Londonderry",
    "state": "New Hampshire",
    "postal_code": "03053-7442",
    "website_url": "http://www.pipedreambrewingnh.com",
    "phone": "6034040751",
    "created_at": "2018-07-24 01:33:45.619942",
    "updated_at": "2018-08-11 21:38:20.540892",
    "country": "United States",
    "longitude": "",
    "latitude": ""
  },
  {
    "id": "4340",
    "name": "Post and Beam Brewing",
    "brewery_type": "planning",
    "street": "",
    "city": "Peterborough",
    "state": "New Hampshire",
    "postal_code": "03458-1452",
    "website_url": "http://www.postandbeambrewery.com",
    "phone": "",
    "created_at": "2018-07-24 01:33:45.648071",
    "updated_at": "2018-08-11 21:38:20.730239",
    "country": "United States",
    "longitude": "",
    "latitude": ""
  },
  {
    "id": "4351",
    "name": "TaleSpinner Craft Brewery",
    "brewery_type": "planning",
    "street": "",
    "city": "Nashua",
    "state": "New Hampshire",
    "postal_code": "03062-1033",
    "website_url": "http://www.talespinnerbrew.com",
    "phone": "6032339636",
    "created_at": "2018-07-24 01:33:45.802257",
    "updated_at": "2018-08-11 21:38:21.218001",
    "country": "United States",
    "longitude": "",
    "latitude": ""
  },
  {
    "id": "4352",
    "name": "The Brewers of Nye Hill Farm",
    "brewery_type": "micro",
    "street": "250 Middletown Rd",
    "city": "Keene",
    "state": "New Hampshire",
    "postal_code": "03431-8705",
    "website_url": "",
    "phone": "",
    "created_at": "2018-07-24 01:33:45.816209",
    "updated_at": "2018-08-11 21:38:21.250141",
    "country": "United States",
    "longitude": "",
    "latitude": ""
  },
  {
    "id": "4357",
    "name": "Throwback Brewery",
    "brewery_type": "brewpub",
    "street": "7 Hobbs Rd",
    "city": "North Hampton",
    "state": "New Hampshire",
    "postal_code": "03862-2120",
    "website_url": "http://www.throwbackbrewery.com",
    "phone": "6034980123",
    "created_at": "2018-07-24 01:33:45.889077",
    "updated_at": "2018-08-11 21:38:21.420695",
    "country": "United States",
    "longitude": "",
    "latitude": ""
  },
  {
    "id": "4358",
    "name": "To Share Brewing Company",
    "brewery_type": "planning",
    "street": "",
    "city": "Manchester",
    "state": "New Hampshire",
    "postal_code": "03104",
    "website_url": "http://www.tosharebrewing.com",
    "phone": "3012376579",
    "created_at": "2018-07-24 01:33:45.905465",
    "updated_at": "2018-08-11 21:38:21.44713",
    "country": "United States",
    "longitude": "",
    "latitude": ""
  },
  {
    "id": "4334",
    "name": "Oddball Brewing",
    "brewery_type": "micro",
    "street": "6 Glass St",
    "city": "Suncook",
    "state": "New Hampshire",
    "postal_code": "03275-1512",
    "website_url": "http://www.oddballbrewingnh.com",
    "phone": "6032105654",
    "created_at": "2018-07-24 01:33:45.569547",
    "updated_at": "2018-08-24 15:36:13.08616",
    "country": "United States",
    "longitude": "-71.45239635",
    "latitude": "43.1308185"
  },
  {
    "id": "4339",
    "name": "Polyculture Brewing Company",
    "brewery_type": "micro",
    "street": "3 Camel Hump Rd",
    "city": "Croydon",
    "state": "New Hampshire",
    "postal_code": "03773",
    "website_url": "http://www.polyculturebrewing.com",
    "phone": "7735471994",
    "created_at": "2018-07-24 01:33:45.634724",
    "updated_at": "2018-08-24 15:36:15.249431",
    "country": "United States",
    "longitude": "-72.1868538853752",
    "latitude": "43.4105468943407"
  },
  {
    "id": "4341",
    "name": "Redhook - Cataqua Public House",
    "brewery_type": "regional",
    "street": "35 Corporate Dr",
    "city": "Portsmouth",
    "state": "New Hampshire",
    "postal_code": "03801-",
    "website_url": "http://www.redhook.com",
    "phone": "6034308600",
    "created_at": "2018-07-24 01:33:45.662075",
    "updated_at": "2018-08-24 15:36:15.823651",
    "country": "United States",
    "longitude": "-70.8023326882494",
    "latitude": "43.0858295074873"
  },
  {
    "id": "4342",
    "name": "Rek-Lis Brewing Company",
    "brewery_type": "micro",
    "street": "2085 Main Street",
    "city": "Bethlehem",
    "state": "New Hampshire",
    "postal_code": "03574",
    "website_url": "http://tbd",
    "phone": "6033701932",
    "created_at": "2018-07-24 01:33:45.676924",
    "updated_at": "2018-08-24 15:36:16.384822",
    "country": "United States",
    "longitude": "-71.687376",
    "latitude": "44.28042825"
  },
  {
    "id": "4344",
    "name": "Schilling Beer Co",
    "brewery_type": "brewpub",
    "street": "18 Mill St",
    "city": "Littleton",
    "state": "New Hampshire",
    "postal_code": "03561-4000",
    "website_url": "http://www.schillingbeer.com",
    "phone": "6034444800",
    "created_at": "2018-07-24 01:33:45.706103",
    "updated_at": "2018-08-24 15:36:17.502376",
    "country": "United States",
    "longitude": "-71.77281065",
    "latitude": "44.30592045"
  },
  {
    "id": "4345",
    "name": "Sea Dog Brewing Co",
    "brewery_type": "brewpub",
    "street": "1976 White Mountain Hwy #9",
    "city": "Conway",
    "state": "New Hampshire",
    "postal_code": "03860",
    "website_url": "",
    "phone": "6033560590",
    "created_at": "2018-07-24 01:33:45.719845",
    "updated_at": "2018-08-24 15:36:18.065845",
    "country": "United States",
    "longitude": "-71.1217669",
    "latitude": "44.0333227"
  },
  {
    "id": "4346",
    "name": "Smuttynose Brewing Co",
    "brewery_type": "regional",
    "street": "105 Towle Farm Rd",
    "city": "Hampton",
    "state": "New Hampshire",
    "postal_code": "03842-1806",
    "website_url": "http://www.smuttynose.com",
    "phone": "6034364026",
    "created_at": "2018-07-24 01:33:45.733754",
    "updated_at": "2018-08-24 15:36:18.631337",
    "country": "United States",
    "longitude": "-70.8535415455623",
    "latitude": "42.94551535"
  },
  {
    "id": "4347",
    "name": "Squam Brewing Co",
    "brewery_type": "micro",
    "street": "118 Perch Pond Rd",
    "city": "Holderness",
    "state": "New Hampshire",
    "postal_code": "03245-5234",
    "website_url": "http://www.squambrewing.com",
    "phone": "6032369705",
    "created_at": "2018-07-24 01:33:45.747084",
    "updated_at": "2018-08-24 15:36:19.166251",
    "country": "United States",
    "longitude": "-71.589971",
    "latitude": "43.78514"
  },
  {
    "id": "4350",
    "name": "Sublime Brewing Company",
    "brewery_type": "micro",
    "street": "5 Route 25",
    "city": "Plymouth",
    "state": "New Hampshire",
    "postal_code": "03264-3141",
    "website_url": "",
    "phone": "6032366850",
    "created_at": "2018-07-24 01:33:45.786821",
    "updated_at": "2018-08-24 15:36:20.699105",
    "country": "United States",
    "longitude": "-71.776669",
    "latitude": "43.781015"
  },
  {
    "id": "4353",
    "name": "The Lone Wolfe Brewing Co.",
    "brewery_type": "brewpub",
    "street": "36 Mill St",
    "city": "Wolfeboro",
    "state": "New Hampshire",
    "postal_code": "03894-4485",
    "website_url": "http://www.thelonewolfe.com",
    "phone": "6035151273",
    "created_at": "2018-07-24 01:33:45.830988",
    "updated_at": "2018-08-24 15:36:21.749969",
    "country": "United States",
    "longitude": "-71.2150330458599",
    "latitude": "43.5857241507431"
  },
  {
    "id": "4354",
    "name": "The Neighborhood Beer Co.",
    "brewery_type": "micro",
    "street": "156 Epping Rd",
    "city": "Exeter",
    "state": "New Hampshire",
    "postal_code": "03833-4521",
    "website_url": "http://nhbeerco.com",
    "phone": "6035126228",
    "created_at": "2018-07-24 01:33:45.844516",
    "updated_at": "2018-08-24 15:36:22.241887",
    "country": "United States",
    "longitude": "-70.9743191810049",
    "latitude": "42.9988000871583"
  },
  {
    "id": "4355",
    "name": "The Outlaw Brewing Company",
    "brewery_type": "micro",
    "street": "215 Scotland Rd",
    "city": "Winchester",
    "state": "New Hampshire",
    "postal_code": "03470-3006",
    "website_url": "http://Www.theoutlawbrewingcompany.com",
    "phone": "4136279700",
    "created_at": "2018-07-24 01:33:45.85884",
    "updated_at": "2018-08-24 15:36:22.878098",
    "country": "United States",
    "longitude": "-72.3562004469969",
    "latitude": "42.7501251872036"
  },
  {
    "id": "4356",
    "name": "The Portsmouth Brewery",
    "brewery_type": "brewpub",
    "street": "56 Market St",
    "city": "Portsmouth",
    "state": "New Hampshire",
    "postal_code": "03801-3750",
    "website_url": "http://www.portsmouthbrewery.com",
    "phone": "6034311115",
    "created_at": "2018-07-24 01:33:45.873116",
    "updated_at": "2018-08-24 15:36:23.446046",
    "country": "United States",
    "longitude": "-70.7576875",
    "latitude": "43.0780072"
  },
  {
    "id": "4360",
    "name": "White Birch Brewing",
    "brewery_type": "micro",
    "street": "1339 Hooksett Rd",
    "city": "Hooksett",
    "state": "New Hampshire",
    "postal_code": "03106-1847",
    "website_url": "http://www.whitebirchbrewing.com",
    "phone": "6032448593",
    "created_at": "2018-07-24 01:33:45.934798",
    "updated_at": "2018-08-24 15:36:24.778587",
    "country": "United States",
    "longitude": "-71.4411445689989",
    "latitude": "43.057125336169"
  },
  {
    "id": "4361",
    "name": "Woodman's Brewery",
    "brewery_type": "micro",
    "street": "195 Peaked Hill Rd",
    "city": "Bristol",
    "state": "New Hampshire",
    "postal_code": "03222-3331",
    "website_url": "http://www.facebook.com/woodmansbrewery",
    "phone": "6037443669",
    "created_at": "2018-07-24 01:33:45.947593",
    "updated_at": "2018-08-24 15:36:25.320041",
    "country": "United States",
    "longitude": "-71.7095581521551",
    "latitude": "43.6071164460837"
  },
  {
    "id": "4362",
    "name": "Woodstock Inn Brewery",
    "brewery_type": "micro",
    "street": "135 Main St",
    "city": "North Woodstock",
    "state": "New Hampshire",
    "postal_code": "03262",
    "website_url": "http://www.woodstockinnnh.com",
    "phone": "6037453951",
    "created_at": "2018-07-24 01:33:45.960531",
    "updated_at": "2018-08-24 15:36:25.878367",
    "country": "United States",
    "longitude": "-71.6865275",
    "latitude": "44.0316675"
  },
  {
    "id": "4318",
    "name": "Great Rhythm Brewing Co.",
    "brewery_type": "micro",
    "street": "105 Bartlett St Ste 6",
    "city": "Portsmouth",
    "state": "New Hampshire",
    "postal_code": "03801-7608",
    "website_url": "http://www.greatrhythmbrewing.com",
    "phone": "6034309640",
    "created_at": "2018-07-24 01:33:45.365177",
    "updated_at": "2018-08-11 21:38:19.626843",
    "country": "United States",
    "longitude": "",
    "latitude": ""
  },
  {
    "id": "4343",
    "name": "Rockingham Brewing Company",
    "brewery_type": "brewpub",
    "street": "1 Corporate Park Dr Unit 1",
    "city": "Derry",
    "state": "New Hampshire",
    "postal_code": "03038-2276",
    "website_url": "http://www.rockinghambrewing.com",
    "phone": "6032162324",
    "created_at": "2018-07-24 01:33:45.690229",
    "updated_at": "2018-08-11 21:38:20.906496",
    "country": "United States",
    "longitude": "",
    "latitude": ""
  },
  {
    "id": "4349",
    "name": "Stoneface Brewing Co",
    "brewery_type": "micro",
    "street": "436 Shattuck Way Ste 6",
    "city": "Newington",
    "state": "New Hampshire",
    "postal_code": "03801-7838",
    "website_url": "http://www.stonefacebrewing.com",
    "phone": "",
    "created_at": "2018-07-24 01:33:45.77327",
    "updated_at": "2018-08-11 21:38:21.149782",
    "country": "United States",
    "longitude": "",
    "latitude": ""
  },
  {
    "id": "4294",
    "name": "Anheuser-Busch Inc â Merrimack",
    "brewery_type": "large",
    "street": "221 Daniel Webster Hwy",
    "city": "Merrimack",
    "state": "New Hampshire",
    "postal_code": "03054-4807",
    "website_url": "",
    "phone": "6038896631",
    "created_at": "2018-07-24 01:33:44.928591",
    "updated_at": "2018-08-24 15:35:54.532324",
    "country": "United States",
    "longitude": "-71.485981616456",
    "latitude": "42.8253635"
  },
  {
    "id": "4299",
    "name": "Beara Brewing Co.",
    "brewery_type": "micro",
    "street": "2800 Lafayette Rd",
    "city": "Portsmouth",
    "state": "New Hampshire",
    "postal_code": "03801-5915",
    "website_url": "http://www.bearairishbrew.com",
    "phone": "3475780585",
    "created_at": "2018-07-24 01:33:44.991732",
    "updated_at": "2018-08-24 15:35:57.2949",
    "country": "United States",
    "longitude": "-70.790732",
    "latitude": "43.027935"
  },
  {
    "id": "4306",
    "name": "Candia Road Brewing / Nepenthe Ale House",
    "brewery_type": "micro",
    "street": "840 Candia Rd",
    "city": "Manchester",
    "state": "New Hampshire",
    "postal_code": "03109-5201",
    "website_url": "http://www.candiaroad.com",
    "phone": "6039358123",
    "created_at": "2018-07-24 01:33:45.206793",
    "updated_at": "2018-08-24 15:36:00.586513",
    "country": "United States",
    "longitude": "-71.4130109581101",
    "latitude": "42.9849563"
  },
  {
    "id": "4330",
    "name": "Moat Mountain Smoke House and Brewing Co",
    "brewery_type": "brewpub",
    "street": "3378 White Mountain Highway",
    "city": "North Conway",
    "state": "New Hampshire",
    "postal_code": "03860-1518",
    "website_url": "http://www.moatmountain.com",
    "phone": "6033566381",
    "created_at": "2018-07-24 01:33:45.518103",
    "updated_at": "2018-08-24 15:36:12.050148",
    "country": "United States",
    "longitude": "-71.1435853482066",
    "latitude": "44.06850015"
  },
  {
    "id": "4359",
    "name": "Tuckerman Brewing Co",
    "brewery_type": "micro",
    "street": "66 Hobbs St",
    "city": "Conway",
    "state": "New Hampshire",
    "postal_code": "03818-1058",
    "website_url": "http://www.tuckermanbrewing.com",
    "phone": "6034475400",
    "created_at": "2018-07-24 01:33:45.92036",
    "updated_at": "2018-08-24 15:36:24.07096",
    "country": "United States",
    "longitude": "-71.1298319553328",
    "latitude": "43.9758285775739"
  }
]