[
  {
    "id": "5321",
    "name": "Buffalo Commons Brewing Company",
    "brewery_type": "micro",
    "street": "2307 Memorial Hwy",
    "city": "Mandan",
    "state": "North Dakota",
    "postal_code": "58554-4624",
    "website_url": "http://www.buffalocommonsbeer.com",
    "phone": "7015952255",
    "created_at": "2018-07-24 01:33:59.072174",
    "updated_at": "2018-08-24 15:43:12.269279",
    "country": "United States",
    "longitude": "-100.861826744186",
    "latitude": "46.8240905581395"
  },
  {
    "id": "5331",
    "name": "Laughing Sun Brewing",
    "brewery_type": "micro",
    "street": "107 N 5th St",
    "city": "Bismarck",
    "state": "North Dakota",
    "postal_code": "58501-4026",
    "website_url": "http://www.laughingsunbrewing.com",
    "phone": "7014009750",
    "created_at": "2018-07-24 01:33:59.217925",
    "updated_at": "2018-08-24 15:43:17.59565",
    "country": "United States",
    "longitude": "-100.7844722",
    "latitude": "46.8056925"
  },
  {
    "id": "5319",
    "name": "Bismarck Brewing",
    "brewery_type": "brewpub",
    "street": "1100 Canada Ave. Suite 1",
    "city": "Bismark",
    "state": "North Dakota",
    "postal_code": "58503",
    "website_url": "http://www.bismarckbrewing.com",
    "phone": "",
    "created_at": "2018-07-24 01:33:59.043824",
    "updated_at": "2018-08-11 21:38:54.557538",
    "country": "United States",
    "longitude": "",
    "latitude": ""
  },
  {
    "id": "5320",
    "name": "Black Leg Brewery",
    "brewery_type": "planning",
    "street": "",
    "city": "McKenzie",
    "state": "North Dakota",
    "postal_code": "58572-9649",
    "website_url": "",
    "phone": "",
    "created_at": "2018-07-24 01:33:59.056913",
    "updated_at": "2018-08-11 21:38:54.599173",
    "country": "United States",
    "longitude": "",
    "latitude": ""
  },
  {
    "id": "5323",
    "name": "Drekker Brewing Company",
    "brewery_type": "micro",
    "street": "630 1st Ave N Ste 6",
    "city": "Fargo",
    "state": "North Dakota",
    "postal_code": "58102-5267",
    "website_url": "http://www.drekkerbrewing.com",
    "phone": "7015406808",
    "created_at": "2018-07-24 01:33:59.101615",
    "updated_at": "2018-08-11 21:38:54.728193",
    "country": "United States",
    "longitude": "",
    "latitude": ""
  },
  {
    "id": "5324",
    "name": "Drumconrath Brewing Company",
    "brewery_type": "micro",
    "street": "349 Knutson St Unit A",
    "city": "Mapleton",
    "state": "North Dakota",
    "postal_code": "58059-4042",
    "website_url": "",
    "phone": "",
    "created_at": "2018-07-24 01:33:59.120092",
    "updated_at": "2018-08-11 21:38:54.778887",
    "country": "United States",
    "longitude": "",
    "latitude": ""
  },
  {
    "id": "5326",
    "name": "Fargo Brewing Co",
    "brewery_type": "micro",
    "street": "610 University Dr N",
    "city": "Fargo",
    "state": "North Dakota",
    "postal_code": "58102-4342",
    "website_url": "http://www.fargobrewing.com",
    "phone": "7014782337",
    "created_at": "2018-07-24 01:33:59.148871",
    "updated_at": "2018-08-11 21:38:54.941307",
    "country": "United States",
    "longitude": "",
    "latitude": ""
  },
  {
    "id": "5330",
    "name": "Kilstone Brewing",
    "brewery_type": "micro",
    "street": "764 34th St N Unit R",
    "city": "Fargo",
    "state": "North Dakota",
    "postal_code": "58102-3097",
    "website_url": "http://www.kilstonebrewing.com",
    "phone": "7018935224",
    "created_at": "2018-07-24 01:33:59.204176",
    "updated_at": "2018-08-11 21:38:55.120258",
    "country": "United States",
    "longitude": "",
    "latitude": ""
  },
  {
    "id": "5335",
    "name": "Stonehome Brewing Company",
    "brewery_type": "brewpub",
    "street": "313 Fox Hills Pkwy",
    "city": "Watford City",
    "state": "North Dakota",
    "postal_code": "58854",
    "website_url": "http://www.stonehomebrewing.com",
    "phone": "7014442337",
    "created_at": "2018-07-24 01:33:59.270375",
    "updated_at": "2018-08-11 21:38:55.280565",
    "country": "United States",
    "longitude": "",
    "latitude": ""
  },
  {
    "id": "5322",
    "name": "Dialectic Brewing Company",
    "brewery_type": "micro",
    "street": "416 W Main St",
    "city": "Mandan",
    "state": "North Dakota",
    "postal_code": "58554",
    "website_url": "http://www.dialecticbrewingcompany.com",
    "phone": "7013181328",
    "created_at": "2018-07-24 01:33:59.086878",
    "updated_at": "2018-08-24 15:43:12.851684",
    "country": "United States",
    "longitude": "-100.895093700031",
    "latitude": "46.8257882775223"
  },
  {
    "id": "5325",
    "name": "Edwinton Brewing Company",
    "brewery_type": "brewpub",
    "street": "407 E Main Ave",
    "city": "Bismarck",
    "state": "North Dakota",
    "postal_code": "58501",
    "website_url": "http://www.edwinton.com",
    "phone": "7017127700",
    "created_at": "2018-07-24 01:33:59.134207",
    "updated_at": "2018-08-24 15:43:14.426362",
    "country": "United States",
    "longitude": "-100.785903591368",
    "latitude": "46.8053537714005"
  },
  {
    "id": "5327",
    "name": "Flatland Brewery",
    "brewery_type": "micro",
    "street": "3140 Bluestem Dr, Ste 105",
    "city": "West Fargo",
    "state": "North Dakota",
    "postal_code": "58078-8009",
    "website_url": "http://www.flatlandbrewery.com",
    "phone": "7013531178",
    "created_at": "2018-07-24 01:33:59.162558",
    "updated_at": "2018-08-24 15:43:15.531525",
    "country": "United States",
    "longitude": "-96.884736422929",
    "latitude": "46.8342507992405"
  },
  {
    "id": "5328",
    "name": "Granite City Food & Brewery (#3)",
    "brewery_type": "brewpub",
    "street": "1636 42nd St SW",
    "city": "Fargo",
    "state": "North Dakota",
    "postal_code": "58103-3324",
    "website_url": "http://www.gcfb.net",
    "phone": "7012933000",
    "created_at": "2018-07-24 01:33:59.17636",
    "updated_at": "2018-08-24 15:43:16.004284",
    "country": "United States",
    "longitude": "-96.8500756",
    "latitude": "46.8559768"
  },
  {
    "id": "5333",
    "name": "Rhombus Guys Brewing Co",
    "brewery_type": "brewpub",
    "street": "116 S 3rd St",
    "city": "Grand Forks",
    "state": "North Dakota",
    "postal_code": "58201-4784",
    "website_url": "http://www.rhombusguysbrewing.com",
    "phone": "7017570598",
    "created_at": "2018-07-24 01:33:59.243531",
    "updated_at": "2018-08-24 15:43:18.210233",
    "country": "United States",
    "longitude": "-97.0286822",
    "latitude": "47.923923"
  },
  {
    "id": "5334",
    "name": "Souris River Brewing",
    "brewery_type": "brewpub",
    "street": "32 3rd St NE",
    "city": "Minot",
    "state": "North Dakota",
    "postal_code": "58703-3108",
    "website_url": "http://www.sourisriverbrewing.com",
    "phone": "7018371884",
    "created_at": "2018-07-24 01:33:59.25646",
    "updated_at": "2018-08-24 15:43:18.826595",
    "country": "United States",
    "longitude": "-101.288321818023",
    "latitude": "48.2368652294609"
  },
  {
    "id": "5329",
    "name": "Half Brothers Brewing Company",
    "brewery_type": "brewpub",
    "street": "17 N 3rd St",
    "city": "Grand Forks",
    "state": "North Dakota",
    "postal_code": "58203-3713",
    "website_url": "http://www.halfbrothersbrewing.com",
    "phone": "7017570805",
    "created_at": "2018-07-24 01:33:59.190509",
    "updated_at": "2018-08-24 15:43:16.515728",
    "country": "United States",
    "longitude": "-97.0315443",
    "latitude": "47.9256052"
  },
  {
    "id": "5321",
    "name": "Buffalo Commons Brewing Company",
    "brewery_type": "micro",
    "street": "2307 Memorial Hwy",
    "city": "Mandan",
    "state": "North Dakota",
    "postal_code": "58554-4624",
    "website_url": "http://www.buffalocommonsbeer.com",
    "phone": "7015952255",
    "created_at": "2018-07-24 01:33:59.072174",
    "updated_at": "2018-08-24 15:43:12.269279",
    "country": "United States",
    "longitude": "-100.861826744186",
    "latitude": "46.8240905581395"
  },
  {
    "id": "5331",
    "name": "Laughing Sun Brewing",
    "brewery_type": "micro",
    "street": "107 N 5th St",
    "city": "Bismarck",
    "state": "North Dakota",
    "postal_code": "58501-4026",
    "website_url": "http://www.laughingsunbrewing.com",
    "phone": "7014009750",
    "created_at": "2018-07-24 01:33:59.217925",
    "updated_at": "2018-08-24 15:43:17.59565",
    "country": "United States",
    "longitude": "-100.7844722",
    "latitude": "46.8056925"
  },
  {
    "id": "5319",
    "name": "Bismarck Brewing",
    "brewery_type": "brewpub",
    "street": "1100 Canada Ave. Suite 1",
    "city": "Bismark",
    "state": "North Dakota",
    "postal_code": "58503",
    "website_url": "http://www.bismarckbrewing.com",
    "phone": "",
    "created_at": "2018-07-24 01:33:59.043824",
    "updated_at": "2018-08-11 21:38:54.557538",
    "country": "United States",
    "longitude": "",
    "latitude": ""
  },
  {
    "id": "5320",
    "name": "Black Leg Brewery",
    "brewery_type": "planning",
    "street": "",
    "city": "McKenzie",
    "state": "North Dakota",
    "postal_code": "58572-9649",
    "website_url": "",
    "phone": "",
    "created_at": "2018-07-24 01:33:59.056913",
    "updated_at": "2018-08-11 21:38:54.599173",
    "country": "United States",
    "longitude": "",
    "latitude": ""
  },
  {
    "id": "5323",
    "name": "Drekker Brewing Company",
    "brewery_type": "micro",
    "street": "630 1st Ave N Ste 6",
    "city": "Fargo",
    "state": "North Dakota",
    "postal_code": "58102-5267",
    "website_url": "http://www.drekkerbrewing.com",
    "phone": "7015406808",
    "created_at": "2018-07-24 01:33:59.101615",
    "updated_at": "2018-08-11 21:38:54.728193",
    "country": "United States",
    "longitude": "",
    "latitude": ""
  },
  {
    "id": "5324",
    "name": "Drumconrath Brewing Company",
    "brewery_type": "micro",
    "street": "349 Knutson St Unit A",
    "city": "Mapleton",
    "state": "North Dakota",
    "postal_code": "58059-4042",
    "website_url": "",
    "phone": "",
    "created_at": "2018-07-24 01:33:59.120092",
    "updated_at": "2018-08-11 21:38:54.778887",
    "country": "United States",
    "longitude": "",
    "latitude": ""
  },
  {
    "id": "5326",
    "name": "Fargo Brewing Co",
    "brewery_type": "micro",
    "street": "610 University Dr N",
    "city": "Fargo",
    "state": "North Dakota",
    "postal_code": "58102-4342",
    "website_url": "http://www.fargobrewing.com",
    "phone": "7014782337",
    "created_at": "2018-07-24 01:33:59.148871",
    "updated_at": "2018-08-11 21:38:54.941307",
    "country": "United States",
    "longitude": "",
    "latitude": ""
  },
  {
    "id": "5330",
    "name": "Kilstone Brewing",
    "brewery_type": "micro",
    "street": "764 34th St N Unit R",
    "city": "Fargo",
    "state": "North Dakota",
    "postal_code": "58102-3097",
    "website_url": "http://www.kilstonebrewing.com",
    "phone": "7018935224",
    "created_at": "2018-07-24 01:33:59.204176",
    "updated_at": "2018-08-11 21:38:55.120258",
    "country": "United States",
    "longitude": "",
    "latitude": ""
  },
  {
    "id": "5335",
    "name": "Stonehome Brewing Company",
    "brewery_type": "brewpub",
    "street": "313 Fox Hills Pkwy",
    "city": "Watford City",
    "state": "North Dakota",
    "postal_code": "58854",
    "website_url": "http://www.stonehomebrewing.com",
    "phone": "7014442337",
    "created_at": "2018-07-24 01:33:59.270375",
    "updated_at": "2018-08-11 21:38:55.280565",
    "country": "United States",
    "longitude": "",
    "latitude": ""
  },
  {
    "id": "5322",
    "name": "Dialectic Brewing Company",
    "brewery_type": "micro",
    "street": "416 W Main St",
    "city": "Mandan",
    "state": "North Dakota",
    "postal_code": "58554",
    "website_url": "http://www.dialecticbrewingcompany.com",
    "phone": "7013181328",
    "created_at": "2018-07-24 01:33:59.086878",
    "updated_at": "2018-08-24 15:43:12.851684",
    "country": "United States",
    "longitude": "-100.895093700031",
    "latitude": "46.8257882775223"
  },
  {
    "id": "5325",
    "name": "Edwinton Brewing Company",
    "brewery_type": "brewpub",
    "street": "407 E Main Ave",
    "city": "Bismarck",
    "state": "North Dakota",
    "postal_code": "58501",
    "website_url": "http://www.edwinton.com",
    "phone": "7017127700",
    "created_at": "2018-07-24 01:33:59.134207",
    "updated_at": "2018-08-24 15:43:14.426362",
    "country": "United States",
    "longitude": "-100.785903591368",
    "latitude": "46.8053537714005"
  },
  {
    "id": "5327",
    "name": "Flatland Brewery",
    "brewery_type": "micro",
    "street": "3140 Bluestem Dr, Ste 105",
    "city": "West Fargo",
    "state": "North Dakota",
    "postal_code": "58078-8009",
    "website_url": "http://www.flatlandbrewery.com",
    "phone": "7013531178",
    "created_at": "2018-07-24 01:33:59.162558",
    "updated_at": "2018-08-24 15:43:15.531525",
    "country": "United States",
    "longitude": "-96.884736422929",
    "latitude": "46.8342507992405"
  },
  {
    "id": "5328",
    "name": "Granite City Food & Brewery (#3)",
    "brewery_type": "brewpub",
    "street": "1636 42nd St SW",
    "city": "Fargo",
    "state": "North Dakota",
    "postal_code": "58103-3324",
    "website_url": "http://www.gcfb.net",
    "phone": "7012933000",
    "created_at": "2018-07-24 01:33:59.17636",
    "updated_at": "2018-08-24 15:43:16.004284",
    "country": "United States",
    "longitude": "-96.8500756",
    "latitude": "46.8559768"
  },
  {
    "id": "5333",
    "name": "Rhombus Guys Brewing Co",
    "brewery_type": "brewpub",
    "street": "116 S 3rd St",
    "city": "Grand Forks",
    "state": "North Dakota",
    "postal_code": "58201-4784",
    "website_url": "http://www.rhombusguysbrewing.com",
    "phone": "7017570598",
    "created_at": "2018-07-24 01:33:59.243531",
    "updated_at": "2018-08-24 15:43:18.210233",
    "country": "United States",
    "longitude": "-97.0286822",
    "latitude": "47.923923"
  },
  {
    "id": "5334",
    "name": "Souris River Brewing",
    "brewery_type": "brewpub",
    "street": "32 3rd St NE",
    "city": "Minot",
    "state": "North Dakota",
    "postal_code": "58703-3108",
    "website_url": "http://www.sourisriverbrewing.com",
    "phone": "7018371884",
    "created_at": "2018-07-24 01:33:59.25646",
    "updated_at": "2018-08-24 15:43:18.826595",
    "country": "United States",
    "longitude": "-101.288321818023",
    "latitude": "48.2368652294609"
  },
  {
    "id": "5329",
    "name": "Half Brothers Brewing Company",
    "brewery_type": "brewpub",
    "street": "17 N 3rd St",
    "city": "Grand Forks",
    "state": "North Dakota",
    "postal_code": "58203-3713",
    "website_url": "http://www.halfbrothersbrewing.com",
    "phone": "7017570805",
    "created_at": "2018-07-24 01:33:59.190509",
    "updated_at": "2018-08-24 15:43:16.515728",
    "country": "United States",
    "longitude": "-97.0315443",
    "latitude": "47.9256052"
  }
]