[
  {
    "id": "6378",
    "name": "Blue Ridge Brewing Co/Foothills Brewing",
    "brewery_type": "brewpub",
    "street": "308 Trade St",
    "city": "Greer",
    "state": "South Carolina",
    "postal_code": "29651-3432",
    "website_url": "http://www.blueridgebrewing.com",
    "phone": "8642324677",
    "created_at": "2018-07-24 01:34:14.05879",
    "updated_at": "2018-08-24 16:14:12.507995",
    "country": "United States",
    "longitude": "-82.2262648",
    "latitude": "34.9361559"
  },
  {
    "id": "6392",
    "name": "Conquest Brewing Co.",
    "brewery_type": "micro",
    "street": "947 S Stadium Rd",
    "city": "Columbia",
    "state": "South Carolina",
    "postal_code": "29201-4724",
    "website_url": "http://www.conquestbrewing.com",
    "phone": "8037123063",
    "created_at": "2018-07-24 01:34:14.275614",
    "updated_at": "2018-08-24 16:14:24.633496",
    "country": "United States",
    "longitude": "-81.023822122449",
    "latitude": "33.9710088163265"
  },
  {
    "id": "6421",
    "name": "New Groove Artisan Brewery",
    "brewery_type": "brewpub",
    "street": "4078 Highway 9",
    "city": "Boiling Springs",
    "state": "South Carolina",
    "postal_code": "29316-8501",
    "website_url": "http://www.newgroovebrew.com",
    "phone": "8645863900",
    "created_at": "2018-07-24 01:34:14.671977",
    "updated_at": "2018-08-24 16:14:54.723052",
    "country": "United States",
    "longitude": "-82.017032",
    "latitude": "35.072809"
  },
  {
    "id": "6422",
    "name": "New South Brewing Co",
    "brewery_type": "micro",
    "street": "1109 Campbell St",
    "city": "Myrtle Beach",
    "state": "South Carolina",
    "postal_code": "29577-3527",
    "website_url": "http://www.newsouthbrewing.com",
    "phone": "8439162337",
    "created_at": "2018-07-24 01:34:14.684799",
    "updated_at": "2018-08-24 16:14:56.181352",
    "country": "United States",
    "longitude": "-78.8898911334989",
    "latitude": "33.6973479679603"
  },
  {
    "id": "6432",
    "name": "River Rat Brewery",
    "brewery_type": "brewpub",
    "street": "1231 Shop Rd",
    "city": "Columbia",
    "state": "South Carolina",
    "postal_code": "29201-4744",
    "website_url": "http://www.riverratbrewery.com",
    "phone": "8037245712",
    "created_at": "2018-07-24 01:34:14.811819",
    "updated_at": "2018-08-24 16:15:11.254459",
    "country": "United States",
    "longitude": "-81.0112538602882",
    "latitude": "33.9732558901252"
  },
  {
    "id": "6424",
    "name": "Old Mill Brewpub",
    "brewery_type": "brewpub",
    "street": "711 E Main St",
    "city": "Lexington",
    "state": "South Carolina",
    "postal_code": "29072-3670",
    "website_url": "http://www.oldmillbrewpub.net",
    "phone": "8037852337",
    "created_at": "2018-07-24 01:34:14.710416",
    "updated_at": "2018-08-24 16:14:59.400847",
    "country": "United States",
    "longitude": "-81.2298014",
    "latitude": "33.9772343"
  },
  {
    "id": "6374",
    "name": "Aiken Brewing Co",
    "brewery_type": "brewpub",
    "street": "140 Laurens St SW",
    "city": "Aiken",
    "state": "South Carolina",
    "postal_code": "29801-3848",
    "website_url": "http://www.aikenbrewingcompany.com",
    "phone": "8035020707",
    "created_at": "2018-07-24 01:34:13.999153",
    "updated_at": "2018-08-24 16:14:08.10786",
    "country": "United States",
    "longitude": "-81.7228141",
    "latitude": "33.5603084"
  },
  {
    "id": "6375",
    "name": "Angry Fish Brewing Company",
    "brewery_type": "micro",
    "street": "106 Fabrister Ln Ste C",
    "city": "Lexington",
    "state": "South Carolina",
    "postal_code": "29072",
    "website_url": "http://angryfishbewingco.com",
    "phone": "8035707470",
    "created_at": "2018-07-24 01:34:14.014667",
    "updated_at": "2018-08-11 21:39:34.91052",
    "country": "United States",
    "longitude": "",
    "latitude": ""
  },
  {
    "id": "6376",
    "name": "Benford Brewing Co.",
    "brewery_type": "micro",
    "street": "2271 Boxcar Rd",
    "city": "Lancaster",
    "state": "South Carolina",
    "postal_code": "29720-9443",
    "website_url": "",
    "phone": "",
    "created_at": "2018-07-24 01:34:14.027855",
    "updated_at": "2018-08-11 21:39:34.939164",
    "country": "United States",
    "longitude": "",
    "latitude": ""
  },
  {
    "id": "6379",
    "name": "Bomb Plant Brewing Company",
    "brewery_type": "planning",
    "street": "",
    "city": "North Augusta",
    "state": "South Carolina",
    "postal_code": "29860-7462",
    "website_url": "http://www.bombplantbrewing.com",
    "phone": "7068042722",
    "created_at": "2018-07-24 01:34:14.072928",
    "updated_at": "2018-08-11 21:39:35.061742",
    "country": "United States",
    "longitude": "",
    "latitude": ""
  },
  {
    "id": "6381",
    "name": "Brewery In Planning - Dulles",
    "brewery_type": "planning",
    "street": "",
    "city": "Columbia",
    "state": "South Carolina",
    "postal_code": "29229-7322",
    "website_url": "",
    "phone": "",
    "created_at": "2018-07-24 01:34:14.101725",
    "updated_at": "2018-08-11 21:39:35.148747",
    "country": "United States",
    "longitude": "",
    "latitude": ""
  },
  {
    "id": "6382",
    "name": "Brewery in Planning - Hollywood",
    "brewery_type": "planning",
    "street": "",
    "city": "Johns Island",
    "state": "South Carolina",
    "postal_code": "29455-3461",
    "website_url": "",
    "phone": "",
    "created_at": "2018-07-24 01:34:14.117744",
    "updated_at": "2018-08-11 21:39:35.181329",
    "country": "United States",
    "longitude": "",
    "latitude": ""
  },
  {
    "id": "6383",
    "name": "Brewery in Planning - Indian Land, SC",
    "brewery_type": "planning",
    "street": "",
    "city": "Indian Land",
    "state": "South Carolina",
    "postal_code": "29707-9150",
    "website_url": "",
    "phone": "3044761110",
    "created_at": "2018-07-24 01:34:14.133685",
    "updated_at": "2018-08-11 21:39:35.210434",
    "country": "United States",
    "longitude": "",
    "latitude": ""
  },
  {
    "id": "6384",
    "name": "Brewery in Planning - Ridgeland, SC",
    "brewery_type": "planning",
    "street": "",
    "city": "Ridgeland",
    "state": "South Carolina",
    "postal_code": "29936-8284",
    "website_url": "",
    "phone": "",
    "created_at": "2018-07-24 01:34:14.14975",
    "updated_at": "2018-08-11 21:39:35.254625",
    "country": "United States",
    "longitude": "",
    "latitude": ""
  },
  {
    "id": "6385",
    "name": "Brewery in Planning - salem",
    "brewery_type": "planning",
    "street": "",
    "city": "Salem",
    "state": "South Carolina",
    "postal_code": "29676-3262",
    "website_url": "",
    "phone": "9259632763",
    "created_at": "2018-07-24 01:34:14.164449",
    "updated_at": "2018-08-11 21:39:35.292456",
    "country": "United States",
    "longitude": "",
    "latitude": ""
  },
  {
    "id": "6389",
    "name": "COAST Brewing Co",
    "brewery_type": "micro",
    "street": "1250 N 2nd St",
    "city": "North Charleston",
    "state": "South Carolina",
    "postal_code": "29405-1804",
    "website_url": "http://www.coastbrewing.com",
    "phone": "8433434727",
    "created_at": "2018-07-24 01:34:14.228523",
    "updated_at": "2018-08-11 21:39:35.500527",
    "country": "United States",
    "longitude": "",
    "latitude": ""
  },
  {
    "id": "6396",
    "name": "Dockery's",
    "brewery_type": "brewpub",
    "street": "186 Seven Farms Dr Ste F399",
    "city": "Charleston",
    "state": "South Carolina",
    "postal_code": "29492-8510",
    "website_url": "http://www.dockerysdi.com",
    "phone": "8432841173",
    "created_at": "2018-07-24 01:34:14.329207",
    "updated_at": "2018-08-11 21:39:35.740392",
    "country": "United States",
    "longitude": "",
    "latitude": ""
  },
  {
    "id": "6398",
    "name": "Fam's Brewing Company",
    "brewery_type": "brewpub",
    "street": "1291 Folly Rd",
    "city": "Charleston",
    "state": "South Carolina",
    "postal_code": "29412",
    "website_url": "http://www.famspizza.com",
    "phone": "8437937733",
    "created_at": "2018-07-24 01:34:14.355588",
    "updated_at": "2018-08-11 21:39:35.816345",
    "country": "United States",
    "longitude": "",
    "latitude": ""
  },
  {
    "id": "6401",
    "name": "Freehouse Brewery",
    "brewery_type": "micro",
    "street": "2895 Pringle St Ste B",
    "city": "Charleston",
    "state": "South Carolina",
    "postal_code": "29405-7506",
    "website_url": "http://www.freehousebeer.com",
    "phone": "",
    "created_at": "2018-07-24 01:34:14.394733",
    "updated_at": "2018-08-11 21:39:35.877918",
    "country": "United States",
    "longitude": "",
    "latitude": ""
  },
  {
    "id": "6402",
    "name": "Frothy Beard Brewing Co",
    "brewery_type": "micro",
    "street": "1401 Sam Rittenberg Blvd Ste 1",
    "city": "Charleston",
    "state": "South Carolina",
    "postal_code": "29407-5031",
    "website_url": "http://www.frothybeard.com",
    "phone": "8437932970",
    "created_at": "2018-07-24 01:34:14.409574",
    "updated_at": "2018-08-11 21:39:35.908509",
    "country": "United States",
    "longitude": "",
    "latitude": ""
  },
  {
    "id": "6404",
    "name": "Ghost Monkey Brewery",
    "brewery_type": "micro",
    "street": "522 Wando Ln",
    "city": "Mount Pleasant",
    "state": "South Carolina",
    "postal_code": "29464-8211",
    "website_url": "",
    "phone": "",
    "created_at": "2018-07-24 01:34:14.437302",
    "updated_at": "2018-08-11 21:39:35.966232",
    "country": "United States",
    "longitude": "",
    "latitude": ""
  },
  {
    "id": "6407",
    "name": "Hazelwood Brewing Company",
    "brewery_type": "planning",
    "street": "",
    "city": "Lexington",
    "state": "South Carolina",
    "postal_code": "29072",
    "website_url": "http://Hazelwoodbeer.com",
    "phone": "8034765845",
    "created_at": "2018-07-24 01:34:14.488952",
    "updated_at": "2018-08-11 21:39:36.06374",
    "country": "United States",
    "longitude": "",
    "latitude": ""
  },
  {
    "id": "6408",
    "name": "Hilton Head Brewing Co",
    "brewery_type": "brewpub",
    "street": "1 Cardinal Ct Ste 13",
    "city": "Hilton Head Island",
    "state": "South Carolina",
    "postal_code": "29926-3401",
    "website_url": "",
    "phone": "8437153251",
    "created_at": "2018-07-24 01:34:14.502422",
    "updated_at": "2018-08-11 21:39:36.098322",
    "country": "United States",
    "longitude": "",
    "latitude": ""
  },
  {
    "id": "6409",
    "name": "Holy City Brewing",
    "brewery_type": "micro",
    "street": "4155 Dorchester Rd Ste C",
    "city": "Charleston",
    "state": "South Carolina",
    "postal_code": "29405-7486",
    "website_url": "http://www.holycitybrewing.com",
    "phone": "8432256089",
    "created_at": "2018-07-24 01:34:14.515368",
    "updated_at": "2018-08-11 21:39:36.144409",
    "country": "United States",
    "longitude": "",
    "latitude": ""
  },
  {
    "id": "6412",
    "name": "Iron Hill Brewery & Restaurant - Greenville",
    "brewery_type": "brewpub",
    "street": "741 Haywood Rd",
    "city": "Greenville",
    "state": "South Carolina",
    "postal_code": "29607",
    "website_url": "http://www.ironhillbrewery.com",
    "phone": "8645687009",
    "created_at": "2018-07-24 01:34:14.553918",
    "updated_at": "2018-08-11 21:39:36.235137",
    "country": "United States",
    "longitude": "",
    "latitude": ""
  },
  {
    "id": "6415",
    "name": "Liability Brewing Co.",
    "brewery_type": "planning",
    "street": "",
    "city": "Greenville",
    "state": "South Carolina",
    "postal_code": "29609-5559",
    "website_url": "http://www.liabilitybrewing.co",
    "phone": "",
    "created_at": "2018-07-24 01:34:14.592882",
    "updated_at": "2018-08-11 21:39:36.354545",
    "country": "United States",
    "longitude": "",
    "latitude": ""
  },
  {
    "id": "6417",
    "name": "Lincoln and South Brewing Co.",
    "brewery_type": "planning",
    "street": "",
    "city": "Hilton Head Island",
    "state": "South Carolina",
    "postal_code": "29928",
    "website_url": "http://www.lincolnandsouth.com",
    "phone": "8434222847",
    "created_at": "2018-07-24 01:34:14.618972",
    "updated_at": "2018-08-11 21:39:36.425112",
    "country": "United States",
    "longitude": "",
    "latitude": ""
  },
  {
    "id": "6419",
    "name": "Low Tide Brewing",
    "brewery_type": "micro",
    "street": "2863 Maybank Hwy",
    "city": "Johns Island",
    "state": "South Carolina",
    "postal_code": "29455-4808",
    "website_url": "http://www.lowtidebrewing.com",
    "phone": "8435017570",
    "created_at": "2018-07-24 01:34:14.644846",
    "updated_at": "2018-08-11 21:39:36.526121",
    "country": "United States",
    "longitude": "",
    "latitude": ""
  },
  {
    "id": "6380",
    "name": "Brewery 85",
    "brewery_type": "micro",
    "street": "6 Whitlee Ct",
    "city": "Greenville",
    "state": "South Carolina",
    "postal_code": "29607-3791",
    "website_url": "http://www.brewery85.com",
    "phone": "",
    "created_at": "2018-07-24 01:34:14.088076",
    "updated_at": "2018-08-24 16:14:13.983377",
    "country": "United States",
    "longitude": "-82.3491500488271",
    "latitude": "34.8028183"
  },
  {
    "id": "6387",
    "name": "Charles Towne Fermentory",
    "brewery_type": "micro",
    "street": "809 Savannah Hwy",
    "city": "Charleston",
    "state": "South Carolina",
    "postal_code": "29407-7278",
    "website_url": "http://www.chsfermentory.com",
    "phone": "8436410431",
    "created_at": "2018-07-24 01:34:14.195526",
    "updated_at": "2018-08-24 16:14:17.021412",
    "country": "United States",
    "longitude": "-79.985096",
    "latitude": "32.781811"
  },
  {
    "id": "6388",
    "name": "Ciclops Cyderi and Brewery",
    "brewery_type": "brewpub",
    "street": "197 E Saint John St",
    "city": "Spartanburg",
    "state": "South Carolina",
    "postal_code": "29306-5121",
    "website_url": "http://www.ciclopscyderiandbrewery.com",
    "phone": "8647049080",
    "created_at": "2018-07-24 01:34:14.212875",
    "updated_at": "2018-08-24 16:14:18.561757",
    "country": "United States",
    "longitude": "-81.929521675633",
    "latitude": "34.95241345"
  },
  {
    "id": "6390",
    "name": "Columbia Craft Brewing Company",
    "brewery_type": "brewpub",
    "street": "520 Greene St",
    "city": "Columbia",
    "state": "South Carolina",
    "postal_code": "29201-3612",
    "website_url": "http://www.columbiacraft.com",
    "phone": "8037996027",
    "created_at": "2018-07-24 01:34:14.246566",
    "updated_at": "2018-08-24 16:14:21.614918",
    "country": "United States",
    "longitude": "-81.0420095718153",
    "latitude": "33.992366626412"
  },
  {
    "id": "6391",
    "name": "Commonhouse Aleworks",
    "brewery_type": "micro",
    "street": "4831 Ohear Ave",
    "city": "North Charleston",
    "state": "South Carolina",
    "postal_code": "29405-4925",
    "website_url": "http://www.commonhousealeworks.com",
    "phone": "8436081331",
    "created_at": "2018-07-24 01:34:14.26129",
    "updated_at": "2018-08-24 16:14:23.133035",
    "country": "United States",
    "longitude": "-79.9755637991219",
    "latitude": "32.8829971086798"
  },
  {
    "id": "6393",
    "name": "Cooper River Brewing Company",
    "brewery_type": "micro",
    "street": "2201-B Mechanic St",
    "city": "Charleston",
    "state": "South Carolina",
    "postal_code": "29405",
    "website_url": "http://www.cooperriverbrewing.com",
    "phone": "8434057979",
    "created_at": "2018-07-24 01:34:14.289179",
    "updated_at": "2018-08-24 16:14:26.11168",
    "country": "United States",
    "longitude": "-79.954817",
    "latitude": "32.817102"
  },
  {
    "id": "6394",
    "name": "CottonTown Brew Lab",
    "brewery_type": "micro",
    "street": "1223 Franklin St",
    "city": "Columbia",
    "state": "South Carolina",
    "postal_code": "29201-1958",
    "website_url": "http://www.ctbl.asurewebsites.net",
    "phone": "8444273952",
    "created_at": "2018-07-24 01:34:14.302558",
    "updated_at": "2018-08-24 16:14:27.779929",
    "country": "United States",
    "longitude": "-81.0400401428571",
    "latitude": "34.0169502857143"
  },
  {
    "id": "6395",
    "name": "Dead Eric Brewing Co. LLC",
    "brewery_type": "micro",
    "street": "433 Old House Rd",
    "city": "Ridgeland",
    "state": "South Carolina",
    "postal_code": "29936-6946",
    "website_url": "http://www.deadericbrewing.com",
    "phone": "8433383693",
    "created_at": "2018-07-24 01:34:14.31641",
    "updated_at": "2018-08-24 16:14:29.239704",
    "country": "United States",
    "longitude": "-83.042921",
    "latitude": "34.723368"
  },
  {
    "id": "6399",
    "name": "Fatty's Beer Works",
    "brewery_type": "contract",
    "street": "1436 Meeting Street Rd",
    "city": "Charleston",
    "state": "South Carolina",
    "postal_code": "29405-9342",
    "website_url": "http://www.followfatty.com",
    "phone": "8439745330",
    "created_at": "2018-07-24 01:34:14.368858",
    "updated_at": "2018-08-24 16:14:33.645761",
    "country": "United States",
    "longitude": "-79.950716",
    "latitude": "32.816629"
  },
  {
    "id": "6403",
    "name": "Full Spectrum Brewing Co",
    "brewery_type": "micro",
    "street": "2180 Carolina Place Dr Ste 101",
    "city": "Fort Mill",
    "state": "South Carolina",
    "postal_code": "29708-7002",
    "website_url": "http://www.fullspectrumbrewingco.com",
    "phone": "8037924556",
    "created_at": "2018-07-24 01:34:14.423827",
    "updated_at": "2018-08-24 16:14:38.16636",
    "country": "United States",
    "longitude": "-80.9664999359971",
    "latitude": "35.0326818386014"
  },
  {
    "id": "6405",
    "name": "Good Times Brewing",
    "brewery_type": "brewpub",
    "street": "237 Maxwell Ave",
    "city": "Greenwood",
    "state": "South Carolina",
    "postal_code": "29646-2616",
    "website_url": "http://www.goodtimesbrewing.beer",
    "phone": "8649937302",
    "created_at": "2018-07-24 01:34:14.451335",
    "updated_at": "2018-08-24 16:14:39.673035",
    "country": "United States",
    "longitude": "-82.163632244898",
    "latitude": "34.1898924489796"
  },
  {
    "id": "6406",
    "name": "Gordon Biersch Brewery Restaurant - Myrtle Beach",
    "brewery_type": "brewpub",
    "street": "3060 Howard Ave",
    "city": "Myrtle Beach",
    "state": "South Carolina",
    "postal_code": "29577-1643",
    "website_url": "http://www.craftworksrestaurants.com",
    "phone": "8438390249",
    "created_at": "2018-07-24 01:34:14.474338",
    "updated_at": "2018-08-24 16:14:41.209627",
    "country": "United States",
    "longitude": "-78.939092",
    "latitude": "33.668327"
  },
  {
    "id": "6413",
    "name": "Krafty Draft Brew Pub",
    "brewery_type": "brewpub",
    "street": "269 Charter Oak Rd",
    "city": "Lexington",
    "state": "South Carolina",
    "postal_code": "29072-9200",
    "website_url": "http://www.draftydraft.com",
    "phone": "8039960345",
    "created_at": "2018-07-24 01:34:14.565956",
    "updated_at": "2018-08-24 16:14:47.247623",
    "country": "United States",
    "longitude": "-81.305868166854",
    "latitude": "33.9871102137227"
  },
  {
    "id": "6414",
    "name": "Legal Remedy Brewing",
    "brewery_type": "brewpub",
    "street": "129 Oakland Ave",
    "city": "Rock Hill",
    "state": "South Carolina",
    "postal_code": "29730-4019",
    "website_url": "http://www.legalremedybrewing.com",
    "phone": "8033242337",
    "created_at": "2018-07-24 01:34:14.579542",
    "updated_at": "2018-08-24 16:14:48.681326",
    "country": "United States",
    "longitude": "-81.0249405",
    "latitude": "34.9304961"
  },
  {
    "id": "6416",
    "name": "Liberty Steakhouse and Brewery",
    "brewery_type": "brewpub",
    "street": "1321 Celebrity Cir",
    "city": "Myrtle Beach",
    "state": "South Carolina",
    "postal_code": "29577-7445",
    "website_url": "http://www.libertybreweryandgrill.com/home",
    "phone": "8436264677",
    "created_at": "2018-07-24 01:34:14.605804",
    "updated_at": "2018-08-24 16:14:50.143771",
    "country": "United States",
    "longitude": "-78.8794320626304",
    "latitude": "33.7193132439979"
  },
  {
    "id": "6418",
    "name": "Lo-Fi Brewing",
    "brewery_type": "micro",
    "street": "2038 Meeting St Rd",
    "city": "North Charleston",
    "state": "South Carolina",
    "postal_code": "29405-9357",
    "website_url": "http://www.lofibrewing.com",
    "phone": "8285822175",
    "created_at": "2018-07-24 01:34:14.632266",
    "updated_at": "2018-08-24 16:14:51.62014",
    "country": "United States",
    "longitude": "-79.9540931",
    "latitude": "32.8336083"
  },
  {
    "id": "6420",
    "name": "Munkle Brewing Company",
    "brewery_type": "micro",
    "street": "1513 Meeting Street Rd",
    "city": "Charleston",
    "state": "South Carolina",
    "postal_code": "29405-9301",
    "website_url": "http://MunkleBrewing.com",
    "phone": "8437893109",
    "created_at": "2018-07-24 01:34:14.658998",
    "updated_at": "2018-08-24 16:14:53.123595",
    "country": "United States",
    "longitude": "-79.9506892780644",
    "latitude": "32.8185299963622"
  },
  {
    "id": "6428",
    "name": "Quigley's Pint and Plate",
    "brewery_type": "brewpub",
    "street": "257 Willbrook Blvd",
    "city": "Pawleys Island",
    "state": "South Carolina",
    "postal_code": "29585-7789",
    "website_url": "",
    "phone": "8432377010",
    "created_at": "2018-07-24 01:34:14.762514",
    "updated_at": "2018-08-11 21:39:37.100193",
    "country": "United States",
    "longitude": "",
    "latitude": ""
  },
  {
    "id": "6431",
    "name": "River Dog Brewing Co",
    "brewery_type": "micro",
    "street": "591 Browns Cove Rd Unit H",
    "city": "Ridgeland",
    "state": "South Carolina",
    "postal_code": "29936-7281",
    "website_url": "http://www.riverdogbrewing.com",
    "phone": "8436452302",
    "created_at": "2018-07-24 01:34:14.799526",
    "updated_at": "2018-08-11 21:39:37.297202",
    "country": "United States",
    "longitude": "",
    "latitude": ""
  },
  {
    "id": "6433",
    "name": "RJ Rockers Brewing Co",
    "brewery_type": "micro",
    "street": "226 W Main St Ste A",
    "city": "Spartanburg",
    "state": "South Carolina",
    "postal_code": "29306-2308",
    "website_url": "http://www.rjrockers.com",
    "phone": "8645871435",
    "created_at": "2018-07-24 01:34:14.825249",
    "updated_at": "2018-08-11 21:39:37.418309",
    "country": "United States",
    "longitude": "",
    "latitude": ""
  },
  {
    "id": "6437",
    "name": "Slow Play Brewing Company",
    "brewery_type": "planning",
    "street": "",
    "city": "Rock Hill",
    "state": "South Carolina",
    "postal_code": "29730-3504",
    "website_url": "",
    "phone": "",
    "created_at": "2018-07-24 01:34:14.881612",
    "updated_at": "2018-08-11 21:39:37.668399",
    "country": "United States",
    "longitude": "",
    "latitude": ""
  },
  {
    "id": "6440",
    "name": "Southern Hops Brewing Co.",
    "brewery_type": "brewpub",
    "street": "911 Sunset Acres Ln",
    "city": "Florence",
    "state": "South Carolina",
    "postal_code": "29501-6073",
    "website_url": "http://www.southernhops.com",
    "phone": "8436671900",
    "created_at": "2018-07-24 01:34:14.921156",
    "updated_at": "2018-08-11 21:39:37.785346",
    "country": "United States",
    "longitude": "",
    "latitude": ""
  },
  {
    "id": "6441",
    "name": "Steel Hands Brewing",
    "brewery_type": "planning",
    "street": "",
    "city": "Cayce",
    "state": "South Carolina",
    "postal_code": "29033-3439",
    "website_url": "",
    "phone": "8039200592",
    "created_at": "2018-07-24 01:34:14.93438",
    "updated_at": "2018-08-11 21:39:37.838379",
    "country": "United States",
    "longitude": "",
    "latitude": ""
  },
  {
    "id": "6442",
    "name": "Swamp Cabbage Brewing Company",
    "brewery_type": "micro",
    "street": "921 Brookwood Dr",
    "city": "Columbia",
    "state": "South Carolina",
    "postal_code": "29201-4609",
    "website_url": "http://www.swampcabbagebrewing.com",
    "phone": "8039392589",
    "created_at": "2018-07-24 01:34:14.946562",
    "updated_at": "2018-08-11 21:39:37.900424",
    "country": "United States",
    "longitude": "",
    "latitude": ""
  },
  {
    "id": "6445",
    "name": "The Southern Growl",
    "brewery_type": "planning",
    "street": "",
    "city": "Greer",
    "state": "South Carolina",
    "postal_code": "29650-1285",
    "website_url": "http://www.thesoutherngrowl.com",
    "phone": "",
    "created_at": "2018-07-24 01:34:14.986016",
    "updated_at": "2018-08-11 21:39:37.996683",
    "country": "United States",
    "longitude": "",
    "latitude": ""
  },
  {
    "id": "6446",
    "name": "Think Tank Brew Lab",
    "brewery_type": "planning",
    "street": "",
    "city": "Greenville",
    "state": "South Carolina",
    "postal_code": "29607",
    "website_url": "http://www.thinktankbrewlab.com",
    "phone": "",
    "created_at": "2018-07-24 01:34:14.998162",
    "updated_at": "2018-08-11 21:39:38.0506",
    "country": "United States",
    "longitude": "",
    "latitude": ""
  },
  {
    "id": "6450",
    "name": "Twisted Spur Brewing",
    "brewery_type": "brewpub",
    "street": "705 Gervais St Ste A",
    "city": "Columbia",
    "state": "South Carolina",
    "postal_code": "29201-6012",
    "website_url": "",
    "phone": "8037640203",
    "created_at": "2018-07-24 01:34:15.088468",
    "updated_at": "2018-08-11 21:39:38.226897",
    "country": "United States",
    "longitude": "",
    "latitude": ""
  },
  {
    "id": "6451",
    "name": "Two Blokes Brewing Co.",
    "brewery_type": "micro",
    "street": "547 Long Point Rd Ste 101",
    "city": "Mount Pleasant",
    "state": "South Carolina",
    "postal_code": "29464-8337",
    "website_url": "http://www.twoblokesbrewing.com",
    "phone": "8436544564",
    "created_at": "2018-07-24 01:34:15.101803",
    "updated_at": "2018-08-11 21:39:38.29246",
    "country": "United States",
    "longitude": "",
    "latitude": ""
  },
  {
    "id": "6452",
    "name": "Upstate Craft Beer Company",
    "brewery_type": "brewpub",
    "street": "400 Augusta St Ste 120",
    "city": "Greenville",
    "state": "South Carolina",
    "postal_code": "29601-3552",
    "website_url": "http://www.upstatecraftbeer.com",
    "phone": "8646094590",
    "created_at": "2018-07-24 01:34:15.114005",
    "updated_at": "2018-08-11 21:39:38.333786",
    "country": "United States",
    "longitude": "",
    "latitude": ""
  },
  {
    "id": "6453",
    "name": "Westbrook Brewing Co",
    "brewery_type": "regional",
    "street": "510 Ridge Rd",
    "city": "Mount Pleasant",
    "state": "South Carolina",
    "postal_code": "29464-7811",
    "website_url": "http://www.westbrookbrewing.com",
    "phone": "8436549114",
    "created_at": "2018-07-24 01:34:15.126552",
    "updated_at": "2018-08-11 21:39:38.371768",
    "country": "United States",
    "longitude": "",
    "latitude": ""
  },
  {
    "id": "6454",
    "name": "Wide Awake Brewing Company",
    "brewery_type": "planning",
    "street": "",
    "city": "Summerville",
    "state": "South Carolina",
    "postal_code": "29486",
    "website_url": "http://www.wideawakebrewing.com",
    "phone": "8436088597",
    "created_at": "2018-07-24 01:34:15.139755",
    "updated_at": "2018-08-11 21:39:38.404305",
    "country": "United States",
    "longitude": "",
    "latitude": ""
  },
  {
    "id": "6455",
    "name": "Wooden Skiff Beer Company",
    "brewery_type": "micro",
    "street": "141 Island Dr Ste 16",
    "city": "Hilton Head Island",
    "state": "South Carolina",
    "postal_code": "29926-4500",
    "website_url": "http://www.woodenskiffbrewing.com",
    "phone": "8432904364",
    "created_at": "2018-07-24 01:34:15.152721",
    "updated_at": "2018-08-11 21:39:38.441402",
    "country": "United States",
    "longitude": "",
    "latitude": ""
  },
  {
    "id": "6426",
    "name": "Pawleys Island Brewing Company",
    "brewery_type": "brewpub",
    "street": "2668 Industrial Ave",
    "city": "North Charleston",
    "state": "South Carolina",
    "postal_code": "29405-7429",
    "website_url": "http://www.pawleysislandbrewing.com",
    "phone": "8432258292",
    "created_at": "2018-07-24 01:34:14.738774",
    "updated_at": "2018-08-24 16:15:02.355519",
    "country": "United States",
    "longitude": "-80.0042304853766",
    "latitude": "32.8533503975611"
  },
  {
    "id": "6427",
    "name": "Quest Brewing Company",
    "brewery_type": "micro",
    "street": "55 Airview Dr",
    "city": "Greenville",
    "state": "South Carolina",
    "postal_code": "29607-2632",
    "website_url": "http://www.questbrewing.com",
    "phone": "8642726232",
    "created_at": "2018-07-24 01:34:14.75066",
    "updated_at": "2018-08-24 16:15:03.818204",
    "country": "United States",
    "longitude": "-82.3451569114422",
    "latitude": "34.8465767"
  },
  {
    "id": "6429",
    "name": "Rail Line Brewing",
    "brewery_type": "brewpub",
    "street": "301 N Main St",
    "city": "Simpsonville",
    "state": "South Carolina",
    "postal_code": "29681-2311",
    "website_url": "http://www.raillinebrewing.com",
    "phone": "8645939722",
    "created_at": "2018-07-24 01:34:14.77497",
    "updated_at": "2018-08-24 16:15:06.756604",
    "country": "United States",
    "longitude": "-82.2578248084272",
    "latitude": "34.7414657"
  },
  {
    "id": "6430",
    "name": "Revelry Brewing Co.",
    "brewery_type": "micro",
    "street": "10 Conroy St",
    "city": "Charleston",
    "state": "South Carolina",
    "postal_code": "29403-3815",
    "website_url": "http://www.revelrybrewingco.com",
    "phone": "8432036194",
    "created_at": "2018-07-24 01:34:14.787231",
    "updated_at": "2018-08-24 16:15:08.203154",
    "country": "United States",
    "longitude": "-79.9439381993063",
    "latitude": "32.8072823854694"
  },
  {
    "id": "6435",
    "name": "Salt Marsh Brewing",
    "brewery_type": "brewpub",
    "street": "203 Bluffton Rd",
    "city": "Bluffton",
    "state": "South Carolina",
    "postal_code": "29910-6213",
    "website_url": "http://www.facebook.com/Saltmarshbrew/",
    "phone": "8433219556",
    "created_at": "2018-07-24 01:34:14.854569",
    "updated_at": "2018-08-24 16:15:15.831483",
    "country": "United States",
    "longitude": "-80.8604897466436",
    "latitude": "32.2372909021909"
  },
  {
    "id": "6436",
    "name": "Seminar Brewing",
    "brewery_type": "brewpub",
    "street": "551 W Lucas St",
    "city": "Florence",
    "state": "South Carolina",
    "postal_code": "29501-2817",
    "website_url": "http://seminar brewing.com",
    "phone": "8436659200",
    "created_at": "2018-07-24 01:34:14.867854",
    "updated_at": "2018-08-24 16:15:17.340041",
    "country": "United States",
    "longitude": "-79.7883766616541",
    "latitude": "34.2209957042607"
  },
  {
    "id": "6438",
    "name": "Snafu Brewing Company",
    "brewery_type": "micro",
    "street": "3280 Industry Dr",
    "city": "Charleston",
    "state": "South Carolina",
    "postal_code": "29418-8452",
    "website_url": "http://www.snafubrewingcompany.com",
    "phone": "8437674121",
    "created_at": "2018-07-24 01:34:14.894595",
    "updated_at": "2018-08-24 16:15:18.782055",
    "country": "United States",
    "longitude": "-80.0664232",
    "latitude": "32.9255082"
  },
  {
    "id": "6439",
    "name": "Southern Barrel Brewing Company",
    "brewery_type": "micro",
    "street": "375 Buckwalter Place Blvd",
    "city": "Bluffton",
    "state": "South Carolina",
    "postal_code": "29910",
    "website_url": "http://www.southernbarrelbrewingco.com",
    "phone": "8438372337",
    "created_at": "2018-07-24 01:34:14.908314",
    "updated_at": "2018-08-24 16:15:20.213428",
    "country": "United States",
    "longitude": "-80.9199124",
    "latitude": "32.2715377"
  },
  {
    "id": "6443",
    "name": "Swamp Rabbit Brewery and Taproom",
    "brewery_type": "micro",
    "street": "26 S Main St",
    "city": "Travelers Rest",
    "state": "South Carolina",
    "postal_code": "29690-1810",
    "website_url": "http://www.theswamprabbitbrewery.com",
    "phone": "8646102424",
    "created_at": "2018-07-24 01:34:14.959712",
    "updated_at": "2018-08-24 16:15:23.233484",
    "country": "United States",
    "longitude": "-82.4422763889711",
    "latitude": "34.9666584952466"
  },
  {
    "id": "6444",
    "name": "The Hold By Revelry Brewing",
    "brewery_type": "micro",
    "street": "36 Romney St",
    "city": "Charleston",
    "state": "South Carolina",
    "postal_code": "29403-3825",
    "website_url": "http://www.revelrybrewingco.com",
    "phone": "",
    "created_at": "2018-07-24 01:34:14.973296",
    "updated_at": "2018-08-24 16:15:24.796959",
    "country": "United States",
    "longitude": "-79.9456937208899",
    "latitude": "32.8076133599163"
  },
  {
    "id": "6447",
    "name": "Thomas Creek Brewery",
    "brewery_type": "micro",
    "street": "2054 Piedmont Hwy",
    "city": "Greenville",
    "state": "South Carolina",
    "postal_code": "29605-4840",
    "website_url": "http://www.thomascreekbeer.com",
    "phone": "8646051166",
    "created_at": "2018-07-24 01:34:15.043931",
    "updated_at": "2018-08-24 16:15:26.259903",
    "country": "United States",
    "longitude": "-82.42335755",
    "latitude": "34.7966767"
  },
  {
    "id": "6448",
    "name": "Tradesman Brewing Company",
    "brewery_type": "micro",
    "street": "1639 Tatum St",
    "city": "Charleston",
    "state": "South Carolina",
    "postal_code": "29412-2646",
    "website_url": "http://www.tradesmanbrewing.com",
    "phone": "8434101315",
    "created_at": "2018-07-24 01:34:15.056333",
    "updated_at": "2018-08-24 16:15:27.714298",
    "country": "United States",
    "longitude": "-79.9732138160205",
    "latitude": "32.7601392286237"
  },
  {
    "id": "6373",
    "name": "13 Stripes Brewery",
    "brewery_type": "brewpub",
    "street": "250 Mill St, Suite PW3101",
    "city": "Taylors",
    "state": "South Carolina",
    "postal_code": "29687",
    "website_url": "http://www.13StripesBrewery.com",
    "phone": "8643491430",
    "created_at": "2018-07-24 01:34:13.983008",
    "updated_at": "2018-08-11 21:39:34.842169",
    "country": "United States",
    "longitude": "",
    "latitude": ""
  },
  {
    "id": "6377",
    "name": "Birds Fly South Ale Project",
    "brewery_type": "micro",
    "street": "1320 Hampton Avenue Ext",
    "city": "Greenville",
    "state": "South Carolina",
    "postal_code": "29601-1012",
    "website_url": "",
    "phone": "8644128825",
    "created_at": "2018-07-24 01:34:14.042262",
    "updated_at": "2018-08-11 21:39:34.970197",
    "country": "United States",
    "longitude": "",
    "latitude": ""
  },
  {
    "id": "6386",
    "name": "Carolina Bauernhaus Ales",
    "brewery_type": "brewpub",
    "street": "115 Federal St",
    "city": "Anderson",
    "state": "South Carolina",
    "postal_code": "29625-4364",
    "website_url": "http://carolinabauernhaus.com",
    "phone": "8644018167",
    "created_at": "2018-07-24 01:34:14.180032",
    "updated_at": "2018-08-11 21:39:35.347315",
    "country": "United States",
    "longitude": "",
    "latitude": ""
  },
  {
    "id": "6397",
    "name": "Edmundâs Oast Brewing Co",
    "brewery_type": "brewpub",
    "street": "1505 King St Extension",
    "city": "Charleston",
    "state": "South Carolina",
    "postal_code": "29405",
    "website_url": "http://www.edmundsoast.com",
    "phone": "8437183224",
    "created_at": "2018-07-24 01:34:14.342254",
    "updated_at": "2018-08-11 21:39:35.781559",
    "country": "United States",
    "longitude": "",
    "latitude": ""
  },
  {
    "id": "6423",
    "name": "Oak Road Brewery",
    "brewery_type": "micro",
    "street": "108 E 3rd North St Ste C",
    "city": "Summerville",
    "state": "South Carolina",
    "postal_code": "29483-6810",
    "website_url": "http://www.oakroadbrewery.com",
    "phone": "8436959886",
    "created_at": "2018-07-24 01:34:14.697186",
    "updated_at": "2018-08-11 21:39:36.702166",
    "country": "United States",
    "longitude": "",
    "latitude": ""
  },
  {
    "id": "6425",
    "name": "Palmetto Brewing Co",
    "brewery_type": "regional",
    "street": "289 Huger St Bldg B",
    "city": "Charleston",
    "state": "South Carolina",
    "postal_code": "29403-4560",
    "website_url": "http://www.palmettobrewery.com",
    "phone": "8439370903",
    "created_at": "2018-07-24 01:34:14.722929",
    "updated_at": "2018-08-11 21:39:36.795222",
    "country": "United States",
    "longitude": "",
    "latitude": ""
  },
  {
    "id": "6434",
    "name": "Rusty Bull Brewing Company",
    "brewery_type": "brewpub",
    "street": "3005 W Montague Ave Ste 110",
    "city": "North Charleston",
    "state": "South Carolina",
    "postal_code": "29418-7908",
    "website_url": "http://Www.rustybullbrewing.com",
    "phone": "8432258600",
    "created_at": "2018-07-24 01:34:14.842062",
    "updated_at": "2018-08-11 21:39:37.470849",
    "country": "United States",
    "longitude": "",
    "latitude": ""
  },
  {
    "id": "6410",
    "name": "Hunter Gatherer Brewery and Alehouse",
    "brewery_type": "brewpub",
    "street": "900 Main St",
    "city": "Columbia",
    "state": "South Carolina",
    "postal_code": "29201-3964",
    "website_url": "http://www.huntergathererbrewery.com",
    "phone": "8037480540",
    "created_at": "2018-07-24 01:34:14.528093",
    "updated_at": "2018-08-24 16:14:45.766944",
    "country": "United States",
    "longitude": "-81.0315874",
    "latitude": "33.997366"
  },
  {
    "id": "6449",
    "name": "Twisted Cypress Brewing Company",
    "brewery_type": "micro",
    "street": "1897 Sam Rittenberg Blvd",
    "city": "Charleston",
    "state": "South Carolina",
    "postal_code": "29407-4870",
    "website_url": "http://www.twistedcypressbrewingco.com",
    "phone": "8436081899",
    "created_at": "2018-07-24 01:34:15.069214",
    "updated_at": "2018-08-24 16:15:29.211155",
    "country": "United States",
    "longitude": "-80.0219063047438",
    "latitude": "32.7990541201577"
  },
  {
    "id": "6378",
    "name": "Blue Ridge Brewing Co/Foothills Brewing",
    "brewery_type": "brewpub",
    "street": "308 Trade St",
    "city": "Greer",
    "state": "South Carolina",
    "postal_code": "29651-3432",
    "website_url": "http://www.blueridgebrewing.com",
    "phone": "8642324677",
    "created_at": "2018-07-24 01:34:14.05879",
    "updated_at": "2018-08-24 16:14:12.507995",
    "country": "United States",
    "longitude": "-82.2262648",
    "latitude": "34.9361559"
  },
  {
    "id": "6392",
    "name": "Conquest Brewing Co.",
    "brewery_type": "micro",
    "street": "947 S Stadium Rd",
    "city": "Columbia",
    "state": "South Carolina",
    "postal_code": "29201-4724",
    "website_url": "http://www.conquestbrewing.com",
    "phone": "8037123063",
    "created_at": "2018-07-24 01:34:14.275614",
    "updated_at": "2018-08-24 16:14:24.633496",
    "country": "United States",
    "longitude": "-81.023822122449",
    "latitude": "33.9710088163265"
  },
  {
    "id": "6421",
    "name": "New Groove Artisan Brewery",
    "brewery_type": "brewpub",
    "street": "4078 Highway 9",
    "city": "Boiling Springs",
    "state": "South Carolina",
    "postal_code": "29316-8501",
    "website_url": "http://www.newgroovebrew.com",
    "phone": "8645863900",
    "created_at": "2018-07-24 01:34:14.671977",
    "updated_at": "2018-08-24 16:14:54.723052",
    "country": "United States",
    "longitude": "-82.017032",
    "latitude": "35.072809"
  },
  {
    "id": "6422",
    "name": "New South Brewing Co",
    "brewery_type": "micro",
    "street": "1109 Campbell St",
    "city": "Myrtle Beach",
    "state": "South Carolina",
    "postal_code": "29577-3527",
    "website_url": "http://www.newsouthbrewing.com",
    "phone": "8439162337",
    "created_at": "2018-07-24 01:34:14.684799",
    "updated_at": "2018-08-24 16:14:56.181352",
    "country": "United States",
    "longitude": "-78.8898911334989",
    "latitude": "33.6973479679603"
  },
  {
    "id": "6432",
    "name": "River Rat Brewery",
    "brewery_type": "brewpub",
    "street": "1231 Shop Rd",
    "city": "Columbia",
    "state": "South Carolina",
    "postal_code": "29201-4744",
    "website_url": "http://www.riverratbrewery.com",
    "phone": "8037245712",
    "created_at": "2018-07-24 01:34:14.811819",
    "updated_at": "2018-08-24 16:15:11.254459",
    "country": "United States",
    "longitude": "-81.0112538602882",
    "latitude": "33.9732558901252"
  },
  {
    "id": "6424",
    "name": "Old Mill Brewpub",
    "brewery_type": "brewpub",
    "street": "711 E Main St",
    "city": "Lexington",
    "state": "South Carolina",
    "postal_code": "29072-3670",
    "website_url": "http://www.oldmillbrewpub.net",
    "phone": "8037852337",
    "created_at": "2018-07-24 01:34:14.710416",
    "updated_at": "2018-08-24 16:14:59.400847",
    "country": "United States",
    "longitude": "-81.2298014",
    "latitude": "33.9772343"
  },
  {
    "id": "6374",
    "name": "Aiken Brewing Co",
    "brewery_type": "brewpub",
    "street": "140 Laurens St SW",
    "city": "Aiken",
    "state": "South Carolina",
    "postal_code": "29801-3848",
    "website_url": "http://www.aikenbrewingcompany.com",
    "phone": "8035020707",
    "created_at": "2018-07-24 01:34:13.999153",
    "updated_at": "2018-08-24 16:14:08.10786",
    "country": "United States",
    "longitude": "-81.7228141",
    "latitude": "33.5603084"
  },
  {
    "id": "6375",
    "name": "Angry Fish Brewing Company",
    "brewery_type": "micro",
    "street": "106 Fabrister Ln Ste C",
    "city": "Lexington",
    "state": "South Carolina",
    "postal_code": "29072",
    "website_url": "http://angryfishbewingco.com",
    "phone": "8035707470",
    "created_at": "2018-07-24 01:34:14.014667",
    "updated_at": "2018-08-11 21:39:34.91052",
    "country": "United States",
    "longitude": "",
    "latitude": ""
  },
  {
    "id": "6376",
    "name": "Benford Brewing Co.",
    "brewery_type": "micro",
    "street": "2271 Boxcar Rd",
    "city": "Lancaster",
    "state": "South Carolina",
    "postal_code": "29720-9443",
    "website_url": "",
    "phone": "",
    "created_at": "2018-07-24 01:34:14.027855",
    "updated_at": "2018-08-11 21:39:34.939164",
    "country": "United States",
    "longitude": "",
    "latitude": ""
  },
  {
    "id": "6379",
    "name": "Bomb Plant Brewing Company",
    "brewery_type": "planning",
    "street": "",
    "city": "North Augusta",
    "state": "South Carolina",
    "postal_code": "29860-7462",
    "website_url": "http://www.bombplantbrewing.com",
    "phone": "7068042722",
    "created_at": "2018-07-24 01:34:14.072928",
    "updated_at": "2018-08-11 21:39:35.061742",
    "country": "United States",
    "longitude": "",
    "latitude": ""
  },
  {
    "id": "6381",
    "name": "Brewery In Planning - Dulles",
    "brewery_type": "planning",
    "street": "",
    "city": "Columbia",
    "state": "South Carolina",
    "postal_code": "29229-7322",
    "website_url": "",
    "phone": "",
    "created_at": "2018-07-24 01:34:14.101725",
    "updated_at": "2018-08-11 21:39:35.148747",
    "country": "United States",
    "longitude": "",
    "latitude": ""
  },
  {
    "id": "6382",
    "name": "Brewery in Planning - Hollywood",
    "brewery_type": "planning",
    "street": "",
    "city": "Johns Island",
    "state": "South Carolina",
    "postal_code": "29455-3461",
    "website_url": "",
    "phone": "",
    "created_at": "2018-07-24 01:34:14.117744",
    "updated_at": "2018-08-11 21:39:35.181329",
    "country": "United States",
    "longitude": "",
    "latitude": ""
  },
  {
    "id": "6383",
    "name": "Brewery in Planning - Indian Land, SC",
    "brewery_type": "planning",
    "street": "",
    "city": "Indian Land",
    "state": "South Carolina",
    "postal_code": "29707-9150",
    "website_url": "",
    "phone": "3044761110",
    "created_at": "2018-07-24 01:34:14.133685",
    "updated_at": "2018-08-11 21:39:35.210434",
    "country": "United States",
    "longitude": "",
    "latitude": ""
  },
  {
    "id": "6384",
    "name": "Brewery in Planning - Ridgeland, SC",
    "brewery_type": "planning",
    "street": "",
    "city": "Ridgeland",
    "state": "South Carolina",
    "postal_code": "29936-8284",
    "website_url": "",
    "phone": "",
    "created_at": "2018-07-24 01:34:14.14975",
    "updated_at": "2018-08-11 21:39:35.254625",
    "country": "United States",
    "longitude": "",
    "latitude": ""
  },
  {
    "id": "6385",
    "name": "Brewery in Planning - salem",
    "brewery_type": "planning",
    "street": "",
    "city": "Salem",
    "state": "South Carolina",
    "postal_code": "29676-3262",
    "website_url": "",
    "phone": "9259632763",
    "created_at": "2018-07-24 01:34:14.164449",
    "updated_at": "2018-08-11 21:39:35.292456",
    "country": "United States",
    "longitude": "",
    "latitude": ""
  },
  {
    "id": "6389",
    "name": "COAST Brewing Co",
    "brewery_type": "micro",
    "street": "1250 N 2nd St",
    "city": "North Charleston",
    "state": "South Carolina",
    "postal_code": "29405-1804",
    "website_url": "http://www.coastbrewing.com",
    "phone": "8433434727",
    "created_at": "2018-07-24 01:34:14.228523",
    "updated_at": "2018-08-11 21:39:35.500527",
    "country": "United States",
    "longitude": "",
    "latitude": ""
  },
  {
    "id": "6396",
    "name": "Dockery's",
    "brewery_type": "brewpub",
    "street": "186 Seven Farms Dr Ste F399",
    "city": "Charleston",
    "state": "South Carolina",
    "postal_code": "29492-8510",
    "website_url": "http://www.dockerysdi.com",
    "phone": "8432841173",
    "created_at": "2018-07-24 01:34:14.329207",
    "updated_at": "2018-08-11 21:39:35.740392",
    "country": "United States",
    "longitude": "",
    "latitude": ""
  },
  {
    "id": "6398",
    "name": "Fam's Brewing Company",
    "brewery_type": "brewpub",
    "street": "1291 Folly Rd",
    "city": "Charleston",
    "state": "South Carolina",
    "postal_code": "29412",
    "website_url": "http://www.famspizza.com",
    "phone": "8437937733",
    "created_at": "2018-07-24 01:34:14.355588",
    "updated_at": "2018-08-11 21:39:35.816345",
    "country": "United States",
    "longitude": "",
    "latitude": ""
  },
  {
    "id": "6401",
    "name": "Freehouse Brewery",
    "brewery_type": "micro",
    "street": "2895 Pringle St Ste B",
    "city": "Charleston",
    "state": "South Carolina",
    "postal_code": "29405-7506",
    "website_url": "http://www.freehousebeer.com",
    "phone": "",
    "created_at": "2018-07-24 01:34:14.394733",
    "updated_at": "2018-08-11 21:39:35.877918",
    "country": "United States",
    "longitude": "",
    "latitude": ""
  },
  {
    "id": "6402",
    "name": "Frothy Beard Brewing Co",
    "brewery_type": "micro",
    "street": "1401 Sam Rittenberg Blvd Ste 1",
    "city": "Charleston",
    "state": "South Carolina",
    "postal_code": "29407-5031",
    "website_url": "http://www.frothybeard.com",
    "phone": "8437932970",
    "created_at": "2018-07-24 01:34:14.409574",
    "updated_at": "2018-08-11 21:39:35.908509",
    "country": "United States",
    "longitude": "",
    "latitude": ""
  },
  {
    "id": "6404",
    "name": "Ghost Monkey Brewery",
    "brewery_type": "micro",
    "street": "522 Wando Ln",
    "city": "Mount Pleasant",
    "state": "South Carolina",
    "postal_code": "29464-8211",
    "website_url": "",
    "phone": "",
    "created_at": "2018-07-24 01:34:14.437302",
    "updated_at": "2018-08-11 21:39:35.966232",
    "country": "United States",
    "longitude": "",
    "latitude": ""
  },
  {
    "id": "6407",
    "name": "Hazelwood Brewing Company",
    "brewery_type": "planning",
    "street": "",
    "city": "Lexington",
    "state": "South Carolina",
    "postal_code": "29072",
    "website_url": "http://Hazelwoodbeer.com",
    "phone": "8034765845",
    "created_at": "2018-07-24 01:34:14.488952",
    "updated_at": "2018-08-11 21:39:36.06374",
    "country": "United States",
    "longitude": "",
    "latitude": ""
  },
  {
    "id": "6408",
    "name": "Hilton Head Brewing Co",
    "brewery_type": "brewpub",
    "street": "1 Cardinal Ct Ste 13",
    "city": "Hilton Head Island",
    "state": "South Carolina",
    "postal_code": "29926-3401",
    "website_url": "",
    "phone": "8437153251",
    "created_at": "2018-07-24 01:34:14.502422",
    "updated_at": "2018-08-11 21:39:36.098322",
    "country": "United States",
    "longitude": "",
    "latitude": ""
  },
  {
    "id": "6409",
    "name": "Holy City Brewing",
    "brewery_type": "micro",
    "street": "4155 Dorchester Rd Ste C",
    "city": "Charleston",
    "state": "South Carolina",
    "postal_code": "29405-7486",
    "website_url": "http://www.holycitybrewing.com",
    "phone": "8432256089",
    "created_at": "2018-07-24 01:34:14.515368",
    "updated_at": "2018-08-11 21:39:36.144409",
    "country": "United States",
    "longitude": "",
    "latitude": ""
  },
  {
    "id": "6412",
    "name": "Iron Hill Brewery & Restaurant - Greenville",
    "brewery_type": "brewpub",
    "street": "741 Haywood Rd",
    "city": "Greenville",
    "state": "South Carolina",
    "postal_code": "29607",
    "website_url": "http://www.ironhillbrewery.com",
    "phone": "8645687009",
    "created_at": "2018-07-24 01:34:14.553918",
    "updated_at": "2018-08-11 21:39:36.235137",
    "country": "United States",
    "longitude": "",
    "latitude": ""
  },
  {
    "id": "6415",
    "name": "Liability Brewing Co.",
    "brewery_type": "planning",
    "street": "",
    "city": "Greenville",
    "state": "South Carolina",
    "postal_code": "29609-5559",
    "website_url": "http://www.liabilitybrewing.co",
    "phone": "",
    "created_at": "2018-07-24 01:34:14.592882",
    "updated_at": "2018-08-11 21:39:36.354545",
    "country": "United States",
    "longitude": "",
    "latitude": ""
  },
  {
    "id": "6417",
    "name": "Lincoln and South Brewing Co.",
    "brewery_type": "planning",
    "street": "",
    "city": "Hilton Head Island",
    "state": "South Carolina",
    "postal_code": "29928",
    "website_url": "http://www.lincolnandsouth.com",
    "phone": "8434222847",
    "created_at": "2018-07-24 01:34:14.618972",
    "updated_at": "2018-08-11 21:39:36.425112",
    "country": "United States",
    "longitude": "",
    "latitude": ""
  },
  {
    "id": "6419",
    "name": "Low Tide Brewing",
    "brewery_type": "micro",
    "street": "2863 Maybank Hwy",
    "city": "Johns Island",
    "state": "South Carolina",
    "postal_code": "29455-4808",
    "website_url": "http://www.lowtidebrewing.com",
    "phone": "8435017570",
    "created_at": "2018-07-24 01:34:14.644846",
    "updated_at": "2018-08-11 21:39:36.526121",
    "country": "United States",
    "longitude": "",
    "latitude": ""
  },
  {
    "id": "6380",
    "name": "Brewery 85",
    "brewery_type": "micro",
    "street": "6 Whitlee Ct",
    "city": "Greenville",
    "state": "South Carolina",
    "postal_code": "29607-3791",
    "website_url": "http://www.brewery85.com",
    "phone": "",
    "created_at": "2018-07-24 01:34:14.088076",
    "updated_at": "2018-08-24 16:14:13.983377",
    "country": "United States",
    "longitude": "-82.3491500488271",
    "latitude": "34.8028183"
  },
  {
    "id": "6387",
    "name": "Charles Towne Fermentory",
    "brewery_type": "micro",
    "street": "809 Savannah Hwy",
    "city": "Charleston",
    "state": "South Carolina",
    "postal_code": "29407-7278",
    "website_url": "http://www.chsfermentory.com",
    "phone": "8436410431",
    "created_at": "2018-07-24 01:34:14.195526",
    "updated_at": "2018-08-24 16:14:17.021412",
    "country": "United States",
    "longitude": "-79.985096",
    "latitude": "32.781811"
  },
  {
    "id": "6388",
    "name": "Ciclops Cyderi and Brewery",
    "brewery_type": "brewpub",
    "street": "197 E Saint John St",
    "city": "Spartanburg",
    "state": "South Carolina",
    "postal_code": "29306-5121",
    "website_url": "http://www.ciclopscyderiandbrewery.com",
    "phone": "8647049080",
    "created_at": "2018-07-24 01:34:14.212875",
    "updated_at": "2018-08-24 16:14:18.561757",
    "country": "United States",
    "longitude": "-81.929521675633",
    "latitude": "34.95241345"
  },
  {
    "id": "6390",
    "name": "Columbia Craft Brewing Company",
    "brewery_type": "brewpub",
    "street": "520 Greene St",
    "city": "Columbia",
    "state": "South Carolina",
    "postal_code": "29201-3612",
    "website_url": "http://www.columbiacraft.com",
    "phone": "8037996027",
    "created_at": "2018-07-24 01:34:14.246566",
    "updated_at": "2018-08-24 16:14:21.614918",
    "country": "United States",
    "longitude": "-81.0420095718153",
    "latitude": "33.992366626412"
  },
  {
    "id": "6391",
    "name": "Commonhouse Aleworks",
    "brewery_type": "micro",
    "street": "4831 Ohear Ave",
    "city": "North Charleston",
    "state": "South Carolina",
    "postal_code": "29405-4925",
    "website_url": "http://www.commonhousealeworks.com",
    "phone": "8436081331",
    "created_at": "2018-07-24 01:34:14.26129",
    "updated_at": "2018-08-24 16:14:23.133035",
    "country": "United States",
    "longitude": "-79.9755637991219",
    "latitude": "32.8829971086798"
  },
  {
    "id": "6393",
    "name": "Cooper River Brewing Company",
    "brewery_type": "micro",
    "street": "2201-B Mechanic St",
    "city": "Charleston",
    "state": "South Carolina",
    "postal_code": "29405",
    "website_url": "http://www.cooperriverbrewing.com",
    "phone": "8434057979",
    "created_at": "2018-07-24 01:34:14.289179",
    "updated_at": "2018-08-24 16:14:26.11168",
    "country": "United States",
    "longitude": "-79.954817",
    "latitude": "32.817102"
  },
  {
    "id": "6394",
    "name": "CottonTown Brew Lab",
    "brewery_type": "micro",
    "street": "1223 Franklin St",
    "city": "Columbia",
    "state": "South Carolina",
    "postal_code": "29201-1958",
    "website_url": "http://www.ctbl.asurewebsites.net",
    "phone": "8444273952",
    "created_at": "2018-07-24 01:34:14.302558",
    "updated_at": "2018-08-24 16:14:27.779929",
    "country": "United States",
    "longitude": "-81.0400401428571",
    "latitude": "34.0169502857143"
  },
  {
    "id": "6395",
    "name": "Dead Eric Brewing Co. LLC",
    "brewery_type": "micro",
    "street": "433 Old House Rd",
    "city": "Ridgeland",
    "state": "South Carolina",
    "postal_code": "29936-6946",
    "website_url": "http://www.deadericbrewing.com",
    "phone": "8433383693",
    "created_at": "2018-07-24 01:34:14.31641",
    "updated_at": "2018-08-24 16:14:29.239704",
    "country": "United States",
    "longitude": "-83.042921",
    "latitude": "34.723368"
  },
  {
    "id": "6399",
    "name": "Fatty's Beer Works",
    "brewery_type": "contract",
    "street": "1436 Meeting Street Rd",
    "city": "Charleston",
    "state": "South Carolina",
    "postal_code": "29405-9342",
    "website_url": "http://www.followfatty.com",
    "phone": "8439745330",
    "created_at": "2018-07-24 01:34:14.368858",
    "updated_at": "2018-08-24 16:14:33.645761",
    "country": "United States",
    "longitude": "-79.950716",
    "latitude": "32.816629"
  },
  {
    "id": "6403",
    "name": "Full Spectrum Brewing Co",
    "brewery_type": "micro",
    "street": "2180 Carolina Place Dr Ste 101",
    "city": "Fort Mill",
    "state": "South Carolina",
    "postal_code": "29708-7002",
    "website_url": "http://www.fullspectrumbrewingco.com",
    "phone": "8037924556",
    "created_at": "2018-07-24 01:34:14.423827",
    "updated_at": "2018-08-24 16:14:38.16636",
    "country": "United States",
    "longitude": "-80.9664999359971",
    "latitude": "35.0326818386014"
  },
  {
    "id": "6405",
    "name": "Good Times Brewing",
    "brewery_type": "brewpub",
    "street": "237 Maxwell Ave",
    "city": "Greenwood",
    "state": "South Carolina",
    "postal_code": "29646-2616",
    "website_url": "http://www.goodtimesbrewing.beer",
    "phone": "8649937302",
    "created_at": "2018-07-24 01:34:14.451335",
    "updated_at": "2018-08-24 16:14:39.673035",
    "country": "United States",
    "longitude": "-82.163632244898",
    "latitude": "34.1898924489796"
  },
  {
    "id": "6406",
    "name": "Gordon Biersch Brewery Restaurant - Myrtle Beach",
    "brewery_type": "brewpub",
    "street": "3060 Howard Ave",
    "city": "Myrtle Beach",
    "state": "South Carolina",
    "postal_code": "29577-1643",
    "website_url": "http://www.craftworksrestaurants.com",
    "phone": "8438390249",
    "created_at": "2018-07-24 01:34:14.474338",
    "updated_at": "2018-08-24 16:14:41.209627",
    "country": "United States",
    "longitude": "-78.939092",
    "latitude": "33.668327"
  },
  {
    "id": "6413",
    "name": "Krafty Draft Brew Pub",
    "brewery_type": "brewpub",
    "street": "269 Charter Oak Rd",
    "city": "Lexington",
    "state": "South Carolina",
    "postal_code": "29072-9200",
    "website_url": "http://www.draftydraft.com",
    "phone": "8039960345",
    "created_at": "2018-07-24 01:34:14.565956",
    "updated_at": "2018-08-24 16:14:47.247623",
    "country": "United States",
    "longitude": "-81.305868166854",
    "latitude": "33.9871102137227"
  },
  {
    "id": "6414",
    "name": "Legal Remedy Brewing",
    "brewery_type": "brewpub",
    "street": "129 Oakland Ave",
    "city": "Rock Hill",
    "state": "South Carolina",
    "postal_code": "29730-4019",
    "website_url": "http://www.legalremedybrewing.com",
    "phone": "8033242337",
    "created_at": "2018-07-24 01:34:14.579542",
    "updated_at": "2018-08-24 16:14:48.681326",
    "country": "United States",
    "longitude": "-81.0249405",
    "latitude": "34.9304961"
  },
  {
    "id": "6416",
    "name": "Liberty Steakhouse and Brewery",
    "brewery_type": "brewpub",
    "street": "1321 Celebrity Cir",
    "city": "Myrtle Beach",
    "state": "South Carolina",
    "postal_code": "29577-7445",
    "website_url": "http://www.libertybreweryandgrill.com/home",
    "phone": "8436264677",
    "created_at": "2018-07-24 01:34:14.605804",
    "updated_at": "2018-08-24 16:14:50.143771",
    "country": "United States",
    "longitude": "-78.8794320626304",
    "latitude": "33.7193132439979"
  },
  {
    "id": "6418",
    "name": "Lo-Fi Brewing",
    "brewery_type": "micro",
    "street": "2038 Meeting St Rd",
    "city": "North Charleston",
    "state": "South Carolina",
    "postal_code": "29405-9357",
    "website_url": "http://www.lofibrewing.com",
    "phone": "8285822175",
    "created_at": "2018-07-24 01:34:14.632266",
    "updated_at": "2018-08-24 16:14:51.62014",
    "country": "United States",
    "longitude": "-79.9540931",
    "latitude": "32.8336083"
  },
  {
    "id": "6420",
    "name": "Munkle Brewing Company",
    "brewery_type": "micro",
    "street": "1513 Meeting Street Rd",
    "city": "Charleston",
    "state": "South Carolina",
    "postal_code": "29405-9301",
    "website_url": "http://MunkleBrewing.com",
    "phone": "8437893109",
    "created_at": "2018-07-24 01:34:14.658998",
    "updated_at": "2018-08-24 16:14:53.123595",
    "country": "United States",
    "longitude": "-79.9506892780644",
    "latitude": "32.8185299963622"
  },
  {
    "id": "6428",
    "name": "Quigley's Pint and Plate",
    "brewery_type": "brewpub",
    "street": "257 Willbrook Blvd",
    "city": "Pawleys Island",
    "state": "South Carolina",
    "postal_code": "29585-7789",
    "website_url": "",
    "phone": "8432377010",
    "created_at": "2018-07-24 01:34:14.762514",
    "updated_at": "2018-08-11 21:39:37.100193",
    "country": "United States",
    "longitude": "",
    "latitude": ""
  },
  {
    "id": "6431",
    "name": "River Dog Brewing Co",
    "brewery_type": "micro",
    "street": "591 Browns Cove Rd Unit H",
    "city": "Ridgeland",
    "state": "South Carolina",
    "postal_code": "29936-7281",
    "website_url": "http://www.riverdogbrewing.com",
    "phone": "8436452302",
    "created_at": "2018-07-24 01:34:14.799526",
    "updated_at": "2018-08-11 21:39:37.297202",
    "country": "United States",
    "longitude": "",
    "latitude": ""
  },
  {
    "id": "6433",
    "name": "RJ Rockers Brewing Co",
    "brewery_type": "micro",
    "street": "226 W Main St Ste A",
    "city": "Spartanburg",
    "state": "South Carolina",
    "postal_code": "29306-2308",
    "website_url": "http://www.rjrockers.com",
    "phone": "8645871435",
    "created_at": "2018-07-24 01:34:14.825249",
    "updated_at": "2018-08-11 21:39:37.418309",
    "country": "United States",
    "longitude": "",
    "latitude": ""
  },
  {
    "id": "6437",
    "name": "Slow Play Brewing Company",
    "brewery_type": "planning",
    "street": "",
    "city": "Rock Hill",
    "state": "South Carolina",
    "postal_code": "29730-3504",
    "website_url": "",
    "phone": "",
    "created_at": "2018-07-24 01:34:14.881612",
    "updated_at": "2018-08-11 21:39:37.668399",
    "country": "United States",
    "longitude": "",
    "latitude": ""
  },
  {
    "id": "6440",
    "name": "Southern Hops Brewing Co.",
    "brewery_type": "brewpub",
    "street": "911 Sunset Acres Ln",
    "city": "Florence",
    "state": "South Carolina",
    "postal_code": "29501-6073",
    "website_url": "http://www.southernhops.com",
    "phone": "8436671900",
    "created_at": "2018-07-24 01:34:14.921156",
    "updated_at": "2018-08-11 21:39:37.785346",
    "country": "United States",
    "longitude": "",
    "latitude": ""
  },
  {
    "id": "6441",
    "name": "Steel Hands Brewing",
    "brewery_type": "planning",
    "street": "",
    "city": "Cayce",
    "state": "South Carolina",
    "postal_code": "29033-3439",
    "website_url": "",
    "phone": "8039200592",
    "created_at": "2018-07-24 01:34:14.93438",
    "updated_at": "2018-08-11 21:39:37.838379",
    "country": "United States",
    "longitude": "",
    "latitude": ""
  },
  {
    "id": "6442",
    "name": "Swamp Cabbage Brewing Company",
    "brewery_type": "micro",
    "street": "921 Brookwood Dr",
    "city": "Columbia",
    "state": "South Carolina",
    "postal_code": "29201-4609",
    "website_url": "http://www.swampcabbagebrewing.com",
    "phone": "8039392589",
    "created_at": "2018-07-24 01:34:14.946562",
    "updated_at": "2018-08-11 21:39:37.900424",
    "country": "United States",
    "longitude": "",
    "latitude": ""
  },
  {
    "id": "6445",
    "name": "The Southern Growl",
    "brewery_type": "planning",
    "street": "",
    "city": "Greer",
    "state": "South Carolina",
    "postal_code": "29650-1285",
    "website_url": "http://www.thesoutherngrowl.com",
    "phone": "",
    "created_at": "2018-07-24 01:34:14.986016",
    "updated_at": "2018-08-11 21:39:37.996683",
    "country": "United States",
    "longitude": "",
    "latitude": ""
  },
  {
    "id": "6446",
    "name": "Think Tank Brew Lab",
    "brewery_type": "planning",
    "street": "",
    "city": "Greenville",
    "state": "South Carolina",
    "postal_code": "29607",
    "website_url": "http://www.thinktankbrewlab.com",
    "phone": "",
    "created_at": "2018-07-24 01:34:14.998162",
    "updated_at": "2018-08-11 21:39:38.0506",
    "country": "United States",
    "longitude": "",
    "latitude": ""
  },
  {
    "id": "6450",
    "name": "Twisted Spur Brewing",
    "brewery_type": "brewpub",
    "street": "705 Gervais St Ste A",
    "city": "Columbia",
    "state": "South Carolina",
    "postal_code": "29201-6012",
    "website_url": "",
    "phone": "8037640203",
    "created_at": "2018-07-24 01:34:15.088468",
    "updated_at": "2018-08-11 21:39:38.226897",
    "country": "United States",
    "longitude": "",
    "latitude": ""
  },
  {
    "id": "6451",
    "name": "Two Blokes Brewing Co.",
    "brewery_type": "micro",
    "street": "547 Long Point Rd Ste 101",
    "city": "Mount Pleasant",
    "state": "South Carolina",
    "postal_code": "29464-8337",
    "website_url": "http://www.twoblokesbrewing.com",
    "phone": "8436544564",
    "created_at": "2018-07-24 01:34:15.101803",
    "updated_at": "2018-08-11 21:39:38.29246",
    "country": "United States",
    "longitude": "",
    "latitude": ""
  },
  {
    "id": "6452",
    "name": "Upstate Craft Beer Company",
    "brewery_type": "brewpub",
    "street": "400 Augusta St Ste 120",
    "city": "Greenville",
    "state": "South Carolina",
    "postal_code": "29601-3552",
    "website_url": "http://www.upstatecraftbeer.com",
    "phone": "8646094590",
    "created_at": "2018-07-24 01:34:15.114005",
    "updated_at": "2018-08-11 21:39:38.333786",
    "country": "United States",
    "longitude": "",
    "latitude": ""
  },
  {
    "id": "6453",
    "name": "Westbrook Brewing Co",
    "brewery_type": "regional",
    "street": "510 Ridge Rd",
    "city": "Mount Pleasant",
    "state": "South Carolina",
    "postal_code": "29464-7811",
    "website_url": "http://www.westbrookbrewing.com",
    "phone": "8436549114",
    "created_at": "2018-07-24 01:34:15.126552",
    "updated_at": "2018-08-11 21:39:38.371768",
    "country": "United States",
    "longitude": "",
    "latitude": ""
  },
  {
    "id": "6454",
    "name": "Wide Awake Brewing Company",
    "brewery_type": "planning",
    "street": "",
    "city": "Summerville",
    "state": "South Carolina",
    "postal_code": "29486",
    "website_url": "http://www.wideawakebrewing.com",
    "phone": "8436088597",
    "created_at": "2018-07-24 01:34:15.139755",
    "updated_at": "2018-08-11 21:39:38.404305",
    "country": "United States",
    "longitude": "",
    "latitude": ""
  },
  {
    "id": "6455",
    "name": "Wooden Skiff Beer Company",
    "brewery_type": "micro",
    "street": "141 Island Dr Ste 16",
    "city": "Hilton Head Island",
    "state": "South Carolina",
    "postal_code": "29926-4500",
    "website_url": "http://www.woodenskiffbrewing.com",
    "phone": "8432904364",
    "created_at": "2018-07-24 01:34:15.152721",
    "updated_at": "2018-08-11 21:39:38.441402",
    "country": "United States",
    "longitude": "",
    "latitude": ""
  },
  {
    "id": "6426",
    "name": "Pawleys Island Brewing Company",
    "brewery_type": "brewpub",
    "street": "2668 Industrial Ave",
    "city": "North Charleston",
    "state": "South Carolina",
    "postal_code": "29405-7429",
    "website_url": "http://www.pawleysislandbrewing.com",
    "phone": "8432258292",
    "created_at": "2018-07-24 01:34:14.738774",
    "updated_at": "2018-08-24 16:15:02.355519",
    "country": "United States",
    "longitude": "-80.0042304853766",
    "latitude": "32.8533503975611"
  },
  {
    "id": "6427",
    "name": "Quest Brewing Company",
    "brewery_type": "micro",
    "street": "55 Airview Dr",
    "city": "Greenville",
    "state": "South Carolina",
    "postal_code": "29607-2632",
    "website_url": "http://www.questbrewing.com",
    "phone": "8642726232",
    "created_at": "2018-07-24 01:34:14.75066",
    "updated_at": "2018-08-24 16:15:03.818204",
    "country": "United States",
    "longitude": "-82.3451569114422",
    "latitude": "34.8465767"
  },
  {
    "id": "6429",
    "name": "Rail Line Brewing",
    "brewery_type": "brewpub",
    "street": "301 N Main St",
    "city": "Simpsonville",
    "state": "South Carolina",
    "postal_code": "29681-2311",
    "website_url": "http://www.raillinebrewing.com",
    "phone": "8645939722",
    "created_at": "2018-07-24 01:34:14.77497",
    "updated_at": "2018-08-24 16:15:06.756604",
    "country": "United States",
    "longitude": "-82.2578248084272",
    "latitude": "34.7414657"
  },
  {
    "id": "6430",
    "name": "Revelry Brewing Co.",
    "brewery_type": "micro",
    "street": "10 Conroy St",
    "city": "Charleston",
    "state": "South Carolina",
    "postal_code": "29403-3815",
    "website_url": "http://www.revelrybrewingco.com",
    "phone": "8432036194",
    "created_at": "2018-07-24 01:34:14.787231",
    "updated_at": "2018-08-24 16:15:08.203154",
    "country": "United States",
    "longitude": "-79.9439381993063",
    "latitude": "32.8072823854694"
  },
  {
    "id": "6435",
    "name": "Salt Marsh Brewing",
    "brewery_type": "brewpub",
    "street": "203 Bluffton Rd",
    "city": "Bluffton",
    "state": "South Carolina",
    "postal_code": "29910-6213",
    "website_url": "http://www.facebook.com/Saltmarshbrew/",
    "phone": "8433219556",
    "created_at": "2018-07-24 01:34:14.854569",
    "updated_at": "2018-08-24 16:15:15.831483",
    "country": "United States",
    "longitude": "-80.8604897466436",
    "latitude": "32.2372909021909"
  },
  {
    "id": "6436",
    "name": "Seminar Brewing",
    "brewery_type": "brewpub",
    "street": "551 W Lucas St",
    "city": "Florence",
    "state": "South Carolina",
    "postal_code": "29501-2817",
    "website_url": "http://seminar brewing.com",
    "phone": "8436659200",
    "created_at": "2018-07-24 01:34:14.867854",
    "updated_at": "2018-08-24 16:15:17.340041",
    "country": "United States",
    "longitude": "-79.7883766616541",
    "latitude": "34.2209957042607"
  },
  {
    "id": "6438",
    "name": "Snafu Brewing Company",
    "brewery_type": "micro",
    "street": "3280 Industry Dr",
    "city": "Charleston",
    "state": "South Carolina",
    "postal_code": "29418-8452",
    "website_url": "http://www.snafubrewingcompany.com",
    "phone": "8437674121",
    "created_at": "2018-07-24 01:34:14.894595",
    "updated_at": "2018-08-24 16:15:18.782055",
    "country": "United States",
    "longitude": "-80.0664232",
    "latitude": "32.9255082"
  },
  {
    "id": "6439",
    "name": "Southern Barrel Brewing Company",
    "brewery_type": "micro",
    "street": "375 Buckwalter Place Blvd",
    "city": "Bluffton",
    "state": "South Carolina",
    "postal_code": "29910",
    "website_url": "http://www.southernbarrelbrewingco.com",
    "phone": "8438372337",
    "created_at": "2018-07-24 01:34:14.908314",
    "updated_at": "2018-08-24 16:15:20.213428",
    "country": "United States",
    "longitude": "-80.9199124",
    "latitude": "32.2715377"
  },
  {
    "id": "6443",
    "name": "Swamp Rabbit Brewery and Taproom",
    "brewery_type": "micro",
    "street": "26 S Main St",
    "city": "Travelers Rest",
    "state": "South Carolina",
    "postal_code": "29690-1810",
    "website_url": "http://www.theswamprabbitbrewery.com",
    "phone": "8646102424",
    "created_at": "2018-07-24 01:34:14.959712",
    "updated_at": "2018-08-24 16:15:23.233484",
    "country": "United States",
    "longitude": "-82.4422763889711",
    "latitude": "34.9666584952466"
  },
  {
    "id": "6444",
    "name": "The Hold By Revelry Brewing",
    "brewery_type": "micro",
    "street": "36 Romney St",
    "city": "Charleston",
    "state": "South Carolina",
    "postal_code": "29403-3825",
    "website_url": "http://www.revelrybrewingco.com",
    "phone": "",
    "created_at": "2018-07-24 01:34:14.973296",
    "updated_at": "2018-08-24 16:15:24.796959",
    "country": "United States",
    "longitude": "-79.9456937208899",
    "latitude": "32.8076133599163"
  },
  {
    "id": "6447",
    "name": "Thomas Creek Brewery",
    "brewery_type": "micro",
    "street": "2054 Piedmont Hwy",
    "city": "Greenville",
    "state": "South Carolina",
    "postal_code": "29605-4840",
    "website_url": "http://www.thomascreekbeer.com",
    "phone": "8646051166",
    "created_at": "2018-07-24 01:34:15.043931",
    "updated_at": "2018-08-24 16:15:26.259903",
    "country": "United States",
    "longitude": "-82.42335755",
    "latitude": "34.7966767"
  },
  {
    "id": "6448",
    "name": "Tradesman Brewing Company",
    "brewery_type": "micro",
    "street": "1639 Tatum St",
    "city": "Charleston",
    "state": "South Carolina",
    "postal_code": "29412-2646",
    "website_url": "http://www.tradesmanbrewing.com",
    "phone": "8434101315",
    "created_at": "2018-07-24 01:34:15.056333",
    "updated_at": "2018-08-24 16:15:27.714298",
    "country": "United States",
    "longitude": "-79.9732138160205",
    "latitude": "32.7601392286237"
  },
  {
    "id": "6373",
    "name": "13 Stripes Brewery",
    "brewery_type": "brewpub",
    "street": "250 Mill St, Suite PW3101",
    "city": "Taylors",
    "state": "South Carolina",
    "postal_code": "29687",
    "website_url": "http://www.13StripesBrewery.com",
    "phone": "8643491430",
    "created_at": "2018-07-24 01:34:13.983008",
    "updated_at": "2018-08-11 21:39:34.842169",
    "country": "United States",
    "longitude": "",
    "latitude": ""
  },
  {
    "id": "6377",
    "name": "Birds Fly South Ale Project",
    "brewery_type": "micro",
    "street": "1320 Hampton Avenue Ext",
    "city": "Greenville",
    "state": "South Carolina",
    "postal_code": "29601-1012",
    "website_url": "",
    "phone": "8644128825",
    "created_at": "2018-07-24 01:34:14.042262",
    "updated_at": "2018-08-11 21:39:34.970197",
    "country": "United States",
    "longitude": "",
    "latitude": ""
  },
  {
    "id": "6386",
    "name": "Carolina Bauernhaus Ales",
    "brewery_type": "brewpub",
    "street": "115 Federal St",
    "city": "Anderson",
    "state": "South Carolina",
    "postal_code": "29625-4364",
    "website_url": "http://carolinabauernhaus.com",
    "phone": "8644018167",
    "created_at": "2018-07-24 01:34:14.180032",
    "updated_at": "2018-08-11 21:39:35.347315",
    "country": "United States",
    "longitude": "",
    "latitude": ""
  },
  {
    "id": "6397",
    "name": "Edmundâs Oast Brewing Co",
    "brewery_type": "brewpub",
    "street": "1505 King St Extension",
    "city": "Charleston",
    "state": "South Carolina",
    "postal_code": "29405",
    "website_url": "http://www.edmundsoast.com",
    "phone": "8437183224",
    "created_at": "2018-07-24 01:34:14.342254",
    "updated_at": "2018-08-11 21:39:35.781559",
    "country": "United States",
    "longitude": "",
    "latitude": ""
  },
  {
    "id": "6423",
    "name": "Oak Road Brewery",
    "brewery_type": "micro",
    "street": "108 E 3rd North St Ste C",
    "city": "Summerville",
    "state": "South Carolina",
    "postal_code": "29483-6810",
    "website_url": "http://www.oakroadbrewery.com",
    "phone": "8436959886",
    "created_at": "2018-07-24 01:34:14.697186",
    "updated_at": "2018-08-11 21:39:36.702166",
    "country": "United States",
    "longitude": "",
    "latitude": ""
  },
  {
    "id": "6425",
    "name": "Palmetto Brewing Co",
    "brewery_type": "regional",
    "street": "289 Huger St Bldg B",
    "city": "Charleston",
    "state": "South Carolina",
    "postal_code": "29403-4560",
    "website_url": "http://www.palmettobrewery.com",
    "phone": "8439370903",
    "created_at": "2018-07-24 01:34:14.722929",
    "updated_at": "2018-08-11 21:39:36.795222",
    "country": "United States",
    "longitude": "",
    "latitude": ""
  },
  {
    "id": "6434",
    "name": "Rusty Bull Brewing Company",
    "brewery_type": "brewpub",
    "street": "3005 W Montague Ave Ste 110",
    "city": "North Charleston",
    "state": "South Carolina",
    "postal_code": "29418-7908",
    "website_url": "http://Www.rustybullbrewing.com",
    "phone": "8432258600",
    "created_at": "2018-07-24 01:34:14.842062",
    "updated_at": "2018-08-11 21:39:37.470849",
    "country": "United States",
    "longitude": "",
    "latitude": ""
  },
  {
    "id": "6410",
    "name": "Hunter Gatherer Brewery and Alehouse",
    "brewery_type": "brewpub",
    "street": "900 Main St",
    "city": "Columbia",
    "state": "South Carolina",
    "postal_code": "29201-3964",
    "website_url": "http://www.huntergathererbrewery.com",
    "phone": "8037480540",
    "created_at": "2018-07-24 01:34:14.528093",
    "updated_at": "2018-08-24 16:14:45.766944",
    "country": "United States",
    "longitude": "-81.0315874",
    "latitude": "33.997366"
  },
  {
    "id": "6449",
    "name": "Twisted Cypress Brewing Company",
    "brewery_type": "micro",
    "street": "1897 Sam Rittenberg Blvd",
    "city": "Charleston",
    "state": "South Carolina",
    "postal_code": "29407-4870",
    "website_url": "http://www.twistedcypressbrewingco.com",
    "phone": "8436081899",
    "created_at": "2018-07-24 01:34:15.069214",
    "updated_at": "2018-08-24 16:15:29.211155",
    "country": "United States",
    "longitude": "-80.0219063047438",
    "latitude": "32.7990541201577"
  }
]