[
  {
    "id": "6493",
    "name": "Big River Grille & Brewing Works - Chattanooga",
    "brewery_type": "brewpub",
    "street": "222 Broad St",
    "city": "Chattanooga",
    "state": "Tennessee",
    "postal_code": "37402-1009",
    "website_url": "http://www.craftworksrestaurants.com",
    "phone": "4232672739",
    "created_at": "2018-07-24 01:34:15.727671",
    "updated_at": "2018-08-24 16:16:16.074383",
    "country": "United States",
    "longitude": "-85.310708746297",
    "latitude": "35.0538755447393"
  },
  {
    "id": "6494",
    "name": "Blackberry Farm Brewery",
    "brewery_type": "micro",
    "street": "910 E Harper Ave",
    "city": "Maryville",
    "state": "Tennessee",
    "postal_code": "37804-4023",
    "website_url": "http://www.blackberryfarm.com",
    "phone": "8659848166",
    "created_at": "2018-07-24 01:34:15.741944",
    "updated_at": "2018-08-24 16:16:17.605954",
    "country": "United States",
    "longitude": "-83.965755",
    "latitude": "35.762562"
  },
  {
    "id": "6517",
    "name": "Depot Street Brewing Co",
    "brewery_type": "micro",
    "street": "904 Depot St",
    "city": "Jonesborough",
    "state": "Tennessee",
    "postal_code": "37659-5662",
    "website_url": "http://www.depotstreetbrewing.com",
    "phone": "4237537628",
    "created_at": "2018-07-24 01:34:16.094327",
    "updated_at": "2018-08-24 16:16:41.019707",
    "country": "United States",
    "longitude": "-82.4805452434381",
    "latitude": "36.2876539466407"
  },
  {
    "id": "6534",
    "name": "Heaven & Ale Brewing Co",
    "brewery_type": "brewpub",
    "street": "300 Cherokee Blvd Ste 101",
    "city": "Chattanooga",
    "state": "Tennessee",
    "postal_code": "37405-3811",
    "website_url": "http://www.heavenandalebrewing.com",
    "phone": "4044416434",
    "created_at": "2018-07-24 01:34:16.416659",
    "updated_at": "2018-08-24 16:16:57.160261",
    "country": "United States",
    "longitude": "-85.311847",
    "latitude": "35.064349"
  },
  {
    "id": "6536",
    "name": "High Cotton Brewing",
    "brewery_type": "micro",
    "street": "598 Monroe Ave",
    "city": "Memphis",
    "state": "Tennessee",
    "postal_code": "38103-3214",
    "website_url": "http://www.highcottonbrewing.com",
    "phone": "9015434444",
    "created_at": "2018-07-24 01:34:16.442401",
    "updated_at": "2018-08-24 16:17:00.275726",
    "country": "United States",
    "longitude": "-90.0404790748779",
    "latitude": "35.1408806482536"
  },
  {
    "id": "6554",
    "name": "McHale's Brewhouse",
    "brewery_type": "brewpub",
    "street": "724 Ashland Ter",
    "city": "Chattanooga",
    "state": "Tennessee",
    "postal_code": "37415-3536",
    "website_url": "http://www.mchalesbrewhouse.com",
    "phone": "4238772124",
    "created_at": "2018-07-24 01:34:16.690853",
    "updated_at": "2018-08-24 16:17:28.852367",
    "country": "United States",
    "longitude": "-85.2757397642444",
    "latitude": "35.1164058264354"
  },
  {
    "id": "6566",
    "name": "Perrylodgic Brewing Company",
    "brewery_type": "micro",
    "street": "3465 US-79 N",
    "city": "Paris",
    "state": "Tennessee",
    "postal_code": "38242-9998",
    "website_url": "http://www.perrylodgic.com",
    "phone": "7314077100",
    "created_at": "2018-07-24 01:34:16.859628",
    "updated_at": "2018-08-24 16:17:41.241411",
    "country": "United States",
    "longitude": "-88.3268031",
    "latitude": "36.2785418"
  },
  {
    "id": "6569",
    "name": "Red Silo Brewing Co",
    "brewery_type": "micro",
    "street": "118 W 1st St",
    "city": "Cookeville",
    "state": "Tennessee",
    "postal_code": "38501-2490",
    "website_url": "http://www.redsilo.beer",
    "phone": "9316512333",
    "created_at": "2018-07-24 01:34:16.897876",
    "updated_at": "2018-08-24 16:17:45.796888",
    "country": "United States",
    "longitude": "-85.5086010623437",
    "latitude": "36.1653550099297"
  },
  {
    "id": "6572",
    "name": "Schulz Brau Brewing Company",
    "brewery_type": "micro",
    "street": "126 Bernard Ave",
    "city": "Knoxville",
    "state": "Tennessee",
    "postal_code": "37917-7116",
    "website_url": "http://www.schulzbraubrewing.com",
    "phone": "8002459764",
    "created_at": "2018-07-24 01:34:16.936284",
    "updated_at": "2018-08-24 16:17:47.263819",
    "country": "United States",
    "longitude": "-83.9273236025641",
    "latitude": "35.9767572564103"
  },
  {
    "id": "6586",
    "name": "The Black Abbey Brewing Company",
    "brewery_type": "micro",
    "street": "2952 Sidco Dr Ste 211",
    "city": "Nashville",
    "state": "Tennessee",
    "postal_code": "37204-3710",
    "website_url": "http://www.blackabbeybrewing.com",
    "phone": "6157550070",
    "created_at": "2018-07-24 01:34:17.147608",
    "updated_at": "2018-08-24 16:18:08.315607",
    "country": "United States",
    "longitude": "-86.7559029967888",
    "latitude": "36.1048168612864"
  },
  {
    "id": "6529",
    "name": "Gladiator Brewing Co.",
    "brewery_type": "planning",
    "street": "",
    "city": "Clarksville",
    "state": "Tennessee",
    "postal_code": "37040",
    "website_url": "",
    "phone": "9137497035",
    "created_at": "2018-07-24 01:34:16.328397",
    "updated_at": "2018-08-11 21:39:42.223007",
    "country": "United States",
    "longitude": "",
    "latitude": ""
  },
  {
    "id": "6579",
    "name": "Southern Grist Brewing Company",
    "brewery_type": "micro",
    "street": "1201 Porter Rd",
    "city": "Nashville",
    "state": "Tennessee",
    "postal_code": "37206-1733",
    "website_url": "http://www.southerngristbrewing.com",
    "phone": "6157271201",
    "created_at": "2018-07-24 01:34:17.047066",
    "updated_at": "2018-08-24 16:17:57.886017",
    "country": "United States",
    "longitude": "-86.729011",
    "latitude": "36.188838"
  },
  {
    "id": "6525",
    "name": "Fawken Beer Company",
    "brewery_type": "planning",
    "street": "",
    "city": "Columbia",
    "state": "Tennessee",
    "postal_code": "38401-2030",
    "website_url": "",
    "phone": "6156636116",
    "created_at": "2018-07-24 01:34:16.237856",
    "updated_at": "2018-08-11 21:39:42.076696",
    "country": "United States",
    "longitude": "",
    "latitude": ""
  },
  {
    "id": "6526",
    "name": "Five Wits Brewing Co.",
    "brewery_type": "planning",
    "street": "",
    "city": "Chattanooga",
    "state": "Tennessee",
    "postal_code": "37408",
    "website_url": "",
    "phone": "4237742991",
    "created_at": "2018-07-24 01:34:16.27118",
    "updated_at": "2018-08-11 21:39:42.126038",
    "country": "United States",
    "longitude": "",
    "latitude": ""
  },
  {
    "id": "6527",
    "name": "Garr's Beer Co.",
    "brewery_type": "proprietor",
    "street": "",
    "city": "Franklin",
    "state": "Tennessee",
    "postal_code": "37067",
    "website_url": "http://www.garrs.beer",
    "phone": "6155090009",
    "created_at": "2018-07-24 01:34:16.296317",
    "updated_at": "2018-08-11 21:39:42.154246",
    "country": "United States",
    "longitude": "",
    "latitude": ""
  },
  {
    "id": "6485",
    "name": "Albright Grove Brewing Company",
    "brewery_type": "planning",
    "street": "",
    "city": "Townsend",
    "state": "Tennessee",
    "postal_code": "37882",
    "website_url": "",
    "phone": "8656049898",
    "created_at": "2018-07-24 01:34:15.615951",
    "updated_at": "2018-08-11 21:39:40.042365",
    "country": "United States",
    "longitude": "",
    "latitude": ""
  },
  {
    "id": "6488",
    "name": "Bad Idea Brewing",
    "brewery_type": "planning",
    "street": "",
    "city": "Spring Hill",
    "state": "Tennessee",
    "postal_code": "37174-2895",
    "website_url": "http://www.badideabrewing.com",
    "phone": "",
    "created_at": "2018-07-24 01:34:15.656873",
    "updated_at": "2018-08-11 21:39:40.573021",
    "country": "United States",
    "longitude": "",
    "latitude": ""
  },
  {
    "id": "6490",
    "name": "Beale St Brewing Co",
    "brewery_type": "planning",
    "street": "",
    "city": "Memphis",
    "state": "Tennessee",
    "postal_code": "38104-6826",
    "website_url": "http://www.bealestbrewing.com",
    "phone": "9014917197",
    "created_at": "2018-07-24 01:34:15.684937",
    "updated_at": "2018-08-11 21:39:40.643623",
    "country": "United States",
    "longitude": "",
    "latitude": ""
  },
  {
    "id": "6495",
    "name": "Blackhorse Brewery",
    "brewery_type": "planning",
    "street": "",
    "city": "Alcoa",
    "state": "Tennessee",
    "postal_code": "37701",
    "website_url": "",
    "phone": "",
    "created_at": "2018-07-24 01:34:15.755589",
    "updated_at": "2018-08-11 21:39:40.869554",
    "country": "United States",
    "longitude": "",
    "latitude": ""
  },
  {
    "id": "6501",
    "name": "Brewery In Planning - Knoxville",
    "brewery_type": "planning",
    "street": "",
    "city": "Knoxville",
    "state": "Tennessee",
    "postal_code": "37923-2025",
    "website_url": "http://roosterssportsbar.com",
    "phone": "8653009738",
    "created_at": "2018-07-24 01:34:15.837169",
    "updated_at": "2018-08-11 21:39:41.074937",
    "country": "United States",
    "longitude": "",
    "latitude": ""
  },
  {
    "id": "6502",
    "name": "Brewery in Planning - Knoxville",
    "brewery_type": "planning",
    "street": "",
    "city": "Knoxville",
    "state": "Tennessee",
    "postal_code": "37919-5140",
    "website_url": "",
    "phone": "6062696366",
    "created_at": "2018-07-24 01:34:15.849742",
    "updated_at": "2018-08-11 21:39:41.106111",
    "country": "United States",
    "longitude": "",
    "latitude": ""
  },
  {
    "id": "6503",
    "name": "Brewery In Planning - Nashville",
    "brewery_type": "planning",
    "street": "",
    "city": "Nashville",
    "state": "Tennessee",
    "postal_code": "37206-2412",
    "website_url": "",
    "phone": "",
    "created_at": "2018-07-24 01:34:15.867751",
    "updated_at": "2018-08-11 21:39:41.144288",
    "country": "United States",
    "longitude": "",
    "latitude": ""
  },
  {
    "id": "6504",
    "name": "Brewery in Planning - Rossville",
    "brewery_type": "planning",
    "street": "",
    "city": "Rossville",
    "state": "Tennessee",
    "postal_code": "38133",
    "website_url": "",
    "phone": "9012187665",
    "created_at": "2018-07-24 01:34:15.883515",
    "updated_at": "2018-08-11 21:39:41.174859",
    "country": "United States",
    "longitude": "",
    "latitude": ""
  },
  {
    "id": "6509",
    "name": "Cold Fusion Brewing LLC",
    "brewery_type": "micro",
    "street": "4711 Morton Place Way",
    "city": "Knoxville",
    "state": "Tennessee",
    "postal_code": "37912-4162",
    "website_url": "http://www.facebook.com/ColdFusionBrewery/?ref=bookmarks",
    "phone": "8652035948",
    "created_at": "2018-07-24 01:34:15.960097",
    "updated_at": "2018-08-11 21:39:41.338886",
    "country": "United States",
    "longitude": "",
    "latitude": ""
  },
  {
    "id": "6510",
    "name": "Common John Brewing Co",
    "brewery_type": "planning",
    "street": "",
    "city": "Manchester",
    "state": "Tennessee",
    "postal_code": "37355-6064",
    "website_url": "http://www.commonjohnbc.com",
    "phone": "9314090630",
    "created_at": "2018-07-24 01:34:15.977236",
    "updated_at": "2018-08-11 21:39:41.368699",
    "country": "United States",
    "longitude": "",
    "latitude": ""
  },
  {
    "id": "6513",
    "name": "Crafty Bastard Brewery",
    "brewery_type": "micro",
    "street": "6 Emory Pl",
    "city": "Knoxville",
    "state": "Tennessee",
    "postal_code": "37917-7317",
    "website_url": "http://www.craftybastardbrewery.com",
    "phone": "8657552358",
    "created_at": "2018-07-24 01:34:16.029167",
    "updated_at": "2018-08-11 21:39:41.459697",
    "country": "United States",
    "longitude": "",
    "latitude": ""
  },
  {
    "id": "6516",
    "name": "Delta Sunshine Brewing Company",
    "brewery_type": "planning",
    "street": "",
    "city": "Memphis",
    "state": "Tennessee",
    "postal_code": "38120-8859",
    "website_url": "",
    "phone": "9016748330",
    "created_at": "2018-07-24 01:34:16.078258",
    "updated_at": "2018-08-11 21:39:41.706384",
    "country": "United States",
    "longitude": "",
    "latitude": ""
  },
  {
    "id": "6484",
    "name": "Abridged Beer Company",
    "brewery_type": "brewpub",
    "street": "100 Lockett Rd",
    "city": "Knoxville",
    "state": "Tennessee",
    "postal_code": "37919-4807",
    "website_url": "http://www.abridgedbeer.com",
    "phone": "8658989438",
    "created_at": "2018-07-24 01:34:15.601622",
    "updated_at": "2018-08-24 16:16:07.028376",
    "country": "United States",
    "longitude": "-84.016459",
    "latitude": "35.932287"
  },
  {
    "id": "6486",
    "name": "Alliance Brewing Company",
    "brewery_type": "micro",
    "street": "1130 Sevier Ave",
    "city": "Knoxville",
    "state": "Tennessee",
    "postal_code": "37920",
    "website_url": "http://www.alliancebrewing.com",
    "phone": "8652475355",
    "created_at": "2018-07-24 01:34:15.629952",
    "updated_at": "2018-08-24 16:16:08.466221",
    "country": "United States",
    "longitude": "-83.9035469",
    "latitude": "35.9593516"
  },
  {
    "id": "6487",
    "name": "Asgard Brewing Company",
    "brewery_type": "micro",
    "street": "104 E 5th St",
    "city": "Columbia",
    "state": "Tennessee",
    "postal_code": "38401-3351",
    "website_url": "http://www.asgardbrewery.com",
    "phone": "6158282218",
    "created_at": "2018-07-24 01:34:15.643825",
    "updated_at": "2018-08-24 16:16:10.000943",
    "country": "United States",
    "longitude": "-87.0332968790231",
    "latitude": "35.6174542028515"
  },
  {
    "id": "6489",
    "name": "Balter Beerworks",
    "brewery_type": "brewpub",
    "street": "100 S Broadway St",
    "city": "Knoxville",
    "state": "Tennessee",
    "postal_code": "37902-1901",
    "website_url": "http://www.balterbeerworks.com",
    "phone": "8659995015",
    "created_at": "2018-07-24 01:34:15.672313",
    "updated_at": "2018-08-24 16:16:11.496821",
    "country": "United States",
    "longitude": "-83.92432",
    "latitude": "35.96654"
  },
  {
    "id": "6491",
    "name": "Bearded Iris Brewing",
    "brewery_type": "micro",
    "street": "101 Van Buren St",
    "city": "Nashville",
    "state": "Tennessee",
    "postal_code": "37208-1719",
    "website_url": "http://www.beardedirisbrewing.com",
    "phone": "6159287988",
    "created_at": "2018-07-24 01:34:15.699275",
    "updated_at": "2018-08-24 16:16:13.017648",
    "country": "United States",
    "longitude": "-86.786174",
    "latitude": "36.181424"
  },
  {
    "id": "6492",
    "name": "Big Frog Brewing Company",
    "brewery_type": "micro",
    "street": "2122 Dayton Blvd",
    "city": "Red Bank",
    "state": "Tennessee",
    "postal_code": "37415-6414",
    "website_url": "http://www.bigfrogbrewery.com",
    "phone": "4238039046",
    "created_at": "2018-07-24 01:34:15.713212",
    "updated_at": "2018-08-24 16:16:14.556386",
    "country": "United States",
    "longitude": "-85.310176033573",
    "latitude": "35.0916037009048"
  },
  {
    "id": "6496",
    "name": "Blackhorse Pub and Brewery",
    "brewery_type": "brewpub",
    "street": "132 Franklin St",
    "city": "Clarksville",
    "state": "Tennessee",
    "postal_code": "37040-3438",
    "website_url": "http://www.blackhorsebrews.com",
    "phone": "9315523726",
    "created_at": "2018-07-24 01:34:15.769211",
    "updated_at": "2018-08-24 16:16:19.08675",
    "country": "United States",
    "longitude": "-87.3588994",
    "latitude": "36.52735085"
  },
  {
    "id": "6497",
    "name": "Blackhorse Pub and Brewery -  Knoxville",
    "brewery_type": "brewpub",
    "street": "4429 Kingston Pike",
    "city": "Knoxville",
    "state": "Tennessee",
    "postal_code": "37919-5252",
    "website_url": "http://www.theblackhorsepub.net",
    "phone": "8652498511",
    "created_at": "2018-07-24 01:34:15.782781",
    "updated_at": "2018-08-24 16:16:21.475271",
    "country": "United States",
    "longitude": "-84.0443634",
    "latitude": "35.9259722"
  },
  {
    "id": "6498",
    "name": "Blackstone Brewing Co",
    "brewery_type": "micro",
    "street": "2312 Clifton Ave",
    "city": "Nashville",
    "state": "Tennessee",
    "postal_code": "37209-4115",
    "website_url": "http://blackstonebrewery.com",
    "phone": "6153209002",
    "created_at": "2018-07-24 01:34:15.797107",
    "updated_at": "2018-08-24 16:16:23.141705",
    "country": "United States",
    "longitude": "-86.8097436319194",
    "latitude": "36.1579678295884"
  },
  {
    "id": "6499",
    "name": "Blues City Brewing Co",
    "brewery_type": "regional",
    "street": "5151 E Raines Rd",
    "city": "Memphis",
    "state": "Tennessee",
    "postal_code": "38118-7026",
    "website_url": "http://www.citybrewing.com",
    "phone": "6087854200",
    "created_at": "2018-07-24 01:34:15.811239",
    "updated_at": "2018-08-24 16:16:24.747793",
    "country": "United States",
    "longitude": "-89.8874019",
    "latitude": "35.0350188"
  },
  {
    "id": "6500",
    "name": "Boscos Squared",
    "brewery_type": "brewpub",
    "street": "2120 Madison Ave",
    "city": "Memphis",
    "state": "Tennessee",
    "postal_code": "38104-6502",
    "website_url": "http://www.boscosbeer.com",
    "phone": "9014322222",
    "created_at": "2018-07-24 01:34:15.824686",
    "updated_at": "2018-08-24 16:16:26.338948",
    "country": "United States",
    "longitude": "-90.0401714",
    "latitude": "35.1417658"
  },
  {
    "id": "6505",
    "name": "BriarScratch Brewing",
    "brewery_type": "micro",
    "street": "Highway 25",
    "city": "Cottontown",
    "state": "Tennessee",
    "postal_code": "37048",
    "website_url": "http://www.briarscratchbrewing.com",
    "phone": "6153191563",
    "created_at": "2018-07-24 01:34:15.897626",
    "updated_at": "2018-08-24 16:16:27.819509",
    "country": "United States",
    "longitude": "-86.53805",
    "latitude": "36.4514343"
  },
  {
    "id": "6506",
    "name": "Calfkiller Brewing Co",
    "brewery_type": "micro",
    "street": "1839 Blue Springs Rd",
    "city": "Sparta",
    "state": "Tennessee",
    "postal_code": "38583-2714",
    "website_url": "http://www.calfkillerbeer.com",
    "phone": "9317392337",
    "created_at": "2018-07-24 01:34:15.911488",
    "updated_at": "2018-08-24 16:16:29.285421",
    "country": "United States",
    "longitude": "-85.4220608277859",
    "latitude": "35.9446066759592"
  },
  {
    "id": "6507",
    "name": "Chattanooga Brewing Co",
    "brewery_type": "micro",
    "street": "1804 Chestnut St",
    "city": "Chattanooga",
    "state": "Tennessee",
    "postal_code": "37408-1027",
    "website_url": "http://www.chattabrew.com",
    "phone": "4237029958",
    "created_at": "2018-07-24 01:34:15.926349",
    "updated_at": "2018-08-24 16:16:30.735896",
    "country": "United States",
    "longitude": "-85.314430246936",
    "latitude": "35.0363334908815"
  },
  {
    "id": "6508",
    "name": "Clinch River Brewing",
    "brewery_type": "brewpub",
    "street": "2045 Norris Freeway",
    "city": "Norris",
    "state": "Tennessee",
    "postal_code": "37828",
    "website_url": "http://www.clinchriverbrewing.com",
    "phone": "2763561847",
    "created_at": "2018-07-24 01:34:15.943182",
    "updated_at": "2018-08-24 16:16:32.215922",
    "country": "United States",
    "longitude": "-84.0448186",
    "latitude": "36.1696625"
  },
  {
    "id": "6511",
    "name": "Cool Springs Brewery",
    "brewery_type": "brewpub",
    "street": "600A Frazier Dr Ste 135",
    "city": "Franklin",
    "state": "Tennessee",
    "postal_code": "37067-4677",
    "website_url": "http://www.coolspringsbrewery.com",
    "phone": "6155039626",
    "created_at": "2018-07-24 01:34:15.995565",
    "updated_at": "2018-08-24 16:16:35.175754",
    "country": "United States",
    "longitude": "-86.820912",
    "latitude": "35.944623"
  },
  {
    "id": "6512",
    "name": "Corsair Artisan LLC",
    "brewery_type": "micro",
    "street": "1200 Clinton St Ste 110",
    "city": "Nashville",
    "state": "Tennessee",
    "postal_code": "37203-2894",
    "website_url": "http://www.corsairartisan.com",
    "phone": "6152000320",
    "created_at": "2018-07-24 01:34:16.012948",
    "updated_at": "2018-08-24 16:16:36.663399",
    "country": "United States",
    "longitude": "-86.794546",
    "latitude": "36.165123"
  },
  {
    "id": "6515",
    "name": "Czann's Brewing",
    "brewery_type": "micro",
    "street": "505 Lea Ave",
    "city": "Nashville",
    "state": "Tennessee",
    "postal_code": "37203-4499",
    "website_url": "http://czanns.com",
    "phone": "6154033517",
    "created_at": "2018-07-24 01:34:16.062947",
    "updated_at": "2018-08-24 16:16:39.549063",
    "country": "United States",
    "longitude": "-86.7742274305325",
    "latitude": "36.1533486"
  },
  {
    "id": "6521",
    "name": "Elkmont Exchange Brewery and Eating House",
    "brewery_type": "brewpub",
    "street": "745 N Broadway St",
    "city": "Knoxville",
    "state": "Tennessee",
    "postal_code": "37917-7202",
    "website_url": "http://elkmontexchange.com",
    "phone": "8653600602",
    "created_at": "2018-07-24 01:34:16.161621",
    "updated_at": "2018-08-11 21:39:41.902358",
    "country": "United States",
    "longitude": "",
    "latitude": ""
  },
  {
    "id": "6522",
    "name": "Elst Brewing Company",
    "brewery_type": "planning",
    "street": "",
    "city": "Knoxville",
    "state": "Tennessee",
    "postal_code": "37921-5188",
    "website_url": "http://www.elst.beer",
    "phone": "8658099618",
    "created_at": "2018-07-24 01:34:16.18232",
    "updated_at": "2018-08-11 21:39:41.947972",
    "country": "United States",
    "longitude": "",
    "latitude": ""
  },
  {
    "id": "6531",
    "name": "Half Batch Brewing",
    "brewery_type": "micro",
    "street": "393 E Main St Suite 6A",
    "city": "Hendersonville",
    "state": "Tennessee",
    "postal_code": "37075-2575",
    "website_url": "http://halfbatchbrewing.com",
    "phone": "6153394527",
    "created_at": "2018-07-24 01:34:16.362576",
    "updated_at": "2018-08-11 21:39:42.288606",
    "country": "United States",
    "longitude": "",
    "latitude": ""
  },
  {
    "id": "6532",
    "name": "Happy Trails Brewing Company",
    "brewery_type": "planning",
    "street": "",
    "city": "Sparta",
    "state": "Tennessee",
    "postal_code": "38583-5577",
    "website_url": "http://www.happytrailsbrewingco.com",
    "phone": "9312678027",
    "created_at": "2018-07-24 01:34:16.378848",
    "updated_at": "2018-08-11 21:39:42.320575",
    "country": "United States",
    "longitude": "",
    "latitude": ""
  },
  {
    "id": "6533",
    "name": "Harding House Brewing Company",
    "brewery_type": "planning",
    "street": "",
    "city": "Nashville",
    "state": "Tennessee",
    "postal_code": "37209",
    "website_url": "http://www.hardinghousebrew.com",
    "phone": "3034089405",
    "created_at": "2018-07-24 01:34:16.39635",
    "updated_at": "2018-08-11 21:39:42.360845",
    "country": "United States",
    "longitude": "",
    "latitude": ""
  },
  {
    "id": "6539",
    "name": "Honky Tonk Brewing Co",
    "brewery_type": "micro",
    "street": "240 Cumberland Bnd",
    "city": "Nashville",
    "state": "Tennessee",
    "postal_code": "37228-1804",
    "website_url": "http://www.honkytonkbeer.com",
    "phone": "6157429770",
    "created_at": "2018-07-24 01:34:16.483208",
    "updated_at": "2018-08-11 21:39:42.590261",
    "country": "United States",
    "longitude": "",
    "latitude": ""
  },
  {
    "id": "6540",
    "name": "Hook Point Brewing Co.",
    "brewery_type": "proprietor",
    "street": "",
    "city": "Collierville",
    "state": "Tennessee",
    "postal_code": "38017",
    "website_url": "http://www.flathat.com",
    "phone": "8009582330",
    "created_at": "2018-07-24 01:34:16.497764",
    "updated_at": "2018-08-11 21:39:42.625843",
    "country": "United States",
    "longitude": "",
    "latitude": ""
  },
  {
    "id": "6541",
    "name": "Hutton & Smith Brewing Company",
    "brewery_type": "micro",
    "street": "431 E Martin Luther King Blvd # 120",
    "city": "Chattanooga",
    "state": "Tennessee",
    "postal_code": "37403",
    "website_url": "http://www.huttonandsmithbrewing.com",
    "phone": "4237603600",
    "created_at": "2018-07-24 01:34:16.511934",
    "updated_at": "2018-08-11 21:39:42.654845",
    "country": "United States",
    "longitude": "",
    "latitude": ""
  },
  {
    "id": "6550",
    "name": "Loose Ends Brewing Company",
    "brewery_type": "planning",
    "street": "",
    "city": "Knoxville",
    "state": "Tennessee",
    "postal_code": "37938-2162",
    "website_url": "",
    "phone": "9372860803",
    "created_at": "2018-07-24 01:34:16.630188",
    "updated_at": "2018-08-11 21:39:42.994135",
    "country": "United States",
    "longitude": "",
    "latitude": ""
  },
  {
    "id": "6553",
    "name": "Mayday Brewery",
    "brewery_type": "micro",
    "street": "521 Old Salem Rd Ste C",
    "city": "Murfreesboro",
    "state": "Tennessee",
    "postal_code": "37129-5305",
    "website_url": "http://www.maydaybrewery.com",
    "phone": "6154799722",
    "created_at": "2018-07-24 01:34:16.675249",
    "updated_at": "2018-08-11 21:39:43.116431",
    "country": "United States",
    "longitude": "",
    "latitude": ""
  },
  {
    "id": "6555",
    "name": "McIntyre Brewing Company",
    "brewery_type": "planning",
    "street": "",
    "city": "Hermitage",
    "state": "Tennessee",
    "postal_code": "37076",
    "website_url": "http://www.mcintyrebrew.com",
    "phone": "4065291183",
    "created_at": "2018-07-24 01:34:16.705011",
    "updated_at": "2018-08-11 21:39:43.178202",
    "country": "United States",
    "longitude": "",
    "latitude": ""
  },
  {
    "id": "6557",
    "name": "Memphis Filling Station",
    "brewery_type": "planning",
    "street": "",
    "city": "Memphis",
    "state": "Tennessee",
    "postal_code": "38112-4938",
    "website_url": "http://www.memphisfillingstation.com",
    "phone": "9014978109",
    "created_at": "2018-07-24 01:34:16.735574",
    "updated_at": "2018-08-11 21:39:43.239724",
    "country": "United States",
    "longitude": "",
    "latitude": ""
  },
  {
    "id": "6560",
    "name": "Moccasin Bend Brewing Co",
    "brewery_type": "micro",
    "street": "3210 Broad St # B",
    "city": "Chattanooga",
    "state": "Tennessee",
    "postal_code": "37408-3059",
    "website_url": "http://www.bendbrewingbeer.com",
    "phone": "4238216392",
    "created_at": "2018-07-24 01:34:16.780422",
    "updated_at": "2018-08-11 21:39:43.33267",
    "country": "United States",
    "longitude": "",
    "latitude": ""
  },
  {
    "id": "6563",
    "name": "Oddstory Brewing Co",
    "brewery_type": "micro",
    "street": "336 E Mlk",
    "city": "Chattanooga",
    "state": "Tennessee",
    "postal_code": "37403-4121",
    "website_url": "http://www.oddstorybrewing.co",
    "phone": "2563097208",
    "created_at": "2018-07-24 01:34:16.818827",
    "updated_at": "2018-08-11 21:39:43.427881",
    "country": "United States",
    "longitude": "",
    "latitude": ""
  },
  {
    "id": "6518",
    "name": "Downtown Grill & Brewery / Woodruff Brewing",
    "brewery_type": "brewpub",
    "street": "424 S Gay St",
    "city": "Knoxville",
    "state": "Tennessee",
    "postal_code": "37902-1103",
    "website_url": "http://www.downtownbrewery.com",
    "phone": "8656338111",
    "created_at": "2018-07-24 01:34:16.108414",
    "updated_at": "2018-08-24 16:16:43.550199",
    "country": "United States",
    "longitude": "-83.9186686014889",
    "latitude": "35.9660630063957"
  },
  {
    "id": "6519",
    "name": "East Nashville Beer Works",
    "brewery_type": "brewpub",
    "street": "320 E Trinity Ln",
    "city": "Nashville",
    "state": "Tennessee",
    "postal_code": "37207-4524",
    "website_url": "http://www.eastnashbeerworks.com",
    "phone": "6158913108",
    "created_at": "2018-07-24 01:34:16.12325",
    "updated_at": "2018-08-24 16:16:45.082724",
    "country": "United States",
    "longitude": "-86.7632038301232",
    "latitude": "36.20526205"
  },
  {
    "id": "6520",
    "name": "Elderbrew",
    "brewery_type": "micro",
    "street": "24 6th St",
    "city": "Bristol",
    "state": "Tennessee",
    "postal_code": "37620",
    "website_url": "http://www.elderbrew.com",
    "phone": "",
    "created_at": "2018-07-24 01:34:16.142412",
    "updated_at": "2018-08-24 16:16:46.584881",
    "country": "United States",
    "longitude": "-82.18356135",
    "latitude": "36.594077"
  },
  {
    "id": "6523",
    "name": "Fanatic Brewing Company",
    "brewery_type": "micro",
    "street": "2735 N Central St",
    "city": "Knoxville",
    "state": "Tennessee",
    "postal_code": "37917",
    "website_url": "http://www.fanaticbrewing.com",
    "phone": "8655482337",
    "created_at": "2018-07-24 01:34:16.201883",
    "updated_at": "2018-08-24 16:16:49.56863",
    "country": "United States",
    "longitude": "-83.9422445237608",
    "latitude": "35.9917510649748"
  },
  {
    "id": "6524",
    "name": "Fat Bottom Brewing",
    "brewery_type": "micro",
    "street": "800 44th Ave N",
    "city": "Nashville",
    "state": "Tennessee",
    "postal_code": "37209-2336",
    "website_url": "http://www.fatbottombrewing.com",
    "phone": "6152935783",
    "created_at": "2018-07-24 01:34:16.217334",
    "updated_at": "2018-08-24 16:16:51.091088",
    "country": "United States",
    "longitude": "-86.8403168839933",
    "latitude": "36.1604492579475"
  },
  {
    "id": "6530",
    "name": "Granite City Food & Brewery",
    "brewery_type": "brewpub",
    "street": "1864 W McEwen Dr",
    "city": "Franklin",
    "state": "Tennessee",
    "postal_code": "37067-1782",
    "website_url": "",
    "phone": "",
    "created_at": "2018-07-24 01:34:16.347572",
    "updated_at": "2018-08-24 16:16:54.163842",
    "country": "United States",
    "longitude": "-86.8271308",
    "latitude": "35.9361408"
  },
  {
    "id": "6535",
    "name": "Hexagon Brewing Co",
    "brewery_type": "micro",
    "street": "1002 Dutch Valley Dr Ste 101",
    "city": "Knoxville",
    "state": "Tennessee",
    "postal_code": "37918-6956",
    "website_url": "http://www.hexagonbrewing.com",
    "phone": "8658885138",
    "created_at": "2018-07-24 01:34:16.429201",
    "updated_at": "2018-08-24 16:16:58.723999",
    "country": "United States",
    "longitude": "-83.9471706482184",
    "latitude": "36.0086051235487"
  },
  {
    "id": "6537",
    "name": "Hix Farm Brewery",
    "brewery_type": "micro",
    "street": "54 S Cedar Ave",
    "city": "Cookeville",
    "state": "Tennessee",
    "postal_code": "38501-3216",
    "website_url": "http://www.hixfarmbrewery.com",
    "phone": "9313161623",
    "created_at": "2018-07-24 01:34:16.455331",
    "updated_at": "2018-08-24 16:17:01.791714",
    "country": "United States",
    "longitude": "-85.507921",
    "latitude": "36.161868"
  },
  {
    "id": "6538",
    "name": "Holston River Brewing Company",
    "brewery_type": "micro",
    "street": "2623 Volunteer Pkwy",
    "city": "Bristol",
    "state": "Tennessee",
    "postal_code": "37620-",
    "website_url": "http://www.hrbrewing.com",
    "phone": "4233611572",
    "created_at": "2018-07-24 01:34:16.468579",
    "updated_at": "2018-08-24 16:17:03.417973",
    "country": "United States",
    "longitude": "-82.1910353",
    "latitude": "36.574583"
  },
  {
    "id": "6542",
    "name": "Jackalope Brewing Company, LLC",
    "brewery_type": "micro",
    "street": "701 8th Ave S",
    "city": "Nashville",
    "state": "Tennessee",
    "postal_code": "37203-4104",
    "website_url": "http://www.jackalopebrew.com",
    "phone": "6158870807",
    "created_at": "2018-07-24 01:34:16.524713",
    "updated_at": "2018-08-24 16:17:08.440523",
    "country": "United States",
    "longitude": "-86.7794989",
    "latitude": "36.1503817"
  },
  {
    "id": "6543",
    "name": "Jig Head Brewing Company",
    "brewery_type": "micro",
    "street": "310 Newman Dr",
    "city": "Cookeville",
    "state": "Tennessee",
    "postal_code": "38501-4127",
    "website_url": "http://www.jigheadbrewing.com",
    "phone": "9315104406",
    "created_at": "2018-07-24 01:34:16.537435",
    "updated_at": "2018-08-24 16:17:09.901659",
    "country": "United States",
    "longitude": "-85.5237389037356",
    "latitude": "36.1455617853516"
  },
  {
    "id": "6544",
    "name": "Johnson City Brewing Co",
    "brewery_type": "micro",
    "street": "410 E State of Franklin Rd",
    "city": "Johnson City",
    "state": "Tennessee",
    "postal_code": "37601-4871",
    "website_url": "http://www.johnsoncitybrewing.com",
    "phone": "4239304186",
    "created_at": "2018-07-24 01:34:16.550076",
    "updated_at": "2018-08-24 16:17:11.407432",
    "country": "United States",
    "longitude": "-82.3463696243846",
    "latitude": "36.3171595095503"
  },
  {
    "id": "6545",
    "name": "JRH Brewing",
    "brewery_type": "micro",
    "street": "458 W Walnut St",
    "city": "Johnson City",
    "state": "Tennessee",
    "postal_code": "37604-6766",
    "website_url": "http://www.jrhbrewing.com",
    "phone": "4237223410",
    "created_at": "2018-07-24 01:34:16.562936",
    "updated_at": "2018-08-24 16:17:12.881824",
    "country": "United States",
    "longitude": "-82.3548364803802",
    "latitude": "36.3116959532105"
  },
  {
    "id": "6546",
    "name": "Jubilee Craft Beer Co",
    "brewery_type": "contract",
    "street": "3430 Hampton Ave",
    "city": "Nashville",
    "state": "Tennessee",
    "postal_code": "37215-1408",
    "website_url": "http://www.jubileebeer.com",
    "phone": "6156869397",
    "created_at": "2018-07-24 01:34:16.575852",
    "updated_at": "2018-08-24 16:17:14.323446",
    "country": "United States",
    "longitude": "-86.8250985315178",
    "latitude": "36.1174639536167"
  },
  {
    "id": "6547",
    "name": "Last Days of Autumn Brewing",
    "brewery_type": "brewpub",
    "street": "808 E Magnolia Ave",
    "city": "Knoxville",
    "state": "Tennessee",
    "postal_code": "37917-7637",
    "website_url": "http://www.lastdaysofautumn.com",
    "phone": "8652024298",
    "created_at": "2018-07-24 01:34:16.588506",
    "updated_at": "2018-08-24 16:17:15.792502",
    "country": "United States",
    "longitude": "-83.914805",
    "latitude": "35.97603"
  },
  {
    "id": "6548",
    "name": "Lilly Pad Hopyard Brewery",
    "brewery_type": "brewpub",
    "street": "920 Ridge Rd",
    "city": "Lancing",
    "state": "Tennessee",
    "postal_code": "37770-1830",
    "website_url": "http://lillypadhopyardbrewery.com",
    "phone": "8656170984",
    "created_at": "2018-07-24 01:34:16.602752",
    "updated_at": "2018-08-24 16:17:17.251816",
    "country": "United States",
    "longitude": "-84.690323",
    "latitude": "36.129889"
  },
  {
    "id": "6549",
    "name": "Little Harpeth Brewing Co",
    "brewery_type": "micro",
    "street": "30 Oldham St",
    "city": "Nashville",
    "state": "Tennessee",
    "postal_code": "37213-1107",
    "website_url": "http://www.littleharpethbrewing.com",
    "phone": "3073711476",
    "created_at": "2018-07-24 01:34:16.616903",
    "updated_at": "2018-08-24 16:17:18.692979",
    "country": "United States",
    "longitude": "-86.7769747142857",
    "latitude": "36.174546"
  },
  {
    "id": "6551",
    "name": "Mad Knight Brewing Company",
    "brewery_type": "micro",
    "street": "4015 Tennessee Ave",
    "city": "Chattanooga",
    "state": "Tennessee",
    "postal_code": "37409-1322",
    "website_url": "http://www.madknightbrewing.com",
    "phone": "4238256504",
    "created_at": "2018-07-24 01:34:16.643749",
    "updated_at": "2018-08-24 16:17:22.808068",
    "country": "United States",
    "longitude": "-85.3278569212857",
    "latitude": "35.008643261185"
  },
  {
    "id": "6552",
    "name": "Mantra Artisan Ales",
    "brewery_type": "micro",
    "street": "216 Noah Dr Ste 140",
    "city": "Franklin",
    "state": "Tennessee",
    "postal_code": "37064-4024",
    "website_url": "http://www.mantrabrewing.com",
    "phone": "6156288776",
    "created_at": "2018-07-24 01:34:16.65986",
    "updated_at": "2018-08-24 16:17:25.84603",
    "country": "United States",
    "longitude": "-86.866949",
    "latitude": "35.893554"
  },
  {
    "id": "6558",
    "name": "Memphis Made Brewing Company",
    "brewery_type": "micro",
    "street": "768 S Cooper St",
    "city": "Memphis",
    "state": "Tennessee",
    "postal_code": "38104-5406",
    "website_url": "http://www.memphismadebrewing.com",
    "phone": "9012075343",
    "created_at": "2018-07-24 01:34:16.751831",
    "updated_at": "2018-08-24 16:17:32.22748",
    "country": "United States",
    "longitude": "-89.990701",
    "latitude": "35.124723"
  },
  {
    "id": "6559",
    "name": "Mill Creek Brewing Co.",
    "brewery_type": "micro",
    "street": "2008B Johnson Industrial Blvd",
    "city": "Nolensville",
    "state": "Tennessee",
    "postal_code": "37135-9773",
    "website_url": "http://www.millcreekbrewingco.com",
    "phone": "6157763377",
    "created_at": "2018-07-24 01:34:16.765441",
    "updated_at": "2018-08-24 16:17:33.681849",
    "country": "United States",
    "longitude": "-86.6700957287462",
    "latitude": "35.9575301024276"
  },
  {
    "id": "6561",
    "name": "Monkey Town Brewing Company",
    "brewery_type": "brewpub",
    "street": "287 1st Ave",
    "city": "Dayton",
    "state": "Tennessee",
    "postal_code": "37321-1248",
    "website_url": "http://www.monkeytownbrewing.com",
    "phone": "4237751800",
    "created_at": "2018-07-24 01:34:16.792917",
    "updated_at": "2018-08-24 16:17:36.568357",
    "country": "United States",
    "longitude": "-85.0127523750029",
    "latitude": "35.4931380380085"
  },
  {
    "id": "6562",
    "name": "New Heights Brewing Co",
    "brewery_type": "micro",
    "street": "928 5th Ave S",
    "city": "Nashville",
    "state": "Tennessee",
    "postal_code": "37203-4612",
    "website_url": "http://www.newheightsbrewing.com",
    "phone": "6154906901",
    "created_at": "2018-07-24 01:34:16.805724",
    "updated_at": "2018-08-24 16:17:38.078579",
    "country": "United States",
    "longitude": "-86.7706476",
    "latitude": "36.1491212"
  },
  {
    "id": "6564",
    "name": "Ole Shed Brewing Company",
    "brewery_type": "micro",
    "street": "516 E Carroll St",
    "city": "Tullahoma",
    "state": "Tennessee",
    "postal_code": "37388-3983",
    "website_url": "http://www.oleshedbrewing.com",
    "phone": "9312124277",
    "created_at": "2018-07-24 01:34:16.832514",
    "updated_at": "2018-08-24 16:17:39.583862",
    "country": "United States",
    "longitude": "-86.1982374055717",
    "latitude": "35.3607568616136"
  },
  {
    "id": "6565",
    "name": "Panther Creek Brews",
    "brewery_type": "planning",
    "street": "",
    "city": "Christiana",
    "state": "Tennessee",
    "postal_code": "37037-5122",
    "website_url": "http://www.panthercreekbrews.com",
    "phone": "6155891401",
    "created_at": "2018-07-24 01:34:16.84577",
    "updated_at": "2018-08-11 21:39:43.483667",
    "country": "United States",
    "longitude": "",
    "latitude": ""
  },
  {
    "id": "6570",
    "name": "Rock Bottom Brewery - Nashville",
    "brewery_type": "brewpub",
    "street": "111 Broadway",
    "city": "Nashville",
    "state": "Tennessee",
    "postal_code": "37201-2117",
    "website_url": "http://www.bigrivergrille.com",
    "phone": "6152514677",
    "created_at": "2018-07-24 01:34:16.911027",
    "updated_at": "2018-08-11 21:39:43.68115",
    "country": "United States",
    "longitude": "",
    "latitude": ""
  },
  {
    "id": "6571",
    "name": "Rohrer Brewing Company, LLC",
    "brewery_type": "planning",
    "street": "",
    "city": "Cookeville",
    "state": "Tennessee",
    "postal_code": "38506-5601",
    "website_url": "http://rohrerbrewing.com",
    "phone": "6155859700",
    "created_at": "2018-07-24 01:34:16.923604",
    "updated_at": "2018-08-11 21:39:43.709854",
    "country": "United States",
    "longitude": "",
    "latitude": ""
  },
  {
    "id": "6573",
    "name": "Sleepy Owl Brewery",
    "brewery_type": "micro",
    "street": "151 E Main St Ste 200",
    "city": "Kingsport",
    "state": "Tennessee",
    "postal_code": "37660-4380",
    "website_url": "http://www.sleepyowlbrewery.com",
    "phone": "4232744458",
    "created_at": "2018-07-24 01:34:16.958115",
    "updated_at": "2018-08-11 21:39:43.790358",
    "country": "United States",
    "longitude": "",
    "latitude": ""
  },
  {
    "id": "6584",
    "name": "Tennessee Valley Brewing Company",
    "brewery_type": "micro",
    "street": "2088 Lowes Dr Ste H",
    "city": "Clarksville",
    "state": "Tennessee",
    "postal_code": "37040-1635",
    "website_url": "http://www.tnvalleybrewing.com",
    "phone": "9312411040",
    "created_at": "2018-07-24 01:34:17.120447",
    "updated_at": "2018-08-11 21:39:44.130378",
    "country": "United States",
    "longitude": "",
    "latitude": ""
  },
  {
    "id": "6587",
    "name": "The Star Spangled Brewing Co.",
    "brewery_type": "micro",
    "street": "1030 Progress Dr Ste E",
    "city": "Clarksville",
    "state": "Tennessee",
    "postal_code": "37040-5329",
    "website_url": "",
    "phone": "6153981237",
    "created_at": "2018-07-24 01:34:17.161946",
    "updated_at": "2018-08-11 21:39:44.249323",
    "country": "United States",
    "longitude": "",
    "latitude": ""
  },
  {
    "id": "6588",
    "name": "Trace Brewing",
    "brewery_type": "planning",
    "street": "",
    "city": "Nashville",
    "state": "Tennessee",
    "postal_code": "37221-3967",
    "website_url": "",
    "phone": "",
    "created_at": "2018-07-24 01:34:17.174703",
    "updated_at": "2018-08-11 21:39:44.279706",
    "country": "United States",
    "longitude": "",
    "latitude": ""
  },
  {
    "id": "6590",
    "name": "Underbite Brewing",
    "brewery_type": "planning",
    "street": "",
    "city": "Knoxville",
    "state": "Tennessee",
    "postal_code": "37909-1079",
    "website_url": "",
    "phone": "",
    "created_at": "2018-07-24 01:34:17.205053",
    "updated_at": "2018-08-11 21:39:44.343444",
    "country": "United States",
    "longitude": "",
    "latitude": ""
  },
  {
    "id": "6591",
    "name": "VonSeitz TheoreticAles",
    "brewery_type": "micro",
    "street": "175 Hurricane Ridge Rd",
    "city": "Smithville",
    "state": "Tennessee",
    "postal_code": "37166",
    "website_url": "http://www.theoreticales.com",
    "phone": "6153184008",
    "created_at": "2018-07-24 01:34:17.218046",
    "updated_at": "2018-08-11 21:39:44.378522",
    "country": "United States",
    "longitude": "",
    "latitude": ""
  },
  {
    "id": "6592",
    "name": "WanderLinger Brewing Co",
    "brewery_type": "planning",
    "street": "",
    "city": "Chattanooga",
    "state": "Tennessee",
    "postal_code": "37403-4331",
    "website_url": "http://www.wanderlinger.com",
    "phone": "6156535407",
    "created_at": "2018-07-24 01:34:17.231416",
    "updated_at": "2018-08-11 21:39:44.422879",
    "country": "United States",
    "longitude": "",
    "latitude": ""
  },
  {
    "id": "6595",
    "name": "Yee-Haw Brewing, LLC.",
    "brewery_type": "micro",
    "street": "126 Buffalo St Ste 30",
    "city": "Johnson City",
    "state": "Tennessee",
    "postal_code": "37604-5788",
    "website_url": "",
    "phone": "4233289192",
    "created_at": "2018-07-24 01:34:17.274022",
    "updated_at": "2018-08-11 21:39:44.510023",
    "country": "United States",
    "longitude": "",
    "latitude": ""
  },
  {
    "id": "6567",
    "name": "Pretentious Beer Co",
    "brewery_type": "micro",
    "street": "131 S Central St",
    "city": "Knoxville",
    "state": "Tennessee",
    "postal_code": "37902",
    "website_url": "http://www.pretentiousbeerco.com",
    "phone": "8658517693",
    "created_at": "2018-07-24 01:34:16.872443",
    "updated_at": "2018-08-24 16:17:42.767727",
    "country": "United States",
    "longitude": "-83.9181404359167",
    "latitude": "35.9693984377798"
  },
  {
    "id": "6568",
    "name": "Printshop Beer Co",
    "brewery_type": "micro",
    "street": "1532 Island Home Ave",
    "city": "Knoxville",
    "state": "Tennessee",
    "postal_code": "37920",
    "website_url": "",
    "phone": "8654749591",
    "created_at": "2018-07-24 01:34:16.885298",
    "updated_at": "2018-08-24 16:17:44.302094",
    "country": "United States",
    "longitude": "-83.8972435",
    "latitude": "35.9607605"
  },
  {
    "id": "6574",
    "name": "Smith & Lentz Brewing",
    "brewery_type": "micro",
    "street": "903 Main St",
    "city": "Nashville",
    "state": "Tennessee",
    "postal_code": "37206-3609",
    "website_url": "http://www.smithandlentz.com",
    "phone": "",
    "created_at": "2018-07-24 01:34:16.972728",
    "updated_at": "2018-08-24 16:17:50.309777",
    "country": "United States",
    "longitude": "-86.7565172222222",
    "latitude": "36.1763251111111"
  },
  {
    "id": "6575",
    "name": "Smoky Mountain Brewery (#1)",
    "brewery_type": "brewpub",
    "street": "6515 Kingston Pike",
    "city": "Knoxville",
    "state": "Tennessee",
    "postal_code": "37919-4826",
    "website_url": "http://www.smoky-mtn-brewery.com",
    "phone": "8656733377",
    "created_at": "2018-07-24 01:34:16.985724",
    "updated_at": "2018-08-24 16:17:51.899719",
    "country": "United States",
    "longitude": "-84.0096631185854",
    "latitude": "35.9318903307208"
  },
  {
    "id": "6576",
    "name": "Smoky Mountain Brewery (#2) - Gatlinburg",
    "brewery_type": "brewpub",
    "street": "1004 Parkway Ste 501",
    "city": "Gatlinburg",
    "state": "Tennessee",
    "postal_code": "37738-3172",
    "website_url": "http://www.smoky-mtn-brewery.com",
    "phone": "8654364200",
    "created_at": "2018-07-24 01:34:16.998449",
    "updated_at": "2018-08-24 16:17:53.46231",
    "country": "United States",
    "longitude": "-83.5205350353755",
    "latitude": "35.7090180126524"
  },
  {
    "id": "6580",
    "name": "Strawberry Alley Ale Works",
    "brewery_type": "brewpub",
    "street": "103 Strawberry Aly",
    "city": "Clarksville",
    "state": "Tennessee",
    "postal_code": "37040-4267",
    "website_url": "http://www.saaleworks.com",
    "phone": "9319194777",
    "created_at": "2018-07-24 01:34:17.064289",
    "updated_at": "2018-08-24 16:17:59.34637",
    "country": "United States",
    "longitude": "-87.3602663528486",
    "latitude": "36.5280248"
  },
  {
    "id": "6581",
    "name": "Tailgate Brewery",
    "brewery_type": "brewpub",
    "street": "7300 Charlotte Pike",
    "city": "Nashville",
    "state": "Tennessee",
    "postal_code": "37209-5012",
    "website_url": "http://www.tailgatebeer.com",
    "phone": "6154571424",
    "created_at": "2018-07-24 01:34:17.076991",
    "updated_at": "2018-08-24 16:18:00.864703",
    "country": "United States",
    "longitude": "-86.918654",
    "latitude": "36.119936"
  },
  {
    "id": "6582",
    "name": "TailGate Brewery Music Row",
    "brewery_type": "brewpub",
    "street": "1538 Demonbreun St",
    "city": "Nashville",
    "state": "Tennessee",
    "postal_code": "37203-3112",
    "website_url": "http://www.tailgatebeer.com",
    "phone": "",
    "created_at": "2018-07-24 01:34:17.090152",
    "updated_at": "2018-08-24 16:18:02.317553",
    "country": "United States",
    "longitude": "-86.7896397171207",
    "latitude": "36.1531025649507"
  },
  {
    "id": "6583",
    "name": "Tennessee Brew Works",
    "brewery_type": "micro",
    "street": "809 Ewing Ave",
    "city": "Nashville",
    "state": "Tennessee",
    "postal_code": "37203-4631",
    "website_url": "http://www.tnbrew.com",
    "phone": "6154360050",
    "created_at": "2018-07-24 01:34:17.10306",
    "updated_at": "2018-08-24 16:18:03.803409",
    "country": "United States",
    "longitude": "-86.7762132",
    "latitude": "36.1503752"
  },
  {
    "id": "6585",
    "name": "Terminal Brewhouse, The",
    "brewery_type": "brewpub",
    "street": "1464 Market St",
    "city": "Chattanooga",
    "state": "Tennessee",
    "postal_code": "37402-4448",
    "website_url": "http://www.terminalbrewhouse.com",
    "phone": "4237528090",
    "created_at": "2018-07-24 01:34:17.134138",
    "updated_at": "2018-08-24 16:18:06.79973",
    "country": "United States",
    "longitude": "-85.3072307666667",
    "latitude": "35.0364449333333"
  },
  {
    "id": "6589",
    "name": "Turtle Anarchy Brewing Co",
    "brewery_type": "micro",
    "street": "5901 California Ave Ste 105",
    "city": "Nashville",
    "state": "Tennessee",
    "postal_code": "37209-1370",
    "website_url": "http://www.turtleanarchy.com",
    "phone": "",
    "created_at": "2018-07-24 01:34:17.191257",
    "updated_at": "2018-08-24 16:18:11.421934",
    "country": "United States",
    "longitude": "-86.8586173726621",
    "latitude": "36.1645838804147"
  },
  {
    "id": "6593",
    "name": "Wiseacre Brewing Co",
    "brewery_type": "regional",
    "street": "2783 Broad Ave",
    "city": "Memphis",
    "state": "Tennessee",
    "postal_code": "38112-2834",
    "website_url": "http://www.wiseacrebrew.com",
    "phone": "9018887000",
    "created_at": "2018-07-24 01:34:17.24542",
    "updated_at": "2018-08-24 16:18:14.719011",
    "country": "United States",
    "longitude": "-89.9684970115659",
    "latitude": "35.1475572534875"
  },
  {
    "id": "6594",
    "name": "Yazoo Brewing Co",
    "brewery_type": "regional",
    "street": "910 Division St",
    "city": "Nashville",
    "state": "Tennessee",
    "postal_code": "37203-4111",
    "website_url": "http://www.yazoobrew.com",
    "phone": "6158914649",
    "created_at": "2018-07-24 01:34:17.258634",
    "updated_at": "2018-08-24 16:18:16.208153",
    "country": "United States",
    "longitude": "-86.7835559482768",
    "latitude": "36.1509019494543"
  },
  {
    "id": "6514",
    "name": "Crosstown Brewing Company",
    "brewery_type": "micro",
    "street": "1264 Concourse Ave",
    "city": "Memphis",
    "state": "Tennessee",
    "postal_code": "38104-7022",
    "website_url": "http://www.crosstownbeer.com",
    "phone": "9015297611",
    "created_at": "2018-07-24 01:34:16.046194",
    "updated_at": "2018-08-24 16:16:38.114929",
    "country": "United States",
    "longitude": "-90.0129924",
    "latitude": "35.1515547"
  },
  {
    "id": "6528",
    "name": "Ghost River Brewing",
    "brewery_type": "micro",
    "street": "827 S Main St",
    "city": "Memphis",
    "state": "Tennessee",
    "postal_code": "38106-2063",
    "website_url": "http://www.ghostriverbrewing.com",
    "phone": "9016614976",
    "created_at": "2018-07-24 01:34:16.311791",
    "updated_at": "2018-08-24 16:16:52.683742",
    "country": "United States",
    "longitude": "-90.059285",
    "latitude": "35.125851"
  },
  {
    "id": "6577",
    "name": "Smoky Mountain Brewery (#3) - Pigeon Forge",
    "brewery_type": "brewpub",
    "street": "2530 Parkway Ste 15",
    "city": "Pigeon Forge",
    "state": "Tennessee",
    "postal_code": "37863-7006",
    "website_url": "http://www.smoky-mtn-brewery.com",
    "phone": "",
    "created_at": "2018-07-24 01:34:17.010914",
    "updated_at": "2018-08-11 21:39:43.915159",
    "country": "United States",
    "longitude": "",
    "latitude": ""
  },
  {
    "id": "6556",
    "name": "Meddlesome Brewing Company",
    "brewery_type": "micro",
    "street": "7750 Trinity Rd Ste 114",
    "city": "Cordova",
    "state": "Tennessee",
    "postal_code": "38018-2736",
    "website_url": "http://www.meddlesomebrewing.com",
    "phone": "6185218036",
    "created_at": "2018-07-24 01:34:16.720105",
    "updated_at": "2018-08-24 16:17:30.543521",
    "country": "United States",
    "longitude": "-89.802564",
    "latitude": "35.14057"
  },
  {
    "id": "6578",
    "name": "Smoky Mountain Brewery (#4) - Turkey Creek",
    "brewery_type": "brewpub",
    "street": "11308 Parkside Dr",
    "city": "Knoxville",
    "state": "Tennessee",
    "postal_code": "37934-1971",
    "website_url": "http://www.smoky-mtn-brewery.com",
    "phone": "8652885500",
    "created_at": "2018-07-24 01:34:17.029253",
    "updated_at": "2018-08-24 16:17:56.387368",
    "country": "United States",
    "longitude": "-84.1584642365995",
    "latitude": "35.9000638184674"
  },
  {
    "id": "6493",
    "name": "Big River Grille & Brewing Works - Chattanooga",
    "brewery_type": "brewpub",
    "street": "222 Broad St",
    "city": "Chattanooga",
    "state": "Tennessee",
    "postal_code": "37402-1009",
    "website_url": "http://www.craftworksrestaurants.com",
    "phone": "4232672739",
    "created_at": "2018-07-24 01:34:15.727671",
    "updated_at": "2018-08-24 16:16:16.074383",
    "country": "United States",
    "longitude": "-85.310708746297",
    "latitude": "35.0538755447393"
  },
  {
    "id": "6494",
    "name": "Blackberry Farm Brewery",
    "brewery_type": "micro",
    "street": "910 E Harper Ave",
    "city": "Maryville",
    "state": "Tennessee",
    "postal_code": "37804-4023",
    "website_url": "http://www.blackberryfarm.com",
    "phone": "8659848166",
    "created_at": "2018-07-24 01:34:15.741944",
    "updated_at": "2018-08-24 16:16:17.605954",
    "country": "United States",
    "longitude": "-83.965755",
    "latitude": "35.762562"
  },
  {
    "id": "6517",
    "name": "Depot Street Brewing Co",
    "brewery_type": "micro",
    "street": "904 Depot St",
    "city": "Jonesborough",
    "state": "Tennessee",
    "postal_code": "37659-5662",
    "website_url": "http://www.depotstreetbrewing.com",
    "phone": "4237537628",
    "created_at": "2018-07-24 01:34:16.094327",
    "updated_at": "2018-08-24 16:16:41.019707",
    "country": "United States",
    "longitude": "-82.4805452434381",
    "latitude": "36.2876539466407"
  },
  {
    "id": "6534",
    "name": "Heaven & Ale Brewing Co",
    "brewery_type": "brewpub",
    "street": "300 Cherokee Blvd Ste 101",
    "city": "Chattanooga",
    "state": "Tennessee",
    "postal_code": "37405-3811",
    "website_url": "http://www.heavenandalebrewing.com",
    "phone": "4044416434",
    "created_at": "2018-07-24 01:34:16.416659",
    "updated_at": "2018-08-24 16:16:57.160261",
    "country": "United States",
    "longitude": "-85.311847",
    "latitude": "35.064349"
  },
  {
    "id": "6536",
    "name": "High Cotton Brewing",
    "brewery_type": "micro",
    "street": "598 Monroe Ave",
    "city": "Memphis",
    "state": "Tennessee",
    "postal_code": "38103-3214",
    "website_url": "http://www.highcottonbrewing.com",
    "phone": "9015434444",
    "created_at": "2018-07-24 01:34:16.442401",
    "updated_at": "2018-08-24 16:17:00.275726",
    "country": "United States",
    "longitude": "-90.0404790748779",
    "latitude": "35.1408806482536"
  },
  {
    "id": "6554",
    "name": "McHale's Brewhouse",
    "brewery_type": "brewpub",
    "street": "724 Ashland Ter",
    "city": "Chattanooga",
    "state": "Tennessee",
    "postal_code": "37415-3536",
    "website_url": "http://www.mchalesbrewhouse.com",
    "phone": "4238772124",
    "created_at": "2018-07-24 01:34:16.690853",
    "updated_at": "2018-08-24 16:17:28.852367",
    "country": "United States",
    "longitude": "-85.2757397642444",
    "latitude": "35.1164058264354"
  },
  {
    "id": "6566",
    "name": "Perrylodgic Brewing Company",
    "brewery_type": "micro",
    "street": "3465 US-79 N",
    "city": "Paris",
    "state": "Tennessee",
    "postal_code": "38242-9998",
    "website_url": "http://www.perrylodgic.com",
    "phone": "7314077100",
    "created_at": "2018-07-24 01:34:16.859628",
    "updated_at": "2018-08-24 16:17:41.241411",
    "country": "United States",
    "longitude": "-88.3268031",
    "latitude": "36.2785418"
  },
  {
    "id": "6569",
    "name": "Red Silo Brewing Co",
    "brewery_type": "micro",
    "street": "118 W 1st St",
    "city": "Cookeville",
    "state": "Tennessee",
    "postal_code": "38501-2490",
    "website_url": "http://www.redsilo.beer",
    "phone": "9316512333",
    "created_at": "2018-07-24 01:34:16.897876",
    "updated_at": "2018-08-24 16:17:45.796888",
    "country": "United States",
    "longitude": "-85.5086010623437",
    "latitude": "36.1653550099297"
  },
  {
    "id": "6572",
    "name": "Schulz Brau Brewing Company",
    "brewery_type": "micro",
    "street": "126 Bernard Ave",
    "city": "Knoxville",
    "state": "Tennessee",
    "postal_code": "37917-7116",
    "website_url": "http://www.schulzbraubrewing.com",
    "phone": "8002459764",
    "created_at": "2018-07-24 01:34:16.936284",
    "updated_at": "2018-08-24 16:17:47.263819",
    "country": "United States",
    "longitude": "-83.9273236025641",
    "latitude": "35.9767572564103"
  },
  {
    "id": "6586",
    "name": "The Black Abbey Brewing Company",
    "brewery_type": "micro",
    "street": "2952 Sidco Dr Ste 211",
    "city": "Nashville",
    "state": "Tennessee",
    "postal_code": "37204-3710",
    "website_url": "http://www.blackabbeybrewing.com",
    "phone": "6157550070",
    "created_at": "2018-07-24 01:34:17.147608",
    "updated_at": "2018-08-24 16:18:08.315607",
    "country": "United States",
    "longitude": "-86.7559029967888",
    "latitude": "36.1048168612864"
  },
  {
    "id": "6529",
    "name": "Gladiator Brewing Co.",
    "brewery_type": "planning",
    "street": "",
    "city": "Clarksville",
    "state": "Tennessee",
    "postal_code": "37040",
    "website_url": "",
    "phone": "9137497035",
    "created_at": "2018-07-24 01:34:16.328397",
    "updated_at": "2018-08-11 21:39:42.223007",
    "country": "United States",
    "longitude": "",
    "latitude": ""
  },
  {
    "id": "6579",
    "name": "Southern Grist Brewing Company",
    "brewery_type": "micro",
    "street": "1201 Porter Rd",
    "city": "Nashville",
    "state": "Tennessee",
    "postal_code": "37206-1733",
    "website_url": "http://www.southerngristbrewing.com",
    "phone": "6157271201",
    "created_at": "2018-07-24 01:34:17.047066",
    "updated_at": "2018-08-24 16:17:57.886017",
    "country": "United States",
    "longitude": "-86.729011",
    "latitude": "36.188838"
  },
  {
    "id": "6525",
    "name": "Fawken Beer Company",
    "brewery_type": "planning",
    "street": "",
    "city": "Columbia",
    "state": "Tennessee",
    "postal_code": "38401-2030",
    "website_url": "",
    "phone": "6156636116",
    "created_at": "2018-07-24 01:34:16.237856",
    "updated_at": "2018-08-11 21:39:42.076696",
    "country": "United States",
    "longitude": "",
    "latitude": ""
  },
  {
    "id": "6526",
    "name": "Five Wits Brewing Co.",
    "brewery_type": "planning",
    "street": "",
    "city": "Chattanooga",
    "state": "Tennessee",
    "postal_code": "37408",
    "website_url": "",
    "phone": "4237742991",
    "created_at": "2018-07-24 01:34:16.27118",
    "updated_at": "2018-08-11 21:39:42.126038",
    "country": "United States",
    "longitude": "",
    "latitude": ""
  },
  {
    "id": "6527",
    "name": "Garr's Beer Co.",
    "brewery_type": "proprietor",
    "street": "",
    "city": "Franklin",
    "state": "Tennessee",
    "postal_code": "37067",
    "website_url": "http://www.garrs.beer",
    "phone": "6155090009",
    "created_at": "2018-07-24 01:34:16.296317",
    "updated_at": "2018-08-11 21:39:42.154246",
    "country": "United States",
    "longitude": "",
    "latitude": ""
  },
  {
    "id": "6485",
    "name": "Albright Grove Brewing Company",
    "brewery_type": "planning",
    "street": "",
    "city": "Townsend",
    "state": "Tennessee",
    "postal_code": "37882",
    "website_url": "",
    "phone": "8656049898",
    "created_at": "2018-07-24 01:34:15.615951",
    "updated_at": "2018-08-11 21:39:40.042365",
    "country": "United States",
    "longitude": "",
    "latitude": ""
  },
  {
    "id": "6488",
    "name": "Bad Idea Brewing",
    "brewery_type": "planning",
    "street": "",
    "city": "Spring Hill",
    "state": "Tennessee",
    "postal_code": "37174-2895",
    "website_url": "http://www.badideabrewing.com",
    "phone": "",
    "created_at": "2018-07-24 01:34:15.656873",
    "updated_at": "2018-08-11 21:39:40.573021",
    "country": "United States",
    "longitude": "",
    "latitude": ""
  },
  {
    "id": "6490",
    "name": "Beale St Brewing Co",
    "brewery_type": "planning",
    "street": "",
    "city": "Memphis",
    "state": "Tennessee",
    "postal_code": "38104-6826",
    "website_url": "http://www.bealestbrewing.com",
    "phone": "9014917197",
    "created_at": "2018-07-24 01:34:15.684937",
    "updated_at": "2018-08-11 21:39:40.643623",
    "country": "United States",
    "longitude": "",
    "latitude": ""
  },
  {
    "id": "6495",
    "name": "Blackhorse Brewery",
    "brewery_type": "planning",
    "street": "",
    "city": "Alcoa",
    "state": "Tennessee",
    "postal_code": "37701",
    "website_url": "",
    "phone": "",
    "created_at": "2018-07-24 01:34:15.755589",
    "updated_at": "2018-08-11 21:39:40.869554",
    "country": "United States",
    "longitude": "",
    "latitude": ""
  },
  {
    "id": "6501",
    "name": "Brewery In Planning - Knoxville",
    "brewery_type": "planning",
    "street": "",
    "city": "Knoxville",
    "state": "Tennessee",
    "postal_code": "37923-2025",
    "website_url": "http://roosterssportsbar.com",
    "phone": "8653009738",
    "created_at": "2018-07-24 01:34:15.837169",
    "updated_at": "2018-08-11 21:39:41.074937",
    "country": "United States",
    "longitude": "",
    "latitude": ""
  },
  {
    "id": "6502",
    "name": "Brewery in Planning - Knoxville",
    "brewery_type": "planning",
    "street": "",
    "city": "Knoxville",
    "state": "Tennessee",
    "postal_code": "37919-5140",
    "website_url": "",
    "phone": "6062696366",
    "created_at": "2018-07-24 01:34:15.849742",
    "updated_at": "2018-08-11 21:39:41.106111",
    "country": "United States",
    "longitude": "",
    "latitude": ""
  },
  {
    "id": "6503",
    "name": "Brewery In Planning - Nashville",
    "brewery_type": "planning",
    "street": "",
    "city": "Nashville",
    "state": "Tennessee",
    "postal_code": "37206-2412",
    "website_url": "",
    "phone": "",
    "created_at": "2018-07-24 01:34:15.867751",
    "updated_at": "2018-08-11 21:39:41.144288",
    "country": "United States",
    "longitude": "",
    "latitude": ""
  },
  {
    "id": "6504",
    "name": "Brewery in Planning - Rossville",
    "brewery_type": "planning",
    "street": "",
    "city": "Rossville",
    "state": "Tennessee",
    "postal_code": "38133",
    "website_url": "",
    "phone": "9012187665",
    "created_at": "2018-07-24 01:34:15.883515",
    "updated_at": "2018-08-11 21:39:41.174859",
    "country": "United States",
    "longitude": "",
    "latitude": ""
  },
  {
    "id": "6509",
    "name": "Cold Fusion Brewing LLC",
    "brewery_type": "micro",
    "street": "4711 Morton Place Way",
    "city": "Knoxville",
    "state": "Tennessee",
    "postal_code": "37912-4162",
    "website_url": "http://www.facebook.com/ColdFusionBrewery/?ref=bookmarks",
    "phone": "8652035948",
    "created_at": "2018-07-24 01:34:15.960097",
    "updated_at": "2018-08-11 21:39:41.338886",
    "country": "United States",
    "longitude": "",
    "latitude": ""
  },
  {
    "id": "6510",
    "name": "Common John Brewing Co",
    "brewery_type": "planning",
    "street": "",
    "city": "Manchester",
    "state": "Tennessee",
    "postal_code": "37355-6064",
    "website_url": "http://www.commonjohnbc.com",
    "phone": "9314090630",
    "created_at": "2018-07-24 01:34:15.977236",
    "updated_at": "2018-08-11 21:39:41.368699",
    "country": "United States",
    "longitude": "",
    "latitude": ""
  },
  {
    "id": "6513",
    "name": "Crafty Bastard Brewery",
    "brewery_type": "micro",
    "street": "6 Emory Pl",
    "city": "Knoxville",
    "state": "Tennessee",
    "postal_code": "37917-7317",
    "website_url": "http://www.craftybastardbrewery.com",
    "phone": "8657552358",
    "created_at": "2018-07-24 01:34:16.029167",
    "updated_at": "2018-08-11 21:39:41.459697",
    "country": "United States",
    "longitude": "",
    "latitude": ""
  },
  {
    "id": "6516",
    "name": "Delta Sunshine Brewing Company",
    "brewery_type": "planning",
    "street": "",
    "city": "Memphis",
    "state": "Tennessee",
    "postal_code": "38120-8859",
    "website_url": "",
    "phone": "9016748330",
    "created_at": "2018-07-24 01:34:16.078258",
    "updated_at": "2018-08-11 21:39:41.706384",
    "country": "United States",
    "longitude": "",
    "latitude": ""
  },
  {
    "id": "6484",
    "name": "Abridged Beer Company",
    "brewery_type": "brewpub",
    "street": "100 Lockett Rd",
    "city": "Knoxville",
    "state": "Tennessee",
    "postal_code": "37919-4807",
    "website_url": "http://www.abridgedbeer.com",
    "phone": "8658989438",
    "created_at": "2018-07-24 01:34:15.601622",
    "updated_at": "2018-08-24 16:16:07.028376",
    "country": "United States",
    "longitude": "-84.016459",
    "latitude": "35.932287"
  },
  {
    "id": "6486",
    "name": "Alliance Brewing Company",
    "brewery_type": "micro",
    "street": "1130 Sevier Ave",
    "city": "Knoxville",
    "state": "Tennessee",
    "postal_code": "37920",
    "website_url": "http://www.alliancebrewing.com",
    "phone": "8652475355",
    "created_at": "2018-07-24 01:34:15.629952",
    "updated_at": "2018-08-24 16:16:08.466221",
    "country": "United States",
    "longitude": "-83.9035469",
    "latitude": "35.9593516"
  },
  {
    "id": "6487",
    "name": "Asgard Brewing Company",
    "brewery_type": "micro",
    "street": "104 E 5th St",
    "city": "Columbia",
    "state": "Tennessee",
    "postal_code": "38401-3351",
    "website_url": "http://www.asgardbrewery.com",
    "phone": "6158282218",
    "created_at": "2018-07-24 01:34:15.643825",
    "updated_at": "2018-08-24 16:16:10.000943",
    "country": "United States",
    "longitude": "-87.0332968790231",
    "latitude": "35.6174542028515"
  },
  {
    "id": "6489",
    "name": "Balter Beerworks",
    "brewery_type": "brewpub",
    "street": "100 S Broadway St",
    "city": "Knoxville",
    "state": "Tennessee",
    "postal_code": "37902-1901",
    "website_url": "http://www.balterbeerworks.com",
    "phone": "8659995015",
    "created_at": "2018-07-24 01:34:15.672313",
    "updated_at": "2018-08-24 16:16:11.496821",
    "country": "United States",
    "longitude": "-83.92432",
    "latitude": "35.96654"
  },
  {
    "id": "6491",
    "name": "Bearded Iris Brewing",
    "brewery_type": "micro",
    "street": "101 Van Buren St",
    "city": "Nashville",
    "state": "Tennessee",
    "postal_code": "37208-1719",
    "website_url": "http://www.beardedirisbrewing.com",
    "phone": "6159287988",
    "created_at": "2018-07-24 01:34:15.699275",
    "updated_at": "2018-08-24 16:16:13.017648",
    "country": "United States",
    "longitude": "-86.786174",
    "latitude": "36.181424"
  },
  {
    "id": "6492",
    "name": "Big Frog Brewing Company",
    "brewery_type": "micro",
    "street": "2122 Dayton Blvd",
    "city": "Red Bank",
    "state": "Tennessee",
    "postal_code": "37415-6414",
    "website_url": "http://www.bigfrogbrewery.com",
    "phone": "4238039046",
    "created_at": "2018-07-24 01:34:15.713212",
    "updated_at": "2018-08-24 16:16:14.556386",
    "country": "United States",
    "longitude": "-85.310176033573",
    "latitude": "35.0916037009048"
  },
  {
    "id": "6496",
    "name": "Blackhorse Pub and Brewery",
    "brewery_type": "brewpub",
    "street": "132 Franklin St",
    "city": "Clarksville",
    "state": "Tennessee",
    "postal_code": "37040-3438",
    "website_url": "http://www.blackhorsebrews.com",
    "phone": "9315523726",
    "created_at": "2018-07-24 01:34:15.769211",
    "updated_at": "2018-08-24 16:16:19.08675",
    "country": "United States",
    "longitude": "-87.3588994",
    "latitude": "36.52735085"
  },
  {
    "id": "6497",
    "name": "Blackhorse Pub and Brewery -  Knoxville",
    "brewery_type": "brewpub",
    "street": "4429 Kingston Pike",
    "city": "Knoxville",
    "state": "Tennessee",
    "postal_code": "37919-5252",
    "website_url": "http://www.theblackhorsepub.net",
    "phone": "8652498511",
    "created_at": "2018-07-24 01:34:15.782781",
    "updated_at": "2018-08-24 16:16:21.475271",
    "country": "United States",
    "longitude": "-84.0443634",
    "latitude": "35.9259722"
  },
  {
    "id": "6498",
    "name": "Blackstone Brewing Co",
    "brewery_type": "micro",
    "street": "2312 Clifton Ave",
    "city": "Nashville",
    "state": "Tennessee",
    "postal_code": "37209-4115",
    "website_url": "http://blackstonebrewery.com",
    "phone": "6153209002",
    "created_at": "2018-07-24 01:34:15.797107",
    "updated_at": "2018-08-24 16:16:23.141705",
    "country": "United States",
    "longitude": "-86.8097436319194",
    "latitude": "36.1579678295884"
  },
  {
    "id": "6499",
    "name": "Blues City Brewing Co",
    "brewery_type": "regional",
    "street": "5151 E Raines Rd",
    "city": "Memphis",
    "state": "Tennessee",
    "postal_code": "38118-7026",
    "website_url": "http://www.citybrewing.com",
    "phone": "6087854200",
    "created_at": "2018-07-24 01:34:15.811239",
    "updated_at": "2018-08-24 16:16:24.747793",
    "country": "United States",
    "longitude": "-89.8874019",
    "latitude": "35.0350188"
  },
  {
    "id": "6500",
    "name": "Boscos Squared",
    "brewery_type": "brewpub",
    "street": "2120 Madison Ave",
    "city": "Memphis",
    "state": "Tennessee",
    "postal_code": "38104-6502",
    "website_url": "http://www.boscosbeer.com",
    "phone": "9014322222",
    "created_at": "2018-07-24 01:34:15.824686",
    "updated_at": "2018-08-24 16:16:26.338948",
    "country": "United States",
    "longitude": "-90.0401714",
    "latitude": "35.1417658"
  },
  {
    "id": "6505",
    "name": "BriarScratch Brewing",
    "brewery_type": "micro",
    "street": "Highway 25",
    "city": "Cottontown",
    "state": "Tennessee",
    "postal_code": "37048",
    "website_url": "http://www.briarscratchbrewing.com",
    "phone": "6153191563",
    "created_at": "2018-07-24 01:34:15.897626",
    "updated_at": "2018-08-24 16:16:27.819509",
    "country": "United States",
    "longitude": "-86.53805",
    "latitude": "36.4514343"
  },
  {
    "id": "6506",
    "name": "Calfkiller Brewing Co",
    "brewery_type": "micro",
    "street": "1839 Blue Springs Rd",
    "city": "Sparta",
    "state": "Tennessee",
    "postal_code": "38583-2714",
    "website_url": "http://www.calfkillerbeer.com",
    "phone": "9317392337",
    "created_at": "2018-07-24 01:34:15.911488",
    "updated_at": "2018-08-24 16:16:29.285421",
    "country": "United States",
    "longitude": "-85.4220608277859",
    "latitude": "35.9446066759592"
  },
  {
    "id": "6507",
    "name": "Chattanooga Brewing Co",
    "brewery_type": "micro",
    "street": "1804 Chestnut St",
    "city": "Chattanooga",
    "state": "Tennessee",
    "postal_code": "37408-1027",
    "website_url": "http://www.chattabrew.com",
    "phone": "4237029958",
    "created_at": "2018-07-24 01:34:15.926349",
    "updated_at": "2018-08-24 16:16:30.735896",
    "country": "United States",
    "longitude": "-85.314430246936",
    "latitude": "35.0363334908815"
  },
  {
    "id": "6508",
    "name": "Clinch River Brewing",
    "brewery_type": "brewpub",
    "street": "2045 Norris Freeway",
    "city": "Norris",
    "state": "Tennessee",
    "postal_code": "37828",
    "website_url": "http://www.clinchriverbrewing.com",
    "phone": "2763561847",
    "created_at": "2018-07-24 01:34:15.943182",
    "updated_at": "2018-08-24 16:16:32.215922",
    "country": "United States",
    "longitude": "-84.0448186",
    "latitude": "36.1696625"
  },
  {
    "id": "6511",
    "name": "Cool Springs Brewery",
    "brewery_type": "brewpub",
    "street": "600A Frazier Dr Ste 135",
    "city": "Franklin",
    "state": "Tennessee",
    "postal_code": "37067-4677",
    "website_url": "http://www.coolspringsbrewery.com",
    "phone": "6155039626",
    "created_at": "2018-07-24 01:34:15.995565",
    "updated_at": "2018-08-24 16:16:35.175754",
    "country": "United States",
    "longitude": "-86.820912",
    "latitude": "35.944623"
  },
  {
    "id": "6512",
    "name": "Corsair Artisan LLC",
    "brewery_type": "micro",
    "street": "1200 Clinton St Ste 110",
    "city": "Nashville",
    "state": "Tennessee",
    "postal_code": "37203-2894",
    "website_url": "http://www.corsairartisan.com",
    "phone": "6152000320",
    "created_at": "2018-07-24 01:34:16.012948",
    "updated_at": "2018-08-24 16:16:36.663399",
    "country": "United States",
    "longitude": "-86.794546",
    "latitude": "36.165123"
  },
  {
    "id": "6515",
    "name": "Czann's Brewing",
    "brewery_type": "micro",
    "street": "505 Lea Ave",
    "city": "Nashville",
    "state": "Tennessee",
    "postal_code": "37203-4499",
    "website_url": "http://czanns.com",
    "phone": "6154033517",
    "created_at": "2018-07-24 01:34:16.062947",
    "updated_at": "2018-08-24 16:16:39.549063",
    "country": "United States",
    "longitude": "-86.7742274305325",
    "latitude": "36.1533486"
  },
  {
    "id": "6521",
    "name": "Elkmont Exchange Brewery and Eating House",
    "brewery_type": "brewpub",
    "street": "745 N Broadway St",
    "city": "Knoxville",
    "state": "Tennessee",
    "postal_code": "37917-7202",
    "website_url": "http://elkmontexchange.com",
    "phone": "8653600602",
    "created_at": "2018-07-24 01:34:16.161621",
    "updated_at": "2018-08-11 21:39:41.902358",
    "country": "United States",
    "longitude": "",
    "latitude": ""
  },
  {
    "id": "6522",
    "name": "Elst Brewing Company",
    "brewery_type": "planning",
    "street": "",
    "city": "Knoxville",
    "state": "Tennessee",
    "postal_code": "37921-5188",
    "website_url": "http://www.elst.beer",
    "phone": "8658099618",
    "created_at": "2018-07-24 01:34:16.18232",
    "updated_at": "2018-08-11 21:39:41.947972",
    "country": "United States",
    "longitude": "",
    "latitude": ""
  },
  {
    "id": "6531",
    "name": "Half Batch Brewing",
    "brewery_type": "micro",
    "street": "393 E Main St Suite 6A",
    "city": "Hendersonville",
    "state": "Tennessee",
    "postal_code": "37075-2575",
    "website_url": "http://halfbatchbrewing.com",
    "phone": "6153394527",
    "created_at": "2018-07-24 01:34:16.362576",
    "updated_at": "2018-08-11 21:39:42.288606",
    "country": "United States",
    "longitude": "",
    "latitude": ""
  },
  {
    "id": "6532",
    "name": "Happy Trails Brewing Company",
    "brewery_type": "planning",
    "street": "",
    "city": "Sparta",
    "state": "Tennessee",
    "postal_code": "38583-5577",
    "website_url": "http://www.happytrailsbrewingco.com",
    "phone": "9312678027",
    "created_at": "2018-07-24 01:34:16.378848",
    "updated_at": "2018-08-11 21:39:42.320575",
    "country": "United States",
    "longitude": "",
    "latitude": ""
  },
  {
    "id": "6533",
    "name": "Harding House Brewing Company",
    "brewery_type": "planning",
    "street": "",
    "city": "Nashville",
    "state": "Tennessee",
    "postal_code": "37209",
    "website_url": "http://www.hardinghousebrew.com",
    "phone": "3034089405",
    "created_at": "2018-07-24 01:34:16.39635",
    "updated_at": "2018-08-11 21:39:42.360845",
    "country": "United States",
    "longitude": "",
    "latitude": ""
  },
  {
    "id": "6539",
    "name": "Honky Tonk Brewing Co",
    "brewery_type": "micro",
    "street": "240 Cumberland Bnd",
    "city": "Nashville",
    "state": "Tennessee",
    "postal_code": "37228-1804",
    "website_url": "http://www.honkytonkbeer.com",
    "phone": "6157429770",
    "created_at": "2018-07-24 01:34:16.483208",
    "updated_at": "2018-08-11 21:39:42.590261",
    "country": "United States",
    "longitude": "",
    "latitude": ""
  },
  {
    "id": "6540",
    "name": "Hook Point Brewing Co.",
    "brewery_type": "proprietor",
    "street": "",
    "city": "Collierville",
    "state": "Tennessee",
    "postal_code": "38017",
    "website_url": "http://www.flathat.com",
    "phone": "8009582330",
    "created_at": "2018-07-24 01:34:16.497764",
    "updated_at": "2018-08-11 21:39:42.625843",
    "country": "United States",
    "longitude": "",
    "latitude": ""
  },
  {
    "id": "6541",
    "name": "Hutton & Smith Brewing Company",
    "brewery_type": "micro",
    "street": "431 E Martin Luther King Blvd # 120",
    "city": "Chattanooga",
    "state": "Tennessee",
    "postal_code": "37403",
    "website_url": "http://www.huttonandsmithbrewing.com",
    "phone": "4237603600",
    "created_at": "2018-07-24 01:34:16.511934",
    "updated_at": "2018-08-11 21:39:42.654845",
    "country": "United States",
    "longitude": "",
    "latitude": ""
  },
  {
    "id": "6550",
    "name": "Loose Ends Brewing Company",
    "brewery_type": "planning",
    "street": "",
    "city": "Knoxville",
    "state": "Tennessee",
    "postal_code": "37938-2162",
    "website_url": "",
    "phone": "9372860803",
    "created_at": "2018-07-24 01:34:16.630188",
    "updated_at": "2018-08-11 21:39:42.994135",
    "country": "United States",
    "longitude": "",
    "latitude": ""
  },
  {
    "id": "6553",
    "name": "Mayday Brewery",
    "brewery_type": "micro",
    "street": "521 Old Salem Rd Ste C",
    "city": "Murfreesboro",
    "state": "Tennessee",
    "postal_code": "37129-5305",
    "website_url": "http://www.maydaybrewery.com",
    "phone": "6154799722",
    "created_at": "2018-07-24 01:34:16.675249",
    "updated_at": "2018-08-11 21:39:43.116431",
    "country": "United States",
    "longitude": "",
    "latitude": ""
  },
  {
    "id": "6555",
    "name": "McIntyre Brewing Company",
    "brewery_type": "planning",
    "street": "",
    "city": "Hermitage",
    "state": "Tennessee",
    "postal_code": "37076",
    "website_url": "http://www.mcintyrebrew.com",
    "phone": "4065291183",
    "created_at": "2018-07-24 01:34:16.705011",
    "updated_at": "2018-08-11 21:39:43.178202",
    "country": "United States",
    "longitude": "",
    "latitude": ""
  },
  {
    "id": "6557",
    "name": "Memphis Filling Station",
    "brewery_type": "planning",
    "street": "",
    "city": "Memphis",
    "state": "Tennessee",
    "postal_code": "38112-4938",
    "website_url": "http://www.memphisfillingstation.com",
    "phone": "9014978109",
    "created_at": "2018-07-24 01:34:16.735574",
    "updated_at": "2018-08-11 21:39:43.239724",
    "country": "United States",
    "longitude": "",
    "latitude": ""
  },
  {
    "id": "6560",
    "name": "Moccasin Bend Brewing Co",
    "brewery_type": "micro",
    "street": "3210 Broad St # B",
    "city": "Chattanooga",
    "state": "Tennessee",
    "postal_code": "37408-3059",
    "website_url": "http://www.bendbrewingbeer.com",
    "phone": "4238216392",
    "created_at": "2018-07-24 01:34:16.780422",
    "updated_at": "2018-08-11 21:39:43.33267",
    "country": "United States",
    "longitude": "",
    "latitude": ""
  },
  {
    "id": "6563",
    "name": "Oddstory Brewing Co",
    "brewery_type": "micro",
    "street": "336 E Mlk",
    "city": "Chattanooga",
    "state": "Tennessee",
    "postal_code": "37403-4121",
    "website_url": "http://www.oddstorybrewing.co",
    "phone": "2563097208",
    "created_at": "2018-07-24 01:34:16.818827",
    "updated_at": "2018-08-11 21:39:43.427881",
    "country": "United States",
    "longitude": "",
    "latitude": ""
  },
  {
    "id": "6518",
    "name": "Downtown Grill & Brewery / Woodruff Brewing",
    "brewery_type": "brewpub",
    "street": "424 S Gay St",
    "city": "Knoxville",
    "state": "Tennessee",
    "postal_code": "37902-1103",
    "website_url": "http://www.downtownbrewery.com",
    "phone": "8656338111",
    "created_at": "2018-07-24 01:34:16.108414",
    "updated_at": "2018-08-24 16:16:43.550199",
    "country": "United States",
    "longitude": "-83.9186686014889",
    "latitude": "35.9660630063957"
  },
  {
    "id": "6519",
    "name": "East Nashville Beer Works",
    "brewery_type": "brewpub",
    "street": "320 E Trinity Ln",
    "city": "Nashville",
    "state": "Tennessee",
    "postal_code": "37207-4524",
    "website_url": "http://www.eastnashbeerworks.com",
    "phone": "6158913108",
    "created_at": "2018-07-24 01:34:16.12325",
    "updated_at": "2018-08-24 16:16:45.082724",
    "country": "United States",
    "longitude": "-86.7632038301232",
    "latitude": "36.20526205"
  },
  {
    "id": "6520",
    "name": "Elderbrew",
    "brewery_type": "micro",
    "street": "24 6th St",
    "city": "Bristol",
    "state": "Tennessee",
    "postal_code": "37620",
    "website_url": "http://www.elderbrew.com",
    "phone": "",
    "created_at": "2018-07-24 01:34:16.142412",
    "updated_at": "2018-08-24 16:16:46.584881",
    "country": "United States",
    "longitude": "-82.18356135",
    "latitude": "36.594077"
  },
  {
    "id": "6523",
    "name": "Fanatic Brewing Company",
    "brewery_type": "micro",
    "street": "2735 N Central St",
    "city": "Knoxville",
    "state": "Tennessee",
    "postal_code": "37917",
    "website_url": "http://www.fanaticbrewing.com",
    "phone": "8655482337",
    "created_at": "2018-07-24 01:34:16.201883",
    "updated_at": "2018-08-24 16:16:49.56863",
    "country": "United States",
    "longitude": "-83.9422445237608",
    "latitude": "35.9917510649748"
  },
  {
    "id": "6524",
    "name": "Fat Bottom Brewing",
    "brewery_type": "micro",
    "street": "800 44th Ave N",
    "city": "Nashville",
    "state": "Tennessee",
    "postal_code": "37209-2336",
    "website_url": "http://www.fatbottombrewing.com",
    "phone": "6152935783",
    "created_at": "2018-07-24 01:34:16.217334",
    "updated_at": "2018-08-24 16:16:51.091088",
    "country": "United States",
    "longitude": "-86.8403168839933",
    "latitude": "36.1604492579475"
  },
  {
    "id": "6530",
    "name": "Granite City Food & Brewery",
    "brewery_type": "brewpub",
    "street": "1864 W McEwen Dr",
    "city": "Franklin",
    "state": "Tennessee",
    "postal_code": "37067-1782",
    "website_url": "",
    "phone": "",
    "created_at": "2018-07-24 01:34:16.347572",
    "updated_at": "2018-08-24 16:16:54.163842",
    "country": "United States",
    "longitude": "-86.8271308",
    "latitude": "35.9361408"
  },
  {
    "id": "6535",
    "name": "Hexagon Brewing Co",
    "brewery_type": "micro",
    "street": "1002 Dutch Valley Dr Ste 101",
    "city": "Knoxville",
    "state": "Tennessee",
    "postal_code": "37918-6956",
    "website_url": "http://www.hexagonbrewing.com",
    "phone": "8658885138",
    "created_at": "2018-07-24 01:34:16.429201",
    "updated_at": "2018-08-24 16:16:58.723999",
    "country": "United States",
    "longitude": "-83.9471706482184",
    "latitude": "36.0086051235487"
  },
  {
    "id": "6537",
    "name": "Hix Farm Brewery",
    "brewery_type": "micro",
    "street": "54 S Cedar Ave",
    "city": "Cookeville",
    "state": "Tennessee",
    "postal_code": "38501-3216",
    "website_url": "http://www.hixfarmbrewery.com",
    "phone": "9313161623",
    "created_at": "2018-07-24 01:34:16.455331",
    "updated_at": "2018-08-24 16:17:01.791714",
    "country": "United States",
    "longitude": "-85.507921",
    "latitude": "36.161868"
  },
  {
    "id": "6538",
    "name": "Holston River Brewing Company",
    "brewery_type": "micro",
    "street": "2623 Volunteer Pkwy",
    "city": "Bristol",
    "state": "Tennessee",
    "postal_code": "37620-",
    "website_url": "http://www.hrbrewing.com",
    "phone": "4233611572",
    "created_at": "2018-07-24 01:34:16.468579",
    "updated_at": "2018-08-24 16:17:03.417973",
    "country": "United States",
    "longitude": "-82.1910353",
    "latitude": "36.574583"
  },
  {
    "id": "6542",
    "name": "Jackalope Brewing Company, LLC",
    "brewery_type": "micro",
    "street": "701 8th Ave S",
    "city": "Nashville",
    "state": "Tennessee",
    "postal_code": "37203-4104",
    "website_url": "http://www.jackalopebrew.com",
    "phone": "6158870807",
    "created_at": "2018-07-24 01:34:16.524713",
    "updated_at": "2018-08-24 16:17:08.440523",
    "country": "United States",
    "longitude": "-86.7794989",
    "latitude": "36.1503817"
  },
  {
    "id": "6543",
    "name": "Jig Head Brewing Company",
    "brewery_type": "micro",
    "street": "310 Newman Dr",
    "city": "Cookeville",
    "state": "Tennessee",
    "postal_code": "38501-4127",
    "website_url": "http://www.jigheadbrewing.com",
    "phone": "9315104406",
    "created_at": "2018-07-24 01:34:16.537435",
    "updated_at": "2018-08-24 16:17:09.901659",
    "country": "United States",
    "longitude": "-85.5237389037356",
    "latitude": "36.1455617853516"
  },
  {
    "id": "6544",
    "name": "Johnson City Brewing Co",
    "brewery_type": "micro",
    "street": "410 E State of Franklin Rd",
    "city": "Johnson City",
    "state": "Tennessee",
    "postal_code": "37601-4871",
    "website_url": "http://www.johnsoncitybrewing.com",
    "phone": "4239304186",
    "created_at": "2018-07-24 01:34:16.550076",
    "updated_at": "2018-08-24 16:17:11.407432",
    "country": "United States",
    "longitude": "-82.3463696243846",
    "latitude": "36.3171595095503"
  },
  {
    "id": "6545",
    "name": "JRH Brewing",
    "brewery_type": "micro",
    "street": "458 W Walnut St",
    "city": "Johnson City",
    "state": "Tennessee",
    "postal_code": "37604-6766",
    "website_url": "http://www.jrhbrewing.com",
    "phone": "4237223410",
    "created_at": "2018-07-24 01:34:16.562936",
    "updated_at": "2018-08-24 16:17:12.881824",
    "country": "United States",
    "longitude": "-82.3548364803802",
    "latitude": "36.3116959532105"
  },
  {
    "id": "6546",
    "name": "Jubilee Craft Beer Co",
    "brewery_type": "contract",
    "street": "3430 Hampton Ave",
    "city": "Nashville",
    "state": "Tennessee",
    "postal_code": "37215-1408",
    "website_url": "http://www.jubileebeer.com",
    "phone": "6156869397",
    "created_at": "2018-07-24 01:34:16.575852",
    "updated_at": "2018-08-24 16:17:14.323446",
    "country": "United States",
    "longitude": "-86.8250985315178",
    "latitude": "36.1174639536167"
  },
  {
    "id": "6547",
    "name": "Last Days of Autumn Brewing",
    "brewery_type": "brewpub",
    "street": "808 E Magnolia Ave",
    "city": "Knoxville",
    "state": "Tennessee",
    "postal_code": "37917-7637",
    "website_url": "http://www.lastdaysofautumn.com",
    "phone": "8652024298",
    "created_at": "2018-07-24 01:34:16.588506",
    "updated_at": "2018-08-24 16:17:15.792502",
    "country": "United States",
    "longitude": "-83.914805",
    "latitude": "35.97603"
  },
  {
    "id": "6548",
    "name": "Lilly Pad Hopyard Brewery",
    "brewery_type": "brewpub",
    "street": "920 Ridge Rd",
    "city": "Lancing",
    "state": "Tennessee",
    "postal_code": "37770-1830",
    "website_url": "http://lillypadhopyardbrewery.com",
    "phone": "8656170984",
    "created_at": "2018-07-24 01:34:16.602752",
    "updated_at": "2018-08-24 16:17:17.251816",
    "country": "United States",
    "longitude": "-84.690323",
    "latitude": "36.129889"
  },
  {
    "id": "6549",
    "name": "Little Harpeth Brewing Co",
    "brewery_type": "micro",
    "street": "30 Oldham St",
    "city": "Nashville",
    "state": "Tennessee",
    "postal_code": "37213-1107",
    "website_url": "http://www.littleharpethbrewing.com",
    "phone": "3073711476",
    "created_at": "2018-07-24 01:34:16.616903",
    "updated_at": "2018-08-24 16:17:18.692979",
    "country": "United States",
    "longitude": "-86.7769747142857",
    "latitude": "36.174546"
  },
  {
    "id": "6551",
    "name": "Mad Knight Brewing Company",
    "brewery_type": "micro",
    "street": "4015 Tennessee Ave",
    "city": "Chattanooga",
    "state": "Tennessee",
    "postal_code": "37409-1322",
    "website_url": "http://www.madknightbrewing.com",
    "phone": "4238256504",
    "created_at": "2018-07-24 01:34:16.643749",
    "updated_at": "2018-08-24 16:17:22.808068",
    "country": "United States",
    "longitude": "-85.3278569212857",
    "latitude": "35.008643261185"
  },
  {
    "id": "6552",
    "name": "Mantra Artisan Ales",
    "brewery_type": "micro",
    "street": "216 Noah Dr Ste 140",
    "city": "Franklin",
    "state": "Tennessee",
    "postal_code": "37064-4024",
    "website_url": "http://www.mantrabrewing.com",
    "phone": "6156288776",
    "created_at": "2018-07-24 01:34:16.65986",
    "updated_at": "2018-08-24 16:17:25.84603",
    "country": "United States",
    "longitude": "-86.866949",
    "latitude": "35.893554"
  },
  {
    "id": "6558",
    "name": "Memphis Made Brewing Company",
    "brewery_type": "micro",
    "street": "768 S Cooper St",
    "city": "Memphis",
    "state": "Tennessee",
    "postal_code": "38104-5406",
    "website_url": "http://www.memphismadebrewing.com",
    "phone": "9012075343",
    "created_at": "2018-07-24 01:34:16.751831",
    "updated_at": "2018-08-24 16:17:32.22748",
    "country": "United States",
    "longitude": "-89.990701",
    "latitude": "35.124723"
  },
  {
    "id": "6559",
    "name": "Mill Creek Brewing Co.",
    "brewery_type": "micro",
    "street": "2008B Johnson Industrial Blvd",
    "city": "Nolensville",
    "state": "Tennessee",
    "postal_code": "37135-9773",
    "website_url": "http://www.millcreekbrewingco.com",
    "phone": "6157763377",
    "created_at": "2018-07-24 01:34:16.765441",
    "updated_at": "2018-08-24 16:17:33.681849",
    "country": "United States",
    "longitude": "-86.6700957287462",
    "latitude": "35.9575301024276"
  },
  {
    "id": "6561",
    "name": "Monkey Town Brewing Company",
    "brewery_type": "brewpub",
    "street": "287 1st Ave",
    "city": "Dayton",
    "state": "Tennessee",
    "postal_code": "37321-1248",
    "website_url": "http://www.monkeytownbrewing.com",
    "phone": "4237751800",
    "created_at": "2018-07-24 01:34:16.792917",
    "updated_at": "2018-08-24 16:17:36.568357",
    "country": "United States",
    "longitude": "-85.0127523750029",
    "latitude": "35.4931380380085"
  },
  {
    "id": "6562",
    "name": "New Heights Brewing Co",
    "brewery_type": "micro",
    "street": "928 5th Ave S",
    "city": "Nashville",
    "state": "Tennessee",
    "postal_code": "37203-4612",
    "website_url": "http://www.newheightsbrewing.com",
    "phone": "6154906901",
    "created_at": "2018-07-24 01:34:16.805724",
    "updated_at": "2018-08-24 16:17:38.078579",
    "country": "United States",
    "longitude": "-86.7706476",
    "latitude": "36.1491212"
  },
  {
    "id": "6564",
    "name": "Ole Shed Brewing Company",
    "brewery_type": "micro",
    "street": "516 E Carroll St",
    "city": "Tullahoma",
    "state": "Tennessee",
    "postal_code": "37388-3983",
    "website_url": "http://www.oleshedbrewing.com",
    "phone": "9312124277",
    "created_at": "2018-07-24 01:34:16.832514",
    "updated_at": "2018-08-24 16:17:39.583862",
    "country": "United States",
    "longitude": "-86.1982374055717",
    "latitude": "35.3607568616136"
  },
  {
    "id": "6565",
    "name": "Panther Creek Brews",
    "brewery_type": "planning",
    "street": "",
    "city": "Christiana",
    "state": "Tennessee",
    "postal_code": "37037-5122",
    "website_url": "http://www.panthercreekbrews.com",
    "phone": "6155891401",
    "created_at": "2018-07-24 01:34:16.84577",
    "updated_at": "2018-08-11 21:39:43.483667",
    "country": "United States",
    "longitude": "",
    "latitude": ""
  },
  {
    "id": "6570",
    "name": "Rock Bottom Brewery - Nashville",
    "brewery_type": "brewpub",
    "street": "111 Broadway",
    "city": "Nashville",
    "state": "Tennessee",
    "postal_code": "37201-2117",
    "website_url": "http://www.bigrivergrille.com",
    "phone": "6152514677",
    "created_at": "2018-07-24 01:34:16.911027",
    "updated_at": "2018-08-11 21:39:43.68115",
    "country": "United States",
    "longitude": "",
    "latitude": ""
  },
  {
    "id": "6571",
    "name": "Rohrer Brewing Company, LLC",
    "brewery_type": "planning",
    "street": "",
    "city": "Cookeville",
    "state": "Tennessee",
    "postal_code": "38506-5601",
    "website_url": "http://rohrerbrewing.com",
    "phone": "6155859700",
    "created_at": "2018-07-24 01:34:16.923604",
    "updated_at": "2018-08-11 21:39:43.709854",
    "country": "United States",
    "longitude": "",
    "latitude": ""
  },
  {
    "id": "6573",
    "name": "Sleepy Owl Brewery",
    "brewery_type": "micro",
    "street": "151 E Main St Ste 200",
    "city": "Kingsport",
    "state": "Tennessee",
    "postal_code": "37660-4380",
    "website_url": "http://www.sleepyowlbrewery.com",
    "phone": "4232744458",
    "created_at": "2018-07-24 01:34:16.958115",
    "updated_at": "2018-08-11 21:39:43.790358",
    "country": "United States",
    "longitude": "",
    "latitude": ""
  },
  {
    "id": "6584",
    "name": "Tennessee Valley Brewing Company",
    "brewery_type": "micro",
    "street": "2088 Lowes Dr Ste H",
    "city": "Clarksville",
    "state": "Tennessee",
    "postal_code": "37040-1635",
    "website_url": "http://www.tnvalleybrewing.com",
    "phone": "9312411040",
    "created_at": "2018-07-24 01:34:17.120447",
    "updated_at": "2018-08-11 21:39:44.130378",
    "country": "United States",
    "longitude": "",
    "latitude": ""
  },
  {
    "id": "6587",
    "name": "The Star Spangled Brewing Co.",
    "brewery_type": "micro",
    "street": "1030 Progress Dr Ste E",
    "city": "Clarksville",
    "state": "Tennessee",
    "postal_code": "37040-5329",
    "website_url": "",
    "phone": "6153981237",
    "created_at": "2018-07-24 01:34:17.161946",
    "updated_at": "2018-08-11 21:39:44.249323",
    "country": "United States",
    "longitude": "",
    "latitude": ""
  },
  {
    "id": "6588",
    "name": "Trace Brewing",
    "brewery_type": "planning",
    "street": "",
    "city": "Nashville",
    "state": "Tennessee",
    "postal_code": "37221-3967",
    "website_url": "",
    "phone": "",
    "created_at": "2018-07-24 01:34:17.174703",
    "updated_at": "2018-08-11 21:39:44.279706",
    "country": "United States",
    "longitude": "",
    "latitude": ""
  },
  {
    "id": "6590",
    "name": "Underbite Brewing",
    "brewery_type": "planning",
    "street": "",
    "city": "Knoxville",
    "state": "Tennessee",
    "postal_code": "37909-1079",
    "website_url": "",
    "phone": "",
    "created_at": "2018-07-24 01:34:17.205053",
    "updated_at": "2018-08-11 21:39:44.343444",
    "country": "United States",
    "longitude": "",
    "latitude": ""
  },
  {
    "id": "6591",
    "name": "VonSeitz TheoreticAles",
    "brewery_type": "micro",
    "street": "175 Hurricane Ridge Rd",
    "city": "Smithville",
    "state": "Tennessee",
    "postal_code": "37166",
    "website_url": "http://www.theoreticales.com",
    "phone": "6153184008",
    "created_at": "2018-07-24 01:34:17.218046",
    "updated_at": "2018-08-11 21:39:44.378522",
    "country": "United States",
    "longitude": "",
    "latitude": ""
  },
  {
    "id": "6592",
    "name": "WanderLinger Brewing Co",
    "brewery_type": "planning",
    "street": "",
    "city": "Chattanooga",
    "state": "Tennessee",
    "postal_code": "37403-4331",
    "website_url": "http://www.wanderlinger.com",
    "phone": "6156535407",
    "created_at": "2018-07-24 01:34:17.231416",
    "updated_at": "2018-08-11 21:39:44.422879",
    "country": "United States",
    "longitude": "",
    "latitude": ""
  },
  {
    "id": "6595",
    "name": "Yee-Haw Brewing, LLC.",
    "brewery_type": "micro",
    "street": "126 Buffalo St Ste 30",
    "city": "Johnson City",
    "state": "Tennessee",
    "postal_code": "37604-5788",
    "website_url": "",
    "phone": "4233289192",
    "created_at": "2018-07-24 01:34:17.274022",
    "updated_at": "2018-08-11 21:39:44.510023",
    "country": "United States",
    "longitude": "",
    "latitude": ""
  },
  {
    "id": "6567",
    "name": "Pretentious Beer Co",
    "brewery_type": "micro",
    "street": "131 S Central St",
    "city": "Knoxville",
    "state": "Tennessee",
    "postal_code": "37902",
    "website_url": "http://www.pretentiousbeerco.com",
    "phone": "8658517693",
    "created_at": "2018-07-24 01:34:16.872443",
    "updated_at": "2018-08-24 16:17:42.767727",
    "country": "United States",
    "longitude": "-83.9181404359167",
    "latitude": "35.9693984377798"
  },
  {
    "id": "6568",
    "name": "Printshop Beer Co",
    "brewery_type": "micro",
    "street": "1532 Island Home Ave",
    "city": "Knoxville",
    "state": "Tennessee",
    "postal_code": "37920",
    "website_url": "",
    "phone": "8654749591",
    "created_at": "2018-07-24 01:34:16.885298",
    "updated_at": "2018-08-24 16:17:44.302094",
    "country": "United States",
    "longitude": "-83.8972435",
    "latitude": "35.9607605"
  },
  {
    "id": "6574",
    "name": "Smith & Lentz Brewing",
    "brewery_type": "micro",
    "street": "903 Main St",
    "city": "Nashville",
    "state": "Tennessee",
    "postal_code": "37206-3609",
    "website_url": "http://www.smithandlentz.com",
    "phone": "",
    "created_at": "2018-07-24 01:34:16.972728",
    "updated_at": "2018-08-24 16:17:50.309777",
    "country": "United States",
    "longitude": "-86.7565172222222",
    "latitude": "36.1763251111111"
  },
  {
    "id": "6575",
    "name": "Smoky Mountain Brewery (#1)",
    "brewery_type": "brewpub",
    "street": "6515 Kingston Pike",
    "city": "Knoxville",
    "state": "Tennessee",
    "postal_code": "37919-4826",
    "website_url": "http://www.smoky-mtn-brewery.com",
    "phone": "8656733377",
    "created_at": "2018-07-24 01:34:16.985724",
    "updated_at": "2018-08-24 16:17:51.899719",
    "country": "United States",
    "longitude": "-84.0096631185854",
    "latitude": "35.9318903307208"
  },
  {
    "id": "6576",
    "name": "Smoky Mountain Brewery (#2) - Gatlinburg",
    "brewery_type": "brewpub",
    "street": "1004 Parkway Ste 501",
    "city": "Gatlinburg",
    "state": "Tennessee",
    "postal_code": "37738-3172",
    "website_url": "http://www.smoky-mtn-brewery.com",
    "phone": "8654364200",
    "created_at": "2018-07-24 01:34:16.998449",
    "updated_at": "2018-08-24 16:17:53.46231",
    "country": "United States",
    "longitude": "-83.5205350353755",
    "latitude": "35.7090180126524"
  },
  {
    "id": "6580",
    "name": "Strawberry Alley Ale Works",
    "brewery_type": "brewpub",
    "street": "103 Strawberry Aly",
    "city": "Clarksville",
    "state": "Tennessee",
    "postal_code": "37040-4267",
    "website_url": "http://www.saaleworks.com",
    "phone": "9319194777",
    "created_at": "2018-07-24 01:34:17.064289",
    "updated_at": "2018-08-24 16:17:59.34637",
    "country": "United States",
    "longitude": "-87.3602663528486",
    "latitude": "36.5280248"
  },
  {
    "id": "6581",
    "name": "Tailgate Brewery",
    "brewery_type": "brewpub",
    "street": "7300 Charlotte Pike",
    "city": "Nashville",
    "state": "Tennessee",
    "postal_code": "37209-5012",
    "website_url": "http://www.tailgatebeer.com",
    "phone": "6154571424",
    "created_at": "2018-07-24 01:34:17.076991",
    "updated_at": "2018-08-24 16:18:00.864703",
    "country": "United States",
    "longitude": "-86.918654",
    "latitude": "36.119936"
  },
  {
    "id": "6582",
    "name": "TailGate Brewery Music Row",
    "brewery_type": "brewpub",
    "street": "1538 Demonbreun St",
    "city": "Nashville",
    "state": "Tennessee",
    "postal_code": "37203-3112",
    "website_url": "http://www.tailgatebeer.com",
    "phone": "",
    "created_at": "2018-07-24 01:34:17.090152",
    "updated_at": "2018-08-24 16:18:02.317553",
    "country": "United States",
    "longitude": "-86.7896397171207",
    "latitude": "36.1531025649507"
  },
  {
    "id": "6583",
    "name": "Tennessee Brew Works",
    "brewery_type": "micro",
    "street": "809 Ewing Ave",
    "city": "Nashville",
    "state": "Tennessee",
    "postal_code": "37203-4631",
    "website_url": "http://www.tnbrew.com",
    "phone": "6154360050",
    "created_at": "2018-07-24 01:34:17.10306",
    "updated_at": "2018-08-24 16:18:03.803409",
    "country": "United States",
    "longitude": "-86.7762132",
    "latitude": "36.1503752"
  },
  {
    "id": "6585",
    "name": "Terminal Brewhouse, The",
    "brewery_type": "brewpub",
    "street": "1464 Market St",
    "city": "Chattanooga",
    "state": "Tennessee",
    "postal_code": "37402-4448",
    "website_url": "http://www.terminalbrewhouse.com",
    "phone": "4237528090",
    "created_at": "2018-07-24 01:34:17.134138",
    "updated_at": "2018-08-24 16:18:06.79973",
    "country": "United States",
    "longitude": "-85.3072307666667",
    "latitude": "35.0364449333333"
  },
  {
    "id": "6589",
    "name": "Turtle Anarchy Brewing Co",
    "brewery_type": "micro",
    "street": "5901 California Ave Ste 105",
    "city": "Nashville",
    "state": "Tennessee",
    "postal_code": "37209-1370",
    "website_url": "http://www.turtleanarchy.com",
    "phone": "",
    "created_at": "2018-07-24 01:34:17.191257",
    "updated_at": "2018-08-24 16:18:11.421934",
    "country": "United States",
    "longitude": "-86.8586173726621",
    "latitude": "36.1645838804147"
  },
  {
    "id": "6593",
    "name": "Wiseacre Brewing Co",
    "brewery_type": "regional",
    "street": "2783 Broad Ave",
    "city": "Memphis",
    "state": "Tennessee",
    "postal_code": "38112-2834",
    "website_url": "http://www.wiseacrebrew.com",
    "phone": "9018887000",
    "created_at": "2018-07-24 01:34:17.24542",
    "updated_at": "2018-08-24 16:18:14.719011",
    "country": "United States",
    "longitude": "-89.9684970115659",
    "latitude": "35.1475572534875"
  },
  {
    "id": "6594",
    "name": "Yazoo Brewing Co",
    "brewery_type": "regional",
    "street": "910 Division St",
    "city": "Nashville",
    "state": "Tennessee",
    "postal_code": "37203-4111",
    "website_url": "http://www.yazoobrew.com",
    "phone": "6158914649",
    "created_at": "2018-07-24 01:34:17.258634",
    "updated_at": "2018-08-24 16:18:16.208153",
    "country": "United States",
    "longitude": "-86.7835559482768",
    "latitude": "36.1509019494543"
  },
  {
    "id": "6514",
    "name": "Crosstown Brewing Company",
    "brewery_type": "micro",
    "street": "1264 Concourse Ave",
    "city": "Memphis",
    "state": "Tennessee",
    "postal_code": "38104-7022",
    "website_url": "http://www.crosstownbeer.com",
    "phone": "9015297611",
    "created_at": "2018-07-24 01:34:16.046194",
    "updated_at": "2018-08-24 16:16:38.114929",
    "country": "United States",
    "longitude": "-90.0129924",
    "latitude": "35.1515547"
  },
  {
    "id": "6528",
    "name": "Ghost River Brewing",
    "brewery_type": "micro",
    "street": "827 S Main St",
    "city": "Memphis",
    "state": "Tennessee",
    "postal_code": "38106-2063",
    "website_url": "http://www.ghostriverbrewing.com",
    "phone": "9016614976",
    "created_at": "2018-07-24 01:34:16.311791",
    "updated_at": "2018-08-24 16:16:52.683742",
    "country": "United States",
    "longitude": "-90.059285",
    "latitude": "35.125851"
  },
  {
    "id": "6577",
    "name": "Smoky Mountain Brewery (#3) - Pigeon Forge",
    "brewery_type": "brewpub",
    "street": "2530 Parkway Ste 15",
    "city": "Pigeon Forge",
    "state": "Tennessee",
    "postal_code": "37863-7006",
    "website_url": "http://www.smoky-mtn-brewery.com",
    "phone": "",
    "created_at": "2018-07-24 01:34:17.010914",
    "updated_at": "2018-08-11 21:39:43.915159",
    "country": "United States",
    "longitude": "",
    "latitude": ""
  },
  {
    "id": "6556",
    "name": "Meddlesome Brewing Company",
    "brewery_type": "micro",
    "street": "7750 Trinity Rd Ste 114",
    "city": "Cordova",
    "state": "Tennessee",
    "postal_code": "38018-2736",
    "website_url": "http://www.meddlesomebrewing.com",
    "phone": "6185218036",
    "created_at": "2018-07-24 01:34:16.720105",
    "updated_at": "2018-08-24 16:17:30.543521",
    "country": "United States",
    "longitude": "-89.802564",
    "latitude": "35.14057"
  },
  {
    "id": "6578",
    "name": "Smoky Mountain Brewery (#4) - Turkey Creek",
    "brewery_type": "brewpub",
    "street": "11308 Parkside Dr",
    "city": "Knoxville",
    "state": "Tennessee",
    "postal_code": "37934-1971",
    "website_url": "http://www.smoky-mtn-brewery.com",
    "phone": "8652885500",
    "created_at": "2018-07-24 01:34:17.029253",
    "updated_at": "2018-08-24 16:17:56.387368",
    "country": "United States",
    "longitude": "-84.1584642365995",
    "latitude": "35.9000638184674"
  }
]