[
  {
    "id": "7010",
    "name": "Bobcat Brewery & Cafe",
    "brewery_type": "brewpub",
    "street": "5 Main St",
    "city": "Bristol",
    "state": "Vermont",
    "postal_code": "05443-1317",
    "website_url": "http://www.bobcatcafe.com",
    "phone": "8024533311",
    "created_at": "2018-07-24 01:34:23.096614",
    "updated_at": "2018-08-24 16:25:31.399741",
    "country": "United States",
    "longitude": "-73.0781120400805",
    "latitude": "44.13284975"
  },
  {
    "id": "7018",
    "name": "Farnham Ale & Lager",
    "brewery_type": "micro",
    "street": "82 Ethan Allen Dr",
    "city": "South Burlington",
    "state": "Vermont",
    "postal_code": "05403-5971",
    "website_url": "http://www.farnham-alelager.com",
    "phone": "8027351288",
    "created_at": "2018-07-24 01:34:23.212495",
    "updated_at": "2018-08-24 16:25:38.815347",
    "country": "United States",
    "longitude": "-73.1539127449664",
    "latitude": "44.482903885906"
  },
  {
    "id": "7046",
    "name": "Otter Creek Brewing Co",
    "brewery_type": "regional",
    "street": "793 Exchange St",
    "city": "Middlebury",
    "state": "Vermont",
    "postal_code": "05753-1193",
    "website_url": "http://www.ottercreekbrewing.com",
    "phone": "8023880727",
    "created_at": "2018-07-24 01:34:23.589201",
    "updated_at": "2018-08-24 16:26:19.304153",
    "country": "United States",
    "longitude": "-73.1707577239178",
    "latitude": "44.0331564353663"
  },
  {
    "id": "7058",
    "name": "The Norwich Inn - Jasper Murdock's Alehouse",
    "brewery_type": "brewpub",
    "street": "325 Main St",
    "city": "Norwich",
    "state": "Vermont",
    "postal_code": "05055-9453",
    "website_url": "http://www.norwichinn.com",
    "phone": "8026491143",
    "created_at": "2018-07-24 01:34:23.746822",
    "updated_at": "2018-08-24 16:26:35.696847",
    "country": "United States",
    "longitude": "-72.3091387",
    "latitude": "43.7150119"
  },
  {
    "id": "7047",
    "name": "Outer Limits Brewing, LLC",
    "brewery_type": "planning",
    "street": "",
    "city": "Proctorsville",
    "state": "Vermont",
    "postal_code": "05153-9518",
    "website_url": "",
    "phone": "2072057076",
    "created_at": "2018-07-24 01:34:23.601559",
    "updated_at": "2018-08-11 21:40:00.312124",
    "country": "United States",
    "longitude": "",
    "latitude": ""
  },
  {
    "id": "7004",
    "name": "14th Star Brewing",
    "brewery_type": "micro",
    "street": "133 N Main St Ste 7",
    "city": "Saint Albans",
    "state": "Vermont",
    "postal_code": "05478-1735",
    "website_url": "http://www.14thstarbrewing.com",
    "phone": "8025285988",
    "created_at": "2018-07-24 01:34:22.993627",
    "updated_at": "2018-08-11 21:39:58.560641",
    "country": "United States",
    "longitude": "",
    "latitude": ""
  },
  {
    "id": "7005",
    "name": "1st Republic Brewing Co",
    "brewery_type": "micro",
    "street": "39 River Rd Ste 6",
    "city": "Essex Junction",
    "state": "Vermont",
    "postal_code": "05452-3879",
    "website_url": "http://www.1strepublic-homebrew.com",
    "phone": "8028575318",
    "created_at": "2018-07-24 01:34:23.008797",
    "updated_at": "2018-08-11 21:39:58.60595",
    "country": "United States",
    "longitude": "",
    "latitude": ""
  },
  {
    "id": "7006",
    "name": "Alchemist Cannery",
    "brewery_type": "regional",
    "street": "35 Crossroad",
    "city": "Waterbury",
    "state": "Vermont",
    "postal_code": "05676-9003",
    "website_url": "http://www.alchemistbeer.com",
    "phone": "8022447744",
    "created_at": "2018-07-24 01:34:23.024732",
    "updated_at": "2018-08-11 21:39:58.640745",
    "country": "United States",
    "longitude": "",
    "latitude": ""
  },
  {
    "id": "7007",
    "name": "Backacre Beermakers",
    "brewery_type": "micro",
    "street": "",
    "city": "Weston",
    "state": "Vermont",
    "postal_code": "05161",
    "website_url": "http://www.backacrebeermakers.com",
    "phone": "",
    "created_at": "2018-07-24 01:34:23.042069",
    "updated_at": "2018-08-11 21:39:58.681912",
    "country": "United States",
    "longitude": "",
    "latitude": ""
  },
  {
    "id": "7008",
    "name": "Beer Naked Brewery",
    "brewery_type": "brewpub",
    "street": "7678 VT-RTE 9",
    "city": "Marlboro",
    "state": "Vermont",
    "postal_code": "05344",
    "website_url": "http://www.beernakedbrewery.com",
    "phone": "8024647702",
    "created_at": "2018-07-24 01:34:23.058405",
    "updated_at": "2018-08-11 21:39:58.754262",
    "country": "United States",
    "longitude": "",
    "latitude": ""
  },
  {
    "id": "7009",
    "name": "Bent Hill Brewery",
    "brewery_type": "micro",
    "street": "1972 Bent Hill Rd",
    "city": "Randolph",
    "state": "Vermont",
    "postal_code": "05060-8833",
    "website_url": "http://www.benthilbrewery.com",
    "phone": "8022491125",
    "created_at": "2018-07-24 01:34:23.080321",
    "updated_at": "2018-08-11 21:39:58.792921",
    "country": "United States",
    "longitude": "",
    "latitude": ""
  },
  {
    "id": "7011",
    "name": "Brewery In Planning - Waterbury",
    "brewery_type": "planning",
    "street": "",
    "city": "Waterbury",
    "state": "Vermont",
    "postal_code": "05676-9537",
    "website_url": "",
    "phone": "",
    "created_at": "2018-07-24 01:34:23.113383",
    "updated_at": "2018-08-11 21:39:58.855888",
    "country": "United States",
    "longitude": "",
    "latitude": ""
  },
  {
    "id": "7012",
    "name": "Brewery in Planning - Wayland",
    "brewery_type": "planning",
    "street": "",
    "city": "Waterbury Center",
    "state": "Vermont",
    "postal_code": "05677",
    "website_url": "",
    "phone": "8024987767",
    "created_at": "2018-07-24 01:34:23.126992",
    "updated_at": "2018-08-11 21:39:58.890319",
    "country": "United States",
    "longitude": "",
    "latitude": ""
  },
  {
    "id": "7014",
    "name": "Brocklebank Craft Brewing",
    "brewery_type": "micro",
    "street": "357 Dickerman Hill Rd",
    "city": "Chelsea",
    "state": "Vermont",
    "postal_code": "05038-9098",
    "website_url": "http://www.brocklebankvt.com",
    "phone": "8026854838",
    "created_at": "2018-07-24 01:34:23.154483",
    "updated_at": "2018-08-11 21:39:58.96835",
    "country": "United States",
    "longitude": "",
    "latitude": ""
  },
  {
    "id": "7015",
    "name": "Burlington Beer Company",
    "brewery_type": "micro",
    "street": "25 Omega Dr Ste 150",
    "city": "Williston",
    "state": "Vermont",
    "postal_code": "05495-7334",
    "website_url": "http://www.burlingtonbeercompany.com",
    "phone": "8028632337",
    "created_at": "2018-07-24 01:34:23.168965",
    "updated_at": "2018-08-11 21:39:59.00412",
    "country": "United States",
    "longitude": "",
    "latitude": ""
  },
  {
    "id": "7016",
    "name": "Drop In Brewing",
    "brewery_type": "micro",
    "street": "610 Route 7 S",
    "city": "Middlebury",
    "state": "Vermont",
    "postal_code": "05753-8987",
    "website_url": "http://www.dropinbeer.com",
    "phone": "8029897414",
    "created_at": "2018-07-24 01:34:23.18548",
    "updated_at": "2018-08-11 21:39:59.042353",
    "country": "United States",
    "longitude": "",
    "latitude": ""
  },
  {
    "id": "7017",
    "name": "Farm Road Brewery",
    "brewery_type": "planning",
    "street": "",
    "city": "Arlington",
    "state": "Vermont",
    "postal_code": "05250-8766",
    "website_url": "",
    "phone": "",
    "created_at": "2018-07-24 01:34:23.198799",
    "updated_at": "2018-08-11 21:39:59.085912",
    "country": "United States",
    "longitude": "",
    "latitude": ""
  },
  {
    "id": "7021",
    "name": "Foley Brothers Brewing Co.",
    "brewery_type": "micro",
    "street": "79 Stone Mill Dam Rd",
    "city": "Brandon",
    "state": "Vermont",
    "postal_code": "05733-8945",
    "website_url": "",
    "phone": "8024658413",
    "created_at": "2018-07-24 01:34:23.252331",
    "updated_at": "2018-08-11 21:39:59.25842",
    "country": "United States",
    "longitude": "",
    "latitude": ""
  },
  {
    "id": "7023",
    "name": "Foy Enterprises LLC DBA Dog River Brewery",
    "brewery_type": "micro",
    "street": "1400 US Route 302 Ste 4",
    "city": "Barre",
    "state": "Vermont",
    "postal_code": "05641-2320",
    "website_url": "",
    "phone": "8025054053",
    "created_at": "2018-07-24 01:34:23.278718",
    "updated_at": "2018-08-11 21:39:59.330282",
    "country": "United States",
    "longitude": "",
    "latitude": ""
  },
  {
    "id": "7026",
    "name": "GoodWater Brewery",
    "brewery_type": "micro",
    "street": "740 Marshall Ave",
    "city": "Williston",
    "state": "Vermont",
    "postal_code": "05495-8978",
    "website_url": "http://www.goodwaterbreweryvt.com",
    "phone": "8029997396",
    "created_at": "2018-07-24 01:34:23.318353",
    "updated_at": "2018-08-11 21:39:59.455708",
    "country": "United States",
    "longitude": "",
    "latitude": ""
  },
  {
    "id": "7027",
    "name": "Halyard Brewing Company",
    "brewery_type": "micro",
    "street": "80 Ethan Allen Dr Ste 2",
    "city": "South Burlington",
    "state": "Vermont",
    "postal_code": "05403-5971",
    "website_url": "http://www.halyardbrewing.us",
    "phone": "9048742734",
    "created_at": "2018-07-24 01:34:23.330884",
    "updated_at": "2018-08-11 21:39:59.499896",
    "country": "United States",
    "longitude": "",
    "latitude": ""
  },
  {
    "id": "7029",
    "name": "Hermit Thrush Brewery, LLC",
    "brewery_type": "micro",
    "street": "29 High St Ste 101C",
    "city": "Brattleboro",
    "state": "Vermont",
    "postal_code": "05301-3041",
    "website_url": "http://www.hermitthrushbrewery.com",
    "phone": "8022572337",
    "created_at": "2018-07-24 01:34:23.358831",
    "updated_at": "2018-08-11 21:39:59.588946",
    "country": "United States",
    "longitude": "",
    "latitude": ""
  },
  {
    "id": "7030",
    "name": "Hill Farmstead Brewery",
    "brewery_type": "micro",
    "street": "403 Hill Rd",
    "city": "Greensboro Bend",
    "state": "Vermont",
    "postal_code": "05842-8813",
    "website_url": "http://www.hillfarmstead.com",
    "phone": "8025337450",
    "created_at": "2018-07-24 01:34:23.372109",
    "updated_at": "2018-08-11 21:39:59.644031",
    "country": "United States",
    "longitude": "",
    "latitude": ""
  },
  {
    "id": "7034",
    "name": "J'ville Brewery",
    "brewery_type": "micro",
    "street": "201 Vt Route 112",
    "city": "Jacksonville",
    "state": "Vermont",
    "postal_code": "05342-9634",
    "website_url": "http://www.jvillebrewery.com",
    "phone": "8023682233",
    "created_at": "2018-07-24 01:34:23.425687",
    "updated_at": "2018-08-11 21:39:59.857209",
    "country": "United States",
    "longitude": "",
    "latitude": ""
  },
  {
    "id": "7036",
    "name": "Kingdom Brewing",
    "brewery_type": "micro",
    "street": "1876 Vt Route 105",
    "city": "Newport",
    "state": "Vermont",
    "postal_code": "05855-9915",
    "website_url": "http://www.kingdombrewingvt.com",
    "phone": "8023347096",
    "created_at": "2018-07-24 01:34:23.453804",
    "updated_at": "2018-08-11 21:39:59.930525",
    "country": "United States",
    "longitude": "",
    "latitude": ""
  },
  {
    "id": "7037",
    "name": "Lawson's Finest Liquids",
    "brewery_type": "micro",
    "street": "",
    "city": "Warren",
    "state": "Vermont",
    "postal_code": "05674",
    "website_url": "http://www.lawsonsfinest.com",
    "phone": "8024964677",
    "created_at": "2018-07-24 01:34:23.470717",
    "updated_at": "2018-08-11 21:39:59.961998",
    "country": "United States",
    "longitude": "",
    "latitude": ""
  },
  {
    "id": "7038",
    "name": "Long Trail Brewing Co",
    "brewery_type": "regional",
    "street": "5520 US Route 4 Jct. Route 4 & 100A",
    "city": "Bridgewater Corners",
    "state": "Vermont",
    "postal_code": "05035",
    "website_url": "http://www.longtrail.com",
    "phone": "8026725011",
    "created_at": "2018-07-24 01:34:23.485626",
    "updated_at": "2018-08-11 21:39:59.994203",
    "country": "United States",
    "longitude": "",
    "latitude": ""
  },
  {
    "id": "7039",
    "name": "Lost Nation Brewing",
    "brewery_type": "brewpub",
    "street": "87 Old Creamery Rd",
    "city": "Morrisville",
    "state": "Vermont",
    "postal_code": "05661-6152",
    "website_url": "http://www.lostnationbrewing.com",
    "phone": "",
    "created_at": "2018-07-24 01:34:23.498812",
    "updated_at": "2018-08-11 21:40:00.057992",
    "country": "United States",
    "longitude": "",
    "latitude": ""
  },
  {
    "id": "7044",
    "name": "Next Trick Brewing LLC",
    "brewery_type": "brewpub",
    "street": "2370 US Route 5",
    "city": "West Burke",
    "state": "Vermont",
    "postal_code": "05871-",
    "website_url": "http://www.nexttrickbrewing.com",
    "phone": "8023281364",
    "created_at": "2018-07-24 01:34:23.565046",
    "updated_at": "2018-08-11 21:40:00.217149",
    "country": "United States",
    "longitude": "",
    "latitude": ""
  },
  {
    "id": "7052",
    "name": "Rock Art Brewery",
    "brewery_type": "micro",
    "street": "632 Laporte Rd",
    "city": "Morrisville",
    "state": "Vermont",
    "postal_code": "05661-8322",
    "website_url": "http://www.rockartbrewery.com",
    "phone": "8028889400",
    "created_at": "2018-07-24 01:34:23.665323",
    "updated_at": "2018-08-11 21:40:00.547854",
    "country": "United States",
    "longitude": "",
    "latitude": ""
  },
  {
    "id": "7054",
    "name": "Simple Roots Brewing Co",
    "brewery_type": "micro",
    "street": "1127 North Ave Ste 8",
    "city": "Burlington",
    "state": "Vermont",
    "postal_code": "05408-2756",
    "website_url": "",
    "phone": "",
    "created_at": "2018-07-24 01:34:23.69056",
    "updated_at": "2018-08-11 21:40:00.638596",
    "country": "United States",
    "longitude": "",
    "latitude": ""
  },
  {
    "id": "7055",
    "name": "Stone Corral Brewery",
    "brewery_type": "micro",
    "street": "83 Huntington Rd Unit 1",
    "city": "Richmond",
    "state": "Vermont",
    "postal_code": "05477-9839",
    "website_url": "http://stonecorral.com",
    "phone": "8024345787",
    "created_at": "2018-07-24 01:34:23.70513",
    "updated_at": "2018-08-11 21:40:00.685608",
    "country": "United States",
    "longitude": "",
    "latitude": ""
  },
  {
    "id": "7019",
    "name": "Fiddlehead Brewing",
    "brewery_type": "regional",
    "street": "6305 Shelburne Rd",
    "city": "Shelburne",
    "state": "Vermont",
    "postal_code": "05482-4437",
    "website_url": "http://www.fiddleheadbrewing.com",
    "phone": "8023992994",
    "created_at": "2018-07-24 01:34:23.226314",
    "updated_at": "2018-08-24 16:25:40.265203",
    "country": "United States",
    "longitude": "-73.2326193",
    "latitude": "44.3660621"
  },
  {
    "id": "7020",
    "name": "Foam Brewers",
    "brewery_type": "micro",
    "street": "112 Lake St",
    "city": "Burlington",
    "state": "Vermont",
    "postal_code": "05401-5284",
    "website_url": "http://www.foambrewers.com",
    "phone": "8023992511",
    "created_at": "2018-07-24 01:34:23.238918",
    "updated_at": "2018-08-24 16:25:41.783724",
    "country": "United States",
    "longitude": "-73.2200287",
    "latitude": "44.4793121"
  },
  {
    "id": "7022",
    "name": "Four Quarters Brewing Co",
    "brewery_type": "micro",
    "street": "150 W Canal St",
    "city": "Winooski",
    "state": "Vermont",
    "postal_code": "05404-2171",
    "website_url": "http://www.4qbc.com",
    "phone": "8023243327",
    "created_at": "2018-07-24 01:34:23.265385",
    "updated_at": "2018-08-24 16:25:44.828803",
    "country": "United States",
    "longitude": "-73.1924334",
    "latitude": "44.4906838"
  },
  {
    "id": "7024",
    "name": "Frost Beer Works",
    "brewery_type": "micro",
    "street": "171 Commerce St",
    "city": "Hinesburg",
    "state": "Vermont",
    "postal_code": "05461-4482",
    "website_url": "http://www.frostbeerworks.com",
    "phone": "9499454064",
    "created_at": "2018-07-24 01:34:23.291195",
    "updated_at": "2018-08-24 16:25:47.796668",
    "country": "United States",
    "longitude": "-73.1089808",
    "latitude": "44.3353247"
  },
  {
    "id": "7025",
    "name": "Good Measure Brewing Co",
    "brewery_type": "micro",
    "street": "17 East St",
    "city": "Northfield",
    "state": "Vermont",
    "postal_code": "05663-6719",
    "website_url": "http://www.goodmeasurebrewing.com",
    "phone": "",
    "created_at": "2018-07-24 01:34:23.3049",
    "updated_at": "2018-08-24 16:25:49.248973",
    "country": "United States",
    "longitude": "-72.6556223",
    "latitude": "44.1487966"
  },
  {
    "id": "7028",
    "name": "Harpoon Brewery - Vermont",
    "brewery_type": "regional",
    "street": "336 Ruth Carney Dr",
    "city": "Windsor",
    "state": "Vermont",
    "postal_code": "05089-9419",
    "website_url": "http://www.harpoonbrewery.com",
    "phone": "8026745491",
    "created_at": "2018-07-24 01:34:23.345499",
    "updated_at": "2018-08-24 16:25:53.706046",
    "country": "United States",
    "longitude": "-72.4038061589056",
    "latitude": "43.5147804539307"
  },
  {
    "id": "7031",
    "name": "Hogback Mountain Brewery",
    "brewery_type": "micro",
    "street": "51 North St",
    "city": "Bristol",
    "state": "Vermont",
    "postal_code": "05443-1026",
    "website_url": "http://hogbackbrew.com",
    "phone": "8023498195",
    "created_at": "2018-07-24 01:34:23.385232",
    "updated_at": "2018-08-24 16:25:58.152187",
    "country": "United States",
    "longitude": "-73.079007",
    "latitude": "44.136511"
  },
  {
    "id": "7032",
    "name": "Hop'n Moose Brewing Company",
    "brewery_type": "brewpub",
    "street": "41 Center St",
    "city": "Rutland",
    "state": "Vermont",
    "postal_code": "05701-4016",
    "website_url": "http://www.hopnmoose.com",
    "phone": "8027757063",
    "created_at": "2018-07-24 01:34:23.399491",
    "updated_at": "2018-08-24 16:25:59.688167",
    "country": "United States",
    "longitude": "-72.97743",
    "latitude": "43.606783"
  },
  {
    "id": "7035",
    "name": "Kickback Brewery",
    "brewery_type": "micro",
    "street": "934 Osgood Hill Rd",
    "city": "Westford",
    "state": "Vermont",
    "postal_code": "05494-9740",
    "website_url": "http://www.kickbackbrewery.com",
    "phone": "8029994997",
    "created_at": "2018-07-24 01:34:23.438557",
    "updated_at": "2018-08-24 16:26:04.16377",
    "country": "United States",
    "longitude": "-72.9940246666667",
    "latitude": "44.582023"
  },
  {
    "id": "7040",
    "name": "Madison Brewing Co, Pub and Restaurant",
    "brewery_type": "brewpub",
    "street": "428 Main St",
    "city": "Bennington",
    "state": "Vermont",
    "postal_code": "05201-2109",
    "website_url": "http://www.madisonbrewingco.com",
    "phone": "8024427397",
    "created_at": "2018-07-24 01:34:23.511769",
    "updated_at": "2018-08-24 16:26:10.271439",
    "country": "United States",
    "longitude": "-73.1963588",
    "latitude": "42.8783819"
  },
  {
    "id": "7041",
    "name": "Magic Hat Brewing Co/ North American Breweries",
    "brewery_type": "regional",
    "street": "5 Bartlett Bay Rd",
    "city": "South Burlington",
    "state": "Vermont",
    "postal_code": "05403-7727",
    "website_url": "",
    "phone": "8026582739",
    "created_at": "2018-07-24 01:34:23.524748",
    "updated_at": "2018-08-24 16:26:11.832576",
    "country": "United States",
    "longitude": "-73.2161677321332",
    "latitude": "44.4280869177478"
  },
  {
    "id": "7042",
    "name": "McNeills Brewery",
    "brewery_type": "brewpub",
    "street": "90 Elliot St",
    "city": "Brattleboro",
    "state": "Vermont",
    "postal_code": "05301-3269",
    "website_url": "",
    "phone": "8022542553",
    "created_at": "2018-07-24 01:34:23.538639",
    "updated_at": "2018-08-24 16:26:13.332244",
    "country": "United States",
    "longitude": "-72.5593377877259",
    "latitude": "42.8518860973285"
  },
  {
    "id": "7045",
    "name": "Northshire Brewery, Inc",
    "brewery_type": "micro",
    "street": "108 County St",
    "city": "Bennington",
    "state": "Vermont",
    "postal_code": "05201-1807",
    "website_url": "http://www.northshirebrewery.com",
    "phone": "8026810201",
    "created_at": "2018-07-24 01:34:23.577093",
    "updated_at": "2018-08-24 16:26:17.856275",
    "country": "United States",
    "longitude": "-73.2005387655444",
    "latitude": "42.8845716422375"
  },
  {
    "id": "7049",
    "name": "Queen City Brewery, LLC",
    "brewery_type": "micro",
    "street": "703 Pine St",
    "city": "Burlington",
    "state": "Vermont",
    "postal_code": "05401-4921",
    "website_url": "http://www.queencitybrewery.com",
    "phone": "8025400280",
    "created_at": "2018-07-24 01:34:23.626553",
    "updated_at": "2018-08-24 16:26:22.375117",
    "country": "United States",
    "longitude": "-73.2148327517794",
    "latitude": "44.4594977"
  },
  {
    "id": "7050",
    "name": "Red Barn Brewing",
    "brewery_type": "micro",
    "street": "2170 Oneida Rd",
    "city": "Danville",
    "state": "Vermont",
    "postal_code": "05828-",
    "website_url": "http://www.redbarnbrewingvt.com",
    "phone": "8026849749",
    "created_at": "2018-07-24 01:34:23.63971",
    "updated_at": "2018-08-24 16:26:23.825803",
    "country": "United States",
    "longitude": "-72.1774857648902",
    "latitude": "44.3946042903555"
  },
  {
    "id": "7051",
    "name": "River Roost Brewery",
    "brewery_type": "micro",
    "street": "230 S Main St",
    "city": "White River Junction",
    "state": "Vermont",
    "postal_code": "05001-7204",
    "website_url": "http://www.riverroostbrewery.com",
    "phone": "",
    "created_at": "2018-07-24 01:34:23.65206",
    "updated_at": "2018-08-24 16:26:25.298021",
    "country": "United States",
    "longitude": "-72.3182154652398",
    "latitude": "43.64560685"
  },
  {
    "id": "7053",
    "name": "Saint J Brewery",
    "brewery_type": "brewpub",
    "street": "2002 Memorial Dr",
    "city": "Saint Johnsbury",
    "state": "Vermont",
    "postal_code": "05819-8991",
    "website_url": "http://www.saintjbrewery.com",
    "phone": "8024241700",
    "created_at": "2018-07-24 01:34:23.677773",
    "updated_at": "2018-08-24 16:26:28.273915",
    "country": "United States",
    "longitude": "-72.0150689797139",
    "latitude": "44.4591821904348"
  },
  {
    "id": "7056",
    "name": "Switchback Brewing Co",
    "brewery_type": "regional",
    "street": "160 Flynn Ave",
    "city": "Burlington",
    "state": "Vermont",
    "postal_code": "05401-5400",
    "website_url": "http://www.switchbackvt.com",
    "phone": "8026514114",
    "created_at": "2018-07-24 01:34:23.719026",
    "updated_at": "2018-08-24 16:26:32.664544",
    "country": "United States",
    "longitude": "-73.2206807506227",
    "latitude": "44.45680085"
  },
  {
    "id": "7057",
    "name": "Ten Bends Beer",
    "brewery_type": "micro",
    "street": "590 E Main St",
    "city": "Hyde Park",
    "state": "Vermont",
    "postal_code": "05655-9267",
    "website_url": "http://wwwtenbendsbeer.com",
    "phone": "8025217139",
    "created_at": "2018-07-24 01:34:23.73326",
    "updated_at": "2018-08-24 16:26:34.184499",
    "country": "United States",
    "longitude": "-72.6051502167353",
    "latitude": "44.5889469434272"
  },
  {
    "id": "7059",
    "name": "Trout River Brewing Co",
    "brewery_type": "micro",
    "street": "100 River Street RR 5",
    "city": "Springfield",
    "state": "Vermont",
    "postal_code": "05156",
    "website_url": "http://www.troutriverbrewing.com",
    "phone": "",
    "created_at": "2018-07-24 01:34:23.7604",
    "updated_at": "2018-08-11 21:40:00.838706",
    "country": "United States",
    "longitude": "",
    "latitude": ""
  },
  {
    "id": "7065",
    "name": "Zero Gravity Craft Brewery",
    "brewery_type": "micro",
    "street": "716 Pinte Street",
    "city": "Burlington",
    "state": "Vermont",
    "postal_code": "05401",
    "website_url": "",
    "phone": "8024970054",
    "created_at": "2018-07-24 01:34:23.838067",
    "updated_at": "2018-08-11 21:40:01.035496",
    "country": "United States",
    "longitude": "",
    "latitude": ""
  },
  {
    "id": "7061",
    "name": "Vermont Pub and Brewery",
    "brewery_type": "brewpub",
    "street": "144 College St",
    "city": "Burlington",
    "state": "Vermont",
    "postal_code": "05401-8416",
    "website_url": "http://www.vermontbrewery.com",
    "phone": "8028650500",
    "created_at": "2018-07-24 01:34:23.785697",
    "updated_at": "2018-08-24 16:26:38.641451",
    "country": "United States",
    "longitude": "-73.2143746",
    "latitude": "44.4772683"
  },
  {
    "id": "7062",
    "name": "Von Trapp Brewing",
    "brewery_type": "micro",
    "street": "1333 Luce Hill Rd",
    "city": "Stowe",
    "state": "Vermont",
    "postal_code": "05672",
    "website_url": "http://www.trappfamily.com",
    "phone": "8022535750",
    "created_at": "2018-07-24 01:34:23.799304",
    "updated_at": "2018-08-24 16:26:40.123564",
    "country": "United States",
    "longitude": "-72.791432",
    "latitude": "44.470714"
  },
  {
    "id": "7063",
    "name": "Whetstone Craft Beers @ Whetstone Station",
    "brewery_type": "brewpub",
    "street": "36 Bridge St",
    "city": "Brattleboro",
    "state": "Vermont",
    "postal_code": "05301-3301",
    "website_url": "http://www.whetstonestation.com",
    "phone": "8024902354",
    "created_at": "2018-07-24 01:34:23.81166",
    "updated_at": "2018-08-24 16:26:41.638762",
    "country": "United States",
    "longitude": "-72.5562701183785",
    "latitude": "42.85164595"
  },
  {
    "id": "7064",
    "name": "Zero Gravity Craft Brewery",
    "brewery_type": "brewpub",
    "street": "716 Pine St",
    "city": "Burlington",
    "state": "Vermont",
    "postal_code": "05401-4922",
    "website_url": "http://www.zerogravitybeer.com",
    "phone": "8024970054",
    "created_at": "2018-07-24 01:34:23.824102",
    "updated_at": "2018-08-24 16:26:43.138158",
    "country": "United States",
    "longitude": "-73.2140363",
    "latitude": "44.4595462"
  },
  {
    "id": "7013",
    "name": "Brewster River Pub & Brewery",
    "brewery_type": "brewpub",
    "street": "4087 Vt Route 108 S",
    "city": "Jeffersonville",
    "state": "Vermont",
    "postal_code": "05464-9509",
    "website_url": "http://www.brewsterriverpubnbrewery.com",
    "phone": "8026446366",
    "created_at": "2018-07-24 01:34:23.140628",
    "updated_at": "2018-08-11 21:39:58.922837",
    "country": "United States",
    "longitude": "",
    "latitude": ""
  },
  {
    "id": "7043",
    "name": "Mill River Brewing BBQ & Smokehouse",
    "brewery_type": "brewpub",
    "street": "10 Beauregard Dr",
    "city": "Saint Albans City",
    "state": "Vermont",
    "postal_code": "05478",
    "website_url": "http://www.millriverbrewing.com",
    "phone": "8025824182",
    "created_at": "2018-07-24 01:34:23.552352",
    "updated_at": "2018-08-11 21:40:00.184493",
    "country": "United States",
    "longitude": "",
    "latitude": ""
  },
  {
    "id": "7048",
    "name": "Prohibition Pig",
    "brewery_type": "brewpub",
    "street": "23 S Main St Ste 1",
    "city": "Waterbury",
    "state": "Vermont",
    "postal_code": "05676-1863",
    "website_url": "http://www.prohibitionpig.com",
    "phone": "8022444120",
    "created_at": "2018-07-24 01:34:23.614413",
    "updated_at": "2018-08-11 21:40:00.350284",
    "country": "United States",
    "longitude": "",
    "latitude": ""
  },
  {
    "id": "7033",
    "name": "Idletyme Brewing Company",
    "brewery_type": "brewpub",
    "street": "1859 Mountain Rd",
    "city": "Stowe",
    "state": "Vermont",
    "postal_code": "05672-4890",
    "website_url": "http://www.idletymebrewing.com",
    "phone": "8022534765",
    "created_at": "2018-07-24 01:34:23.412946",
    "updated_at": "2018-08-24 16:26:01.216035",
    "country": "United States",
    "longitude": "-72.698401",
    "latitude": "44.473833"
  },
  {
    "id": "7010",
    "name": "Bobcat Brewery & Cafe",
    "brewery_type": "brewpub",
    "street": "5 Main St",
    "city": "Bristol",
    "state": "Vermont",
    "postal_code": "05443-1317",
    "website_url": "http://www.bobcatcafe.com",
    "phone": "8024533311",
    "created_at": "2018-07-24 01:34:23.096614",
    "updated_at": "2018-08-24 16:25:31.399741",
    "country": "United States",
    "longitude": "-73.0781120400805",
    "latitude": "44.13284975"
  },
  {
    "id": "7018",
    "name": "Farnham Ale & Lager",
    "brewery_type": "micro",
    "street": "82 Ethan Allen Dr",
    "city": "South Burlington",
    "state": "Vermont",
    "postal_code": "05403-5971",
    "website_url": "http://www.farnham-alelager.com",
    "phone": "8027351288",
    "created_at": "2018-07-24 01:34:23.212495",
    "updated_at": "2018-08-24 16:25:38.815347",
    "country": "United States",
    "longitude": "-73.1539127449664",
    "latitude": "44.482903885906"
  },
  {
    "id": "7046",
    "name": "Otter Creek Brewing Co",
    "brewery_type": "regional",
    "street": "793 Exchange St",
    "city": "Middlebury",
    "state": "Vermont",
    "postal_code": "05753-1193",
    "website_url": "http://www.ottercreekbrewing.com",
    "phone": "8023880727",
    "created_at": "2018-07-24 01:34:23.589201",
    "updated_at": "2018-08-24 16:26:19.304153",
    "country": "United States",
    "longitude": "-73.1707577239178",
    "latitude": "44.0331564353663"
  },
  {
    "id": "7058",
    "name": "The Norwich Inn - Jasper Murdock's Alehouse",
    "brewery_type": "brewpub",
    "street": "325 Main St",
    "city": "Norwich",
    "state": "Vermont",
    "postal_code": "05055-9453",
    "website_url": "http://www.norwichinn.com",
    "phone": "8026491143",
    "created_at": "2018-07-24 01:34:23.746822",
    "updated_at": "2018-08-24 16:26:35.696847",
    "country": "United States",
    "longitude": "-72.3091387",
    "latitude": "43.7150119"
  },
  {
    "id": "7047",
    "name": "Outer Limits Brewing, LLC",
    "brewery_type": "planning",
    "street": "",
    "city": "Proctorsville",
    "state": "Vermont",
    "postal_code": "05153-9518",
    "website_url": "",
    "phone": "2072057076",
    "created_at": "2018-07-24 01:34:23.601559",
    "updated_at": "2018-08-11 21:40:00.312124",
    "country": "United States",
    "longitude": "",
    "latitude": ""
  },
  {
    "id": "7004",
    "name": "14th Star Brewing",
    "brewery_type": "micro",
    "street": "133 N Main St Ste 7",
    "city": "Saint Albans",
    "state": "Vermont",
    "postal_code": "05478-1735",
    "website_url": "http://www.14thstarbrewing.com",
    "phone": "8025285988",
    "created_at": "2018-07-24 01:34:22.993627",
    "updated_at": "2018-08-11 21:39:58.560641",
    "country": "United States",
    "longitude": "",
    "latitude": ""
  },
  {
    "id": "7005",
    "name": "1st Republic Brewing Co",
    "brewery_type": "micro",
    "street": "39 River Rd Ste 6",
    "city": "Essex Junction",
    "state": "Vermont",
    "postal_code": "05452-3879",
    "website_url": "http://www.1strepublic-homebrew.com",
    "phone": "8028575318",
    "created_at": "2018-07-24 01:34:23.008797",
    "updated_at": "2018-08-11 21:39:58.60595",
    "country": "United States",
    "longitude": "",
    "latitude": ""
  },
  {
    "id": "7006",
    "name": "Alchemist Cannery",
    "brewery_type": "regional",
    "street": "35 Crossroad",
    "city": "Waterbury",
    "state": "Vermont",
    "postal_code": "05676-9003",
    "website_url": "http://www.alchemistbeer.com",
    "phone": "8022447744",
    "created_at": "2018-07-24 01:34:23.024732",
    "updated_at": "2018-08-11 21:39:58.640745",
    "country": "United States",
    "longitude": "",
    "latitude": ""
  },
  {
    "id": "7007",
    "name": "Backacre Beermakers",
    "brewery_type": "micro",
    "street": "",
    "city": "Weston",
    "state": "Vermont",
    "postal_code": "05161",
    "website_url": "http://www.backacrebeermakers.com",
    "phone": "",
    "created_at": "2018-07-24 01:34:23.042069",
    "updated_at": "2018-08-11 21:39:58.681912",
    "country": "United States",
    "longitude": "",
    "latitude": ""
  },
  {
    "id": "7008",
    "name": "Beer Naked Brewery",
    "brewery_type": "brewpub",
    "street": "7678 VT-RTE 9",
    "city": "Marlboro",
    "state": "Vermont",
    "postal_code": "05344",
    "website_url": "http://www.beernakedbrewery.com",
    "phone": "8024647702",
    "created_at": "2018-07-24 01:34:23.058405",
    "updated_at": "2018-08-11 21:39:58.754262",
    "country": "United States",
    "longitude": "",
    "latitude": ""
  },
  {
    "id": "7009",
    "name": "Bent Hill Brewery",
    "brewery_type": "micro",
    "street": "1972 Bent Hill Rd",
    "city": "Randolph",
    "state": "Vermont",
    "postal_code": "05060-8833",
    "website_url": "http://www.benthilbrewery.com",
    "phone": "8022491125",
    "created_at": "2018-07-24 01:34:23.080321",
    "updated_at": "2018-08-11 21:39:58.792921",
    "country": "United States",
    "longitude": "",
    "latitude": ""
  },
  {
    "id": "7011",
    "name": "Brewery In Planning - Waterbury",
    "brewery_type": "planning",
    "street": "",
    "city": "Waterbury",
    "state": "Vermont",
    "postal_code": "05676-9537",
    "website_url": "",
    "phone": "",
    "created_at": "2018-07-24 01:34:23.113383",
    "updated_at": "2018-08-11 21:39:58.855888",
    "country": "United States",
    "longitude": "",
    "latitude": ""
  },
  {
    "id": "7012",
    "name": "Brewery in Planning - Wayland",
    "brewery_type": "planning",
    "street": "",
    "city": "Waterbury Center",
    "state": "Vermont",
    "postal_code": "05677",
    "website_url": "",
    "phone": "8024987767",
    "created_at": "2018-07-24 01:34:23.126992",
    "updated_at": "2018-08-11 21:39:58.890319",
    "country": "United States",
    "longitude": "",
    "latitude": ""
  },
  {
    "id": "7014",
    "name": "Brocklebank Craft Brewing",
    "brewery_type": "micro",
    "street": "357 Dickerman Hill Rd",
    "city": "Chelsea",
    "state": "Vermont",
    "postal_code": "05038-9098",
    "website_url": "http://www.brocklebankvt.com",
    "phone": "8026854838",
    "created_at": "2018-07-24 01:34:23.154483",
    "updated_at": "2018-08-11 21:39:58.96835",
    "country": "United States",
    "longitude": "",
    "latitude": ""
  },
  {
    "id": "7015",
    "name": "Burlington Beer Company",
    "brewery_type": "micro",
    "street": "25 Omega Dr Ste 150",
    "city": "Williston",
    "state": "Vermont",
    "postal_code": "05495-7334",
    "website_url": "http://www.burlingtonbeercompany.com",
    "phone": "8028632337",
    "created_at": "2018-07-24 01:34:23.168965",
    "updated_at": "2018-08-11 21:39:59.00412",
    "country": "United States",
    "longitude": "",
    "latitude": ""
  },
  {
    "id": "7016",
    "name": "Drop In Brewing",
    "brewery_type": "micro",
    "street": "610 Route 7 S",
    "city": "Middlebury",
    "state": "Vermont",
    "postal_code": "05753-8987",
    "website_url": "http://www.dropinbeer.com",
    "phone": "8029897414",
    "created_at": "2018-07-24 01:34:23.18548",
    "updated_at": "2018-08-11 21:39:59.042353",
    "country": "United States",
    "longitude": "",
    "latitude": ""
  },
  {
    "id": "7017",
    "name": "Farm Road Brewery",
    "brewery_type": "planning",
    "street": "",
    "city": "Arlington",
    "state": "Vermont",
    "postal_code": "05250-8766",
    "website_url": "",
    "phone": "",
    "created_at": "2018-07-24 01:34:23.198799",
    "updated_at": "2018-08-11 21:39:59.085912",
    "country": "United States",
    "longitude": "",
    "latitude": ""
  },
  {
    "id": "7021",
    "name": "Foley Brothers Brewing Co.",
    "brewery_type": "micro",
    "street": "79 Stone Mill Dam Rd",
    "city": "Brandon",
    "state": "Vermont",
    "postal_code": "05733-8945",
    "website_url": "",
    "phone": "8024658413",
    "created_at": "2018-07-24 01:34:23.252331",
    "updated_at": "2018-08-11 21:39:59.25842",
    "country": "United States",
    "longitude": "",
    "latitude": ""
  },
  {
    "id": "7023",
    "name": "Foy Enterprises LLC DBA Dog River Brewery",
    "brewery_type": "micro",
    "street": "1400 US Route 302 Ste 4",
    "city": "Barre",
    "state": "Vermont",
    "postal_code": "05641-2320",
    "website_url": "",
    "phone": "8025054053",
    "created_at": "2018-07-24 01:34:23.278718",
    "updated_at": "2018-08-11 21:39:59.330282",
    "country": "United States",
    "longitude": "",
    "latitude": ""
  },
  {
    "id": "7026",
    "name": "GoodWater Brewery",
    "brewery_type": "micro",
    "street": "740 Marshall Ave",
    "city": "Williston",
    "state": "Vermont",
    "postal_code": "05495-8978",
    "website_url": "http://www.goodwaterbreweryvt.com",
    "phone": "8029997396",
    "created_at": "2018-07-24 01:34:23.318353",
    "updated_at": "2018-08-11 21:39:59.455708",
    "country": "United States",
    "longitude": "",
    "latitude": ""
  },
  {
    "id": "7027",
    "name": "Halyard Brewing Company",
    "brewery_type": "micro",
    "street": "80 Ethan Allen Dr Ste 2",
    "city": "South Burlington",
    "state": "Vermont",
    "postal_code": "05403-5971",
    "website_url": "http://www.halyardbrewing.us",
    "phone": "9048742734",
    "created_at": "2018-07-24 01:34:23.330884",
    "updated_at": "2018-08-11 21:39:59.499896",
    "country": "United States",
    "longitude": "",
    "latitude": ""
  },
  {
    "id": "7029",
    "name": "Hermit Thrush Brewery, LLC",
    "brewery_type": "micro",
    "street": "29 High St Ste 101C",
    "city": "Brattleboro",
    "state": "Vermont",
    "postal_code": "05301-3041",
    "website_url": "http://www.hermitthrushbrewery.com",
    "phone": "8022572337",
    "created_at": "2018-07-24 01:34:23.358831",
    "updated_at": "2018-08-11 21:39:59.588946",
    "country": "United States",
    "longitude": "",
    "latitude": ""
  },
  {
    "id": "7030",
    "name": "Hill Farmstead Brewery",
    "brewery_type": "micro",
    "street": "403 Hill Rd",
    "city": "Greensboro Bend",
    "state": "Vermont",
    "postal_code": "05842-8813",
    "website_url": "http://www.hillfarmstead.com",
    "phone": "8025337450",
    "created_at": "2018-07-24 01:34:23.372109",
    "updated_at": "2018-08-11 21:39:59.644031",
    "country": "United States",
    "longitude": "",
    "latitude": ""
  },
  {
    "id": "7034",
    "name": "J'ville Brewery",
    "brewery_type": "micro",
    "street": "201 Vt Route 112",
    "city": "Jacksonville",
    "state": "Vermont",
    "postal_code": "05342-9634",
    "website_url": "http://www.jvillebrewery.com",
    "phone": "8023682233",
    "created_at": "2018-07-24 01:34:23.425687",
    "updated_at": "2018-08-11 21:39:59.857209",
    "country": "United States",
    "longitude": "",
    "latitude": ""
  },
  {
    "id": "7036",
    "name": "Kingdom Brewing",
    "brewery_type": "micro",
    "street": "1876 Vt Route 105",
    "city": "Newport",
    "state": "Vermont",
    "postal_code": "05855-9915",
    "website_url": "http://www.kingdombrewingvt.com",
    "phone": "8023347096",
    "created_at": "2018-07-24 01:34:23.453804",
    "updated_at": "2018-08-11 21:39:59.930525",
    "country": "United States",
    "longitude": "",
    "latitude": ""
  },
  {
    "id": "7037",
    "name": "Lawson's Finest Liquids",
    "brewery_type": "micro",
    "street": "",
    "city": "Warren",
    "state": "Vermont",
    "postal_code": "05674",
    "website_url": "http://www.lawsonsfinest.com",
    "phone": "8024964677",
    "created_at": "2018-07-24 01:34:23.470717",
    "updated_at": "2018-08-11 21:39:59.961998",
    "country": "United States",
    "longitude": "",
    "latitude": ""
  },
  {
    "id": "7038",
    "name": "Long Trail Brewing Co",
    "brewery_type": "regional",
    "street": "5520 US Route 4 Jct. Route 4 & 100A",
    "city": "Bridgewater Corners",
    "state": "Vermont",
    "postal_code": "05035",
    "website_url": "http://www.longtrail.com",
    "phone": "8026725011",
    "created_at": "2018-07-24 01:34:23.485626",
    "updated_at": "2018-08-11 21:39:59.994203",
    "country": "United States",
    "longitude": "",
    "latitude": ""
  },
  {
    "id": "7039",
    "name": "Lost Nation Brewing",
    "brewery_type": "brewpub",
    "street": "87 Old Creamery Rd",
    "city": "Morrisville",
    "state": "Vermont",
    "postal_code": "05661-6152",
    "website_url": "http://www.lostnationbrewing.com",
    "phone": "",
    "created_at": "2018-07-24 01:34:23.498812",
    "updated_at": "2018-08-11 21:40:00.057992",
    "country": "United States",
    "longitude": "",
    "latitude": ""
  },
  {
    "id": "7044",
    "name": "Next Trick Brewing LLC",
    "brewery_type": "brewpub",
    "street": "2370 US Route 5",
    "city": "West Burke",
    "state": "Vermont",
    "postal_code": "05871-",
    "website_url": "http://www.nexttrickbrewing.com",
    "phone": "8023281364",
    "created_at": "2018-07-24 01:34:23.565046",
    "updated_at": "2018-08-11 21:40:00.217149",
    "country": "United States",
    "longitude": "",
    "latitude": ""
  },
  {
    "id": "7052",
    "name": "Rock Art Brewery",
    "brewery_type": "micro",
    "street": "632 Laporte Rd",
    "city": "Morrisville",
    "state": "Vermont",
    "postal_code": "05661-8322",
    "website_url": "http://www.rockartbrewery.com",
    "phone": "8028889400",
    "created_at": "2018-07-24 01:34:23.665323",
    "updated_at": "2018-08-11 21:40:00.547854",
    "country": "United States",
    "longitude": "",
    "latitude": ""
  },
  {
    "id": "7054",
    "name": "Simple Roots Brewing Co",
    "brewery_type": "micro",
    "street": "1127 North Ave Ste 8",
    "city": "Burlington",
    "state": "Vermont",
    "postal_code": "05408-2756",
    "website_url": "",
    "phone": "",
    "created_at": "2018-07-24 01:34:23.69056",
    "updated_at": "2018-08-11 21:40:00.638596",
    "country": "United States",
    "longitude": "",
    "latitude": ""
  },
  {
    "id": "7055",
    "name": "Stone Corral Brewery",
    "brewery_type": "micro",
    "street": "83 Huntington Rd Unit 1",
    "city": "Richmond",
    "state": "Vermont",
    "postal_code": "05477-9839",
    "website_url": "http://stonecorral.com",
    "phone": "8024345787",
    "created_at": "2018-07-24 01:34:23.70513",
    "updated_at": "2018-08-11 21:40:00.685608",
    "country": "United States",
    "longitude": "",
    "latitude": ""
  },
  {
    "id": "7019",
    "name": "Fiddlehead Brewing",
    "brewery_type": "regional",
    "street": "6305 Shelburne Rd",
    "city": "Shelburne",
    "state": "Vermont",
    "postal_code": "05482-4437",
    "website_url": "http://www.fiddleheadbrewing.com",
    "phone": "8023992994",
    "created_at": "2018-07-24 01:34:23.226314",
    "updated_at": "2018-08-24 16:25:40.265203",
    "country": "United States",
    "longitude": "-73.2326193",
    "latitude": "44.3660621"
  },
  {
    "id": "7020",
    "name": "Foam Brewers",
    "brewery_type": "micro",
    "street": "112 Lake St",
    "city": "Burlington",
    "state": "Vermont",
    "postal_code": "05401-5284",
    "website_url": "http://www.foambrewers.com",
    "phone": "8023992511",
    "created_at": "2018-07-24 01:34:23.238918",
    "updated_at": "2018-08-24 16:25:41.783724",
    "country": "United States",
    "longitude": "-73.2200287",
    "latitude": "44.4793121"
  },
  {
    "id": "7022",
    "name": "Four Quarters Brewing Co",
    "brewery_type": "micro",
    "street": "150 W Canal St",
    "city": "Winooski",
    "state": "Vermont",
    "postal_code": "05404-2171",
    "website_url": "http://www.4qbc.com",
    "phone": "8023243327",
    "created_at": "2018-07-24 01:34:23.265385",
    "updated_at": "2018-08-24 16:25:44.828803",
    "country": "United States",
    "longitude": "-73.1924334",
    "latitude": "44.4906838"
  },
  {
    "id": "7024",
    "name": "Frost Beer Works",
    "brewery_type": "micro",
    "street": "171 Commerce St",
    "city": "Hinesburg",
    "state": "Vermont",
    "postal_code": "05461-4482",
    "website_url": "http://www.frostbeerworks.com",
    "phone": "9499454064",
    "created_at": "2018-07-24 01:34:23.291195",
    "updated_at": "2018-08-24 16:25:47.796668",
    "country": "United States",
    "longitude": "-73.1089808",
    "latitude": "44.3353247"
  },
  {
    "id": "7025",
    "name": "Good Measure Brewing Co",
    "brewery_type": "micro",
    "street": "17 East St",
    "city": "Northfield",
    "state": "Vermont",
    "postal_code": "05663-6719",
    "website_url": "http://www.goodmeasurebrewing.com",
    "phone": "",
    "created_at": "2018-07-24 01:34:23.3049",
    "updated_at": "2018-08-24 16:25:49.248973",
    "country": "United States",
    "longitude": "-72.6556223",
    "latitude": "44.1487966"
  },
  {
    "id": "7028",
    "name": "Harpoon Brewery - Vermont",
    "brewery_type": "regional",
    "street": "336 Ruth Carney Dr",
    "city": "Windsor",
    "state": "Vermont",
    "postal_code": "05089-9419",
    "website_url": "http://www.harpoonbrewery.com",
    "phone": "8026745491",
    "created_at": "2018-07-24 01:34:23.345499",
    "updated_at": "2018-08-24 16:25:53.706046",
    "country": "United States",
    "longitude": "-72.4038061589056",
    "latitude": "43.5147804539307"
  },
  {
    "id": "7031",
    "name": "Hogback Mountain Brewery",
    "brewery_type": "micro",
    "street": "51 North St",
    "city": "Bristol",
    "state": "Vermont",
    "postal_code": "05443-1026",
    "website_url": "http://hogbackbrew.com",
    "phone": "8023498195",
    "created_at": "2018-07-24 01:34:23.385232",
    "updated_at": "2018-08-24 16:25:58.152187",
    "country": "United States",
    "longitude": "-73.079007",
    "latitude": "44.136511"
  },
  {
    "id": "7032",
    "name": "Hop'n Moose Brewing Company",
    "brewery_type": "brewpub",
    "street": "41 Center St",
    "city": "Rutland",
    "state": "Vermont",
    "postal_code": "05701-4016",
    "website_url": "http://www.hopnmoose.com",
    "phone": "8027757063",
    "created_at": "2018-07-24 01:34:23.399491",
    "updated_at": "2018-08-24 16:25:59.688167",
    "country": "United States",
    "longitude": "-72.97743",
    "latitude": "43.606783"
  },
  {
    "id": "7035",
    "name": "Kickback Brewery",
    "brewery_type": "micro",
    "street": "934 Osgood Hill Rd",
    "city": "Westford",
    "state": "Vermont",
    "postal_code": "05494-9740",
    "website_url": "http://www.kickbackbrewery.com",
    "phone": "8029994997",
    "created_at": "2018-07-24 01:34:23.438557",
    "updated_at": "2018-08-24 16:26:04.16377",
    "country": "United States",
    "longitude": "-72.9940246666667",
    "latitude": "44.582023"
  },
  {
    "id": "7040",
    "name": "Madison Brewing Co, Pub and Restaurant",
    "brewery_type": "brewpub",
    "street": "428 Main St",
    "city": "Bennington",
    "state": "Vermont",
    "postal_code": "05201-2109",
    "website_url": "http://www.madisonbrewingco.com",
    "phone": "8024427397",
    "created_at": "2018-07-24 01:34:23.511769",
    "updated_at": "2018-08-24 16:26:10.271439",
    "country": "United States",
    "longitude": "-73.1963588",
    "latitude": "42.8783819"
  },
  {
    "id": "7041",
    "name": "Magic Hat Brewing Co/ North American Breweries",
    "brewery_type": "regional",
    "street": "5 Bartlett Bay Rd",
    "city": "South Burlington",
    "state": "Vermont",
    "postal_code": "05403-7727",
    "website_url": "",
    "phone": "8026582739",
    "created_at": "2018-07-24 01:34:23.524748",
    "updated_at": "2018-08-24 16:26:11.832576",
    "country": "United States",
    "longitude": "-73.2161677321332",
    "latitude": "44.4280869177478"
  },
  {
    "id": "7042",
    "name": "McNeills Brewery",
    "brewery_type": "brewpub",
    "street": "90 Elliot St",
    "city": "Brattleboro",
    "state": "Vermont",
    "postal_code": "05301-3269",
    "website_url": "",
    "phone": "8022542553",
    "created_at": "2018-07-24 01:34:23.538639",
    "updated_at": "2018-08-24 16:26:13.332244",
    "country": "United States",
    "longitude": "-72.5593377877259",
    "latitude": "42.8518860973285"
  },
  {
    "id": "7045",
    "name": "Northshire Brewery, Inc",
    "brewery_type": "micro",
    "street": "108 County St",
    "city": "Bennington",
    "state": "Vermont",
    "postal_code": "05201-1807",
    "website_url": "http://www.northshirebrewery.com",
    "phone": "8026810201",
    "created_at": "2018-07-24 01:34:23.577093",
    "updated_at": "2018-08-24 16:26:17.856275",
    "country": "United States",
    "longitude": "-73.2005387655444",
    "latitude": "42.8845716422375"
  },
  {
    "id": "7049",
    "name": "Queen City Brewery, LLC",
    "brewery_type": "micro",
    "street": "703 Pine St",
    "city": "Burlington",
    "state": "Vermont",
    "postal_code": "05401-4921",
    "website_url": "http://www.queencitybrewery.com",
    "phone": "8025400280",
    "created_at": "2018-07-24 01:34:23.626553",
    "updated_at": "2018-08-24 16:26:22.375117",
    "country": "United States",
    "longitude": "-73.2148327517794",
    "latitude": "44.4594977"
  },
  {
    "id": "7050",
    "name": "Red Barn Brewing",
    "brewery_type": "micro",
    "street": "2170 Oneida Rd",
    "city": "Danville",
    "state": "Vermont",
    "postal_code": "05828-",
    "website_url": "http://www.redbarnbrewingvt.com",
    "phone": "8026849749",
    "created_at": "2018-07-24 01:34:23.63971",
    "updated_at": "2018-08-24 16:26:23.825803",
    "country": "United States",
    "longitude": "-72.1774857648902",
    "latitude": "44.3946042903555"
  },
  {
    "id": "7051",
    "name": "River Roost Brewery",
    "brewery_type": "micro",
    "street": "230 S Main St",
    "city": "White River Junction",
    "state": "Vermont",
    "postal_code": "05001-7204",
    "website_url": "http://www.riverroostbrewery.com",
    "phone": "",
    "created_at": "2018-07-24 01:34:23.65206",
    "updated_at": "2018-08-24 16:26:25.298021",
    "country": "United States",
    "longitude": "-72.3182154652398",
    "latitude": "43.64560685"
  },
  {
    "id": "7053",
    "name": "Saint J Brewery",
    "brewery_type": "brewpub",
    "street": "2002 Memorial Dr",
    "city": "Saint Johnsbury",
    "state": "Vermont",
    "postal_code": "05819-8991",
    "website_url": "http://www.saintjbrewery.com",
    "phone": "8024241700",
    "created_at": "2018-07-24 01:34:23.677773",
    "updated_at": "2018-08-24 16:26:28.273915",
    "country": "United States",
    "longitude": "-72.0150689797139",
    "latitude": "44.4591821904348"
  },
  {
    "id": "7056",
    "name": "Switchback Brewing Co",
    "brewery_type": "regional",
    "street": "160 Flynn Ave",
    "city": "Burlington",
    "state": "Vermont",
    "postal_code": "05401-5400",
    "website_url": "http://www.switchbackvt.com",
    "phone": "8026514114",
    "created_at": "2018-07-24 01:34:23.719026",
    "updated_at": "2018-08-24 16:26:32.664544",
    "country": "United States",
    "longitude": "-73.2206807506227",
    "latitude": "44.45680085"
  },
  {
    "id": "7057",
    "name": "Ten Bends Beer",
    "brewery_type": "micro",
    "street": "590 E Main St",
    "city": "Hyde Park",
    "state": "Vermont",
    "postal_code": "05655-9267",
    "website_url": "http://wwwtenbendsbeer.com",
    "phone": "8025217139",
    "created_at": "2018-07-24 01:34:23.73326",
    "updated_at": "2018-08-24 16:26:34.184499",
    "country": "United States",
    "longitude": "-72.6051502167353",
    "latitude": "44.5889469434272"
  },
  {
    "id": "7059",
    "name": "Trout River Brewing Co",
    "brewery_type": "micro",
    "street": "100 River Street RR 5",
    "city": "Springfield",
    "state": "Vermont",
    "postal_code": "05156",
    "website_url": "http://www.troutriverbrewing.com",
    "phone": "",
    "created_at": "2018-07-24 01:34:23.7604",
    "updated_at": "2018-08-11 21:40:00.838706",
    "country": "United States",
    "longitude": "",
    "latitude": ""
  },
  {
    "id": "7065",
    "name": "Zero Gravity Craft Brewery",
    "brewery_type": "micro",
    "street": "716 Pinte Street",
    "city": "Burlington",
    "state": "Vermont",
    "postal_code": "05401",
    "website_url": "",
    "phone": "8024970054",
    "created_at": "2018-07-24 01:34:23.838067",
    "updated_at": "2018-08-11 21:40:01.035496",
    "country": "United States",
    "longitude": "",
    "latitude": ""
  },
  {
    "id": "7061",
    "name": "Vermont Pub and Brewery",
    "brewery_type": "brewpub",
    "street": "144 College St",
    "city": "Burlington",
    "state": "Vermont",
    "postal_code": "05401-8416",
    "website_url": "http://www.vermontbrewery.com",
    "phone": "8028650500",
    "created_at": "2018-07-24 01:34:23.785697",
    "updated_at": "2018-08-24 16:26:38.641451",
    "country": "United States",
    "longitude": "-73.2143746",
    "latitude": "44.4772683"
  },
  {
    "id": "7062",
    "name": "Von Trapp Brewing",
    "brewery_type": "micro",
    "street": "1333 Luce Hill Rd",
    "city": "Stowe",
    "state": "Vermont",
    "postal_code": "05672",
    "website_url": "http://www.trappfamily.com",
    "phone": "8022535750",
    "created_at": "2018-07-24 01:34:23.799304",
    "updated_at": "2018-08-24 16:26:40.123564",
    "country": "United States",
    "longitude": "-72.791432",
    "latitude": "44.470714"
  },
  {
    "id": "7063",
    "name": "Whetstone Craft Beers @ Whetstone Station",
    "brewery_type": "brewpub",
    "street": "36 Bridge St",
    "city": "Brattleboro",
    "state": "Vermont",
    "postal_code": "05301-3301",
    "website_url": "http://www.whetstonestation.com",
    "phone": "8024902354",
    "created_at": "2018-07-24 01:34:23.81166",
    "updated_at": "2018-08-24 16:26:41.638762",
    "country": "United States",
    "longitude": "-72.5562701183785",
    "latitude": "42.85164595"
  },
  {
    "id": "7064",
    "name": "Zero Gravity Craft Brewery",
    "brewery_type": "brewpub",
    "street": "716 Pine St",
    "city": "Burlington",
    "state": "Vermont",
    "postal_code": "05401-4922",
    "website_url": "http://www.zerogravitybeer.com",
    "phone": "8024970054",
    "created_at": "2018-07-24 01:34:23.824102",
    "updated_at": "2018-08-24 16:26:43.138158",
    "country": "United States",
    "longitude": "-73.2140363",
    "latitude": "44.4595462"
  },
  {
    "id": "7013",
    "name": "Brewster River Pub & Brewery",
    "brewery_type": "brewpub",
    "street": "4087 Vt Route 108 S",
    "city": "Jeffersonville",
    "state": "Vermont",
    "postal_code": "05464-9509",
    "website_url": "http://www.brewsterriverpubnbrewery.com",
    "phone": "8026446366",
    "created_at": "2018-07-24 01:34:23.140628",
    "updated_at": "2018-08-11 21:39:58.922837",
    "country": "United States",
    "longitude": "",
    "latitude": ""
  },
  {
    "id": "7043",
    "name": "Mill River Brewing BBQ & Smokehouse",
    "brewery_type": "brewpub",
    "street": "10 Beauregard Dr",
    "city": "Saint Albans City",
    "state": "Vermont",
    "postal_code": "05478",
    "website_url": "http://www.millriverbrewing.com",
    "phone": "8025824182",
    "created_at": "2018-07-24 01:34:23.552352",
    "updated_at": "2018-08-11 21:40:00.184493",
    "country": "United States",
    "longitude": "",
    "latitude": ""
  },
  {
    "id": "7048",
    "name": "Prohibition Pig",
    "brewery_type": "brewpub",
    "street": "23 S Main St Ste 1",
    "city": "Waterbury",
    "state": "Vermont",
    "postal_code": "05676-1863",
    "website_url": "http://www.prohibitionpig.com",
    "phone": "8022444120",
    "created_at": "2018-07-24 01:34:23.614413",
    "updated_at": "2018-08-11 21:40:00.350284",
    "country": "United States",
    "longitude": "",
    "latitude": ""
  },
  {
    "id": "7033",
    "name": "Idletyme Brewing Company",
    "brewery_type": "brewpub",
    "street": "1859 Mountain Rd",
    "city": "Stowe",
    "state": "Vermont",
    "postal_code": "05672-4890",
    "website_url": "http://www.idletymebrewing.com",
    "phone": "8022534765",
    "created_at": "2018-07-24 01:34:23.412946",
    "updated_at": "2018-08-24 16:26:01.216035",
    "country": "United States",
    "longitude": "-72.698401",
    "latitude": "44.473833"
  }
]